wdid,structureName,streamMile,latitude,longitude,sum_netAbs
3600501,ABBETT AND BENNETT DITCH,4.04,39.91757,-106.42088100000001,3.5
3600502,ABBETT AND LOSER DITCH,4.04,39.917367999999996,-106.424153,2.0
3600507,ALBER DITCH,0.55,39.782148,-106.170772,11.0
3600508,BENSON DITCH (BRUSH CREEK),0.92,39.808995,-106.205304,0.0
3600514,BEAVER CREEK NO 1 DITCH,0.1,39.873543,-106.345183,3.0
3600516,BEAVER HEAD DITCH,0.45,39.51447,-106.05801100000001,3.0
3600517,BELL DITCH,0.61,39.916815,-106.35448899999999,5.13
3600519,BELL NO 2 DITCH,0.1,39.921058,-106.346873,0.3
3600520,BELLS BLUE RIVER DITCH,12.51,39.912833,-106.340593,2.5
3600521,BENSON DITCH,0.5,39.737878,-106.142329,4.17
3600522,BENTON CREEK NO 1 DITCH,2.01,39.965011,-106.398176,4.25
3600523,BENTON CREEK NO 2 DITCH,1.11,39.966046999999996,-106.393689,2.2
3600526,BLACK CREEK DITCH,1.3,39.840604,-106.255155,6.8
3600529,BLUE DANUBE NO 2 DITCH,50.45,39.552446999999994,-106.0422,6.109
3600530,BLUE RIVER IRRIGATION DITCH,30.94,39.768421000000004,-106.153283,1.55
3600531,MOSER PUMP NO. 1,29.8,39.782737,-106.161498,0.5
3600532,BLUE VALLEY RANCH NORTH SPRUCE CREEK DIVERSION,1.89,39.942524,-106.390625,0.75
3600534,BLUE VALLEY DITCH,0.86,39.730476,-106.115998,2.0
3600535,BOBO DITCH,43.64,39.629687,-106.0713,7.63
3600536,BOBO STRAIT SPRINGS,,39.647406,-106.07466200000002,3.0
3600538,BRADDOCK DITCH,52.85,39.52381,-106.04840300000001,0.08
3600540,BROWN ACORN DITCH,2.05,39.763325,-106.115104,11.08
3600541,BRUSH CREEK DITCH,1.31,39.798704,-106.21070800000001,13.1
3600542,BUFFALO DITCH,1.07,39.65025,-106.095289,6.48
3600545,BUMGARNER NO 1 DITCH,3.51,39.972446999999995,-106.431127,4.58
3600546,BUMGARNER NO 2 DITCH,3.49,39.976468,-106.43011000000001,4.58
3600553,CARWOOD DITCH,1.18,39.564345,-106.085927,3.6495000000000006
3600555,CATARACT CREEK NO 2 DITCH,0.94,39.856768,-106.287176,2.0
3600567,CLANCEY DITCH,0.77,39.845619,-106.220859,2.0
3600568,CLEAR CREEK DITCH HDG 1,2.16,39.889274,-106.24843999999999,6.18
3600569,C M OMER DITCH,1.52,39.807085,-106.139303,3.0
3600570,COLUMBUS DITCH (HDG 1),0.5,39.71548,-106.15770900000001,6.0
3600571,COLUMBINE DITCH,4.82,39.730649,-106.21453400000001,5.0
3600575,COULTER NO 1 DITCH,3.46,39.960678,-106.421784,0.75
3600576,COULTER NO 2 DITCH,2.33,39.963679,-106.413604,0.25
3600577,COW CAMP DITCH,1.43,39.893591,-106.28468400000001,2.0
3600578,COW CAMP CREEK DITCH NO 2,1.31,39.892026,-106.285192,3.58
3600579,CRYSTAL CREEK DITCH,0.97,39.437256,-106.072227,0.0
3600580,MILL CREEK DIVERSION NO 1,6.99,39.605433000000005,-105.943426,0.6
3600581,CURRAN DITCH,0.5,39.717618,-106.14834099999999,3.5999999999999996
3600584,D D DITCH,0.29,39.721918,-106.12980300000001,1.4537
3600588,DERCUM DITCH,8.1,39.607732,-105.926404,3.19
3600589,DILLON DITCH,1.81,39.610285,-106.08910300000001,10.0
3600591,DOMESTIC SUPPLY DITCH,2.04,39.769998,-106.11174399999999,3.8
3600593,DRY CREEK DITCH - HEADGATE NO 1,0.24,40.017656,-106.38890400000001,2.0
3600594,DRY CREEK NO 1 DITCH,2.11,40.010222,-106.420984,6.0
3600595,DRY CREEK NO 2 DITCH,1.68,40.009663,-106.41211499999999,3.0
3600596,DRY CREEK NO 3 DITCH,1.35,40.01279,-106.407634,2.0
3600597,DUSING NO 1 DITCH,0.85,39.781176,-106.17515800000001,1.31
3600603,ED WARD DITCH,37.63,39.702608000000005,-106.10655600000001,16.98
3600606,ELLIOTT CREEK FEEDER,0.6,39.876806,-106.341926,90.0
3600609,EMMETT DITCH NO 3,1.86,39.804111999999996,-106.22083700000002,5.66
3600610,EMMA SPERRY DITCH,0.4,39.816281,-106.20380700000001,0.5
3600611,EMMET BRUSH CREEK NO 1 DITCH,1.48,39.805523,-106.214262,0.33
3600612,EMMETS BRUSH CREEK NO 1 ENLARGEMENT DITCH,3.78,39.788726000000004,-106.23669299999999,10.0
3600613,EMMET BRUSH CREEK NO 2 DITCH,1.29,39.806226,-106.21077,1.35
3600614,ENGLE DITCH,2.02,39.964889,-106.40674399999999,4.13
3600617,FAMINE CREEK DITCH,1.29,39.687635,-106.12055600000001,5.0
3600618,FISH DITCH,0.01,39.71886,-106.104891,5.25
3600623,FORSLUND DITCH,1.78,39.800494,-106.13156699999999,1.0
3600625,FREMONT NO 1 DITCH (S FK),18.46,39.389982,-106.180749,20.0
3600629,FRISCO TOWN DITCH (NEW),0.63,39.576401000000004,-106.12196499999999,3.34
3600631,F W S DITCH,0.93,39.808896999999995,-106.20518600000001,2.0
3600633,GARDEN DITCH,1.93,39.832219,-106.254044,3.5
3600634,GIBERSON DITCH,1.03,39.566734000000004,-106.08675600000001,4.0
3600637,GILBERT DITCH,0.24,39.713112,-106.108672,1.5
3600640,GOULD DITCH,1.2,39.734555,-106.11335700000001,3.3200000000000003
3600641,GRAFF DITCH,1.25,39.651278999999995,-106.09893000000001,2.0
3600642,GREEN MOUNTAIN CANAL,30.25,39.777167999999996,-106.158847,26.0
3600643,GRIGGS DITCH,1.25,39.988431,-106.392528,6.0
3600644,GUTHRIE BROS DITCH,1.35,39.851592,-106.29080900000001,4.0
3600645,GUTHRIE THOMAS DITCH,3.5,39.83886,-106.350303,37.38
3600646,GUYSELMAN DITCH,2.85,39.837185,-106.306982,6.8
3600647,GUYSELMAN NO 2 DITCH,2.52,39.839715999999996,-106.30218,3.02
3600649,HAMILTON DAVIDSON DITCH,1.56,39.772571,-106.17871299999999,50.39
3600651,HEIL NO 1 DITCH,0.0,39.985432,-106.444703,4.0
3600652,HEIL NO 2 DITCH,3.83,39.981955,-106.43668899999999,1.5
3600653,HEIL NO 3 DITCH,3.84,39.980807,-106.437005,3.02
3600654,HERBERT DITCH,1.01,39.779583,-106.17763000000001,2.0
3600655,HERBERT NO 2 DITCH,0.8,39.779738,-106.17304299999999,1.0
3600656,HIGH DITCH (SPRUCE CR),3.68,39.92135,-106.41169199999999,5.0
3600658,HIGHLINE DITCH,1.25,39.652806,-106.104165,9.88
3600659,HIGHLINE DITCH (SLATE CREEK),1.36,39.775171,-106.18001799999999,3.0
3600660,HIGH MILLER DITCH,28.69,39.795953999999995,-106.16335600000001,25.1
3600662,HOAGLAND CANAL (ELLIOT),2.05,39.857663,-106.34641599999999,25.0
3600665,HOMESTEAD DITCH,1.1,39.566525,-106.09746299999999,5.48
3600666,CONTER DITCH,2.83,39.800424,-106.12486100000001,0.0
3600670,INDEPENDENT DITCH,0.75,39.738134,-106.14653500000001,15.0
3600671,INDEPENDENT BLUE DITCH,33.99,39.736587,-106.13338,40.95
3600675,INTAKE DITCH,6.1,39.9646,-106.43184099999999,3.02
3600678,J F R DITCH,1.71,39.722266999999995,-106.16376100000001,1.5
3600683,KEYSTONE DITCH,0.61,39.594865000000006,-105.97276000000001,11.04
3600687,KIRKWOOD DITCH,1.89,39.768842,-106.18131100000001,16.65
3600689,KNORR NO 1 DITCH,0.4,39.852759999999996,-106.25413700000001,6.58
3600691,KUMNIG NO 1 DITCH,2.82,39.826361999999996,-106.279656,6.650000000000001
3600696,KUMNIG KNORR DITCH,0.81,39.846911,-106.255094,5.0
3600697,LAWSON DITCH,1.94,39.968353,-106.328516,1.0
3600699,LEE BROTHERS BEAVER CREEK DITCH NO 1,1.79,39.860664,-106.34478,4.0
3600702,LILLIAN DITCH,1.37,39.839601,-106.254622,8.42
3600704,LINDSTROM DITCH,0.37,39.801404,-106.156205,0.6
3600705,LINDSTROM NO 1 DITCH,29.59,39.785072,-106.16138600000001,6.0
3600706,LINDSTROM NO 2 DITCH,0.36,39.801266999999996,-106.156402,2.0
3600709,LOBACK DITCH,3.57,40.012809000000004,-106.38360300000001,75.8
3600711,LOFGREN PIPELINE,16.18,39.870658,-106.32184699999999,0.004
3600714,LOWLINE NO 1 DITCH,0.42,39.650090999999996,-106.083398,2.5
3600715,LOWLINE NO 2 DITCH HGT 2,0.07,39.650785,-106.077523,0.0
3600717,LUND BLUE RIVER DITCH,39.8,39.675889,-106.093747,2.75
3600718,LUSHER DITCH,0.53,39.576356,-106.120101,0.36
3600720,MARSHALL NO 1 DITCH,1.52,39.770641999999995,-106.122543,4.2
3600721,MARSHALL NO 2 DITCH,1.5,39.769952,-106.12394499999999,2.0
3600722,MARSHALL NO 3 DITCH,1.12,39.767041,-106.13143899999999,0.35
3600723,MARSHALL NO 4 DITCH,1.46,39.765188,-106.12557199999999,0.15
3600724,MARSHALL NO 5 DITCH,1.78,39.764225,-106.11986999999999,0.25
3600725,MARY DITCH,2.94,39.822724,-106.25563500000001,8.0
3600726,MARYLAND NO 1 DITCH,1.25,39.66195,-106.14523899999999,15.5
3600727,MARYLAND NO 2 DITCH,1.25,39.654798,-106.11344,5.0
3600728,MAT NO 1 DITCH,2.37,39.827779,-106.25636999999999,11.030000000000001
3600729,MAT NO 2 DITCH,2.53,39.826886,-106.254811,10.2
3600730,MAY DITCH,2.1,39.732476,-106.16727,12.0
3600733,MCDONALD DITCH,0.98,39.844633,-106.25501799999999,9.33
3600734,MCKAY DITCH,40.18,39.671486,-106.08953899999999,18.67
3600739,MEXICAN CREEK DITCH,4.5,39.60576,-105.98325600000001,0.111
3600741,MIDDLE BARTON NO 1 DITCH,1.77,39.513845,-106.08186,5.6
3600742,MIDDLE BARTON NO 2 DITCH,1.34,39.515152,-106.074005,5.6
3600743,MILLER NO 1 DITCH,0.17,39.810939000000005,-106.17214799999999,1.0
3600744,MILLER DITCH,0.79,39.819307,-106.16960300000001,1.0
3600746,MILLER NO 2 DITCH,0.73,39.848083,-106.255045,6.8
3600749,MINIE DITCH,27.63,39.807158,-106.168252,1.65
3600752,MONTEZUMA TOWN PIPELINE,12.87,39.581286999999996,-105.86320900000001,10.0
3600758,NOONEN DITCH,1.45,39.989208000000005,-106.39608100000001,4.02
3600759,NORTH ACORN DITCH HDG 1,1.85,39.774518,-106.11390700000001,3.31
3600763,OLD WHETSTONE SHEEP CREEK DITCH,0.29,39.700905999999996,-106.11406399999998,1.0
3600764,OTTER CREEK NO 1 DITCH,0.68,39.852165,-106.26828200000001,1.0
3600765,PALMER-MCKINLEY DITCH,27.61,39.807316,-106.168675,14.87
3600766,PASS CREEK NO 1 DITCH,1.59,39.807053,-106.13801799999999,1.0
3600767,PEABODY NO 1 DITCH,2.9,39.725539000000005,-106.17792299999999,4.1
3600768,PEABODY NO 2 DITCH,1.74,39.736067,-106.163142,2.25
3600770,PEABODY SUTTON DITCH,1.86,39.867639000000004,-106.390515,4.25
3600771,PEERLESS DITCH,0.2,39.767926,-106.147764,2.5
3600775,PHARO DITCH,9.0,39.952846,-106.358173,17.25
3600776,PHARO BAUER DITCH,8.05,39.963440000000006,-106.35906200000001,39.25
3600777,PHARO BAUER NO 1 DITCH,6.9,39.97726,-106.363704,18.0
3600780,PLUNGER DITCH,32.49,39.758106,-106.13122299999999,19.0
3600782,POLLY ABBETT DITCH,4.04,39.917639,-106.423363,1.0
3600783,QUAKEN ASP DITCH,1.29,39.734852000000004,-106.11154099999999,2.3200000000000003
3600784,RANKIN NO 1 DITCH,2.67,39.644615,-106.026602,3.5
3600789,R H LEE NO 2 DITCH,15.93,39.869391,-106.32710800000001,1.0
3600790,RICE DITCH,3.67,39.601232,-105.995503,1.06
3600791,ROBERTS IRRIGATING DITCH,0.37,39.737477,-106.13998799999999,9.56
3600793,RUBY DITCH,0.97,39.649698,-106.093567,1.0
3600794,RUTH DITCH,1.25,39.647795,-106.101463,3.0
3600795,SARAH DITCH,3.78,39.789083000000005,-106.24120800000001,4.0
3600796,SAUMS DITCH,0.57,39.813949,-106.203732,17.04
3600797,SAWMILL DITCH,1.25,39.63514,-106.112402,6.33
3600800,SLATE CREEK DITCH,1.22,39.777235,-106.179902,27.4
3600801,SMITH DITCH,1.59,39.879022,-106.389376,30.0
3600802,SMITH NO 1 DITCH,1.58,39.888342,-106.39805600000001,5.0
3600803,SMITH NO 2 DITCH,1.59,39.86779,-106.38768799999998,30.0
3600805,SNAKE RIVER DITCH,6.73,39.604312,-105.947654,0.575
3600806,CURRAN NO 2 DITCH DIV NO 1,0.5,39.71909,-106.13793600000001,1.374
3600810,SONDREGGER DITCH,1.33,39.684944,-106.07828700000002,3.5
3600811,SONDREGGER NO 2 DITCH,0.62,39.676904,-106.083514,3.7
3600812,SONDREGGER NO 3 DITCH,0.28,39.675713,-106.089418,6.48
3600813,SONDREGGER NO 4 DITCH,0.91,39.679108,-106.079001,6.48
3600814,SONDREGGER NO 5 DITCH,1.97,39.688584000000006,-106.065679,5.25
3600815,SOUTH ACORN DITCH,1.96,39.763208,-106.11697,3.06
3600816,SOUTH ROCK CREEK DITCH,0.5,39.689448999999996,-106.15153600000001,8.0
3600818,SPERRY DITCH,1.5,39.806121000000005,-106.21481000000001,1.0
3600819,F W SPERRY DITCH,1.31,39.806545,-106.211266,6.34
3600820,SPRING CREEK NO 1 DITCH,1.88,39.910216999999996,-106.375441,7.42
3600821,SPRING CREEK NO 2 DITCH,1.44,39.910707,-106.367519,2.09
3600822,SPRING CREEK NO 3 DITCH,1.08,39.913678999999995,-106.362301,7.42
3600824,CURRAN NO 2 DITCH DIV NO 2,0.5,39.719568,-106.134198,1.374
3600826,STAFFORD DITCH,0.0,39.934428000000004,-106.31701100000001,1.0
3600827,STAFFORD BLUE RIVER DITCH,12.65,39.911017,-106.341775,8.0
3600828,STAFFORD GREEN MTN DITCH,0.0,39.924316,-106.31259299999999,1.0
3600829,STRAIGHT CREEK DITCH,2.62,39.644498,-106.027649,3.5
3600830,SUPPLY CANAL NO 1 CLINTON,18.46,39.41517,-106.174994,20.0
3600832,SUTTON NO 1 DITCH,1.85,39.856758,-106.366003,12.5
3600838,SWANSON ORO GRANDE DITCH,2.59,39.644071000000004,-106.028074,4.0
3600845,TOWN RESERVOIR FEEDER DITCH,1.03,39.473168,-106.060873,15.3
3600847,TREMBLAY NO 2 DITCH,2.38,39.796106,-106.12747,0.0
3600849,UTE CREEK NO 1,0.91,39.798542,-106.189774,1.0
3600850,UTE CREEK NO 2,0.87,39.799058,-106.18951399999999,1.0
3600851,UTE CREEK NO 3,1.15,39.795505,-106.191625,1.25
3600852,VENDETT DITCH,0.75,39.681179,-106.11259199999999,1.5
3600854,VALAER DITCH,44.42,39.621783,-106.066681,1.44
3600856,VALIER NO 2 DITCH,0.71,39.649265,-106.08883999999999,0.0
3600857,VIE DITCH,1.86,39.804021,-106.22083500000001,9.57
3600858,WAHLSTROM NO 1 DITCH HGT 1,2.06,39.743355,-106.17138700000001,2.0
3600859,WAHLSTROM NO 2 DITCH,1.67,39.747307,-106.16718200000001,2.0
3600860,WAHLSTROM NO 3 DITCH,0.89,39.755317,-106.158224,3.0
3600861,WAHLSTROM NO 4 DITCH,0.57,39.758832,-106.15441899999999,2.0
3600862,WAHLSTROM NO 5 DITCH,0.33,39.761482,-106.15165,3.0
3600863,WARD NO 2 DITCH,0.42,39.723038,-106.09853999999999,7.98
3600868,WESTLAKE DITCH,0.93,39.856933000000005,-106.286922,16.07
3600869,WEST TENMILE DITCH,1.8,39.500469,-106.16441499999999,0.0
3600871,WHATLEY NO 1 DITCH,0.95,39.52115,-106.06648899999999,4.0
3600872,WHATLEY NO 2 DITCH,0.95,39.525940999999996,-106.06772600000001,1.0
3600873,WHATLEY NO 3 DITCH,1.44,39.519621,-106.076924,1.0
3600874,WHATLEY NO 4 DITCH,0.92,39.525312,-106.06558700000001,1.0
3600875,WHATLEY NO 5 DITCH,0.88,39.521637,-106.06451899999999,1.0
3600876,WILLIAMSON DITCH,10.94,39.929388,-106.354128,5.0
3600881,GREEN MTN HYDRO-ELECTRIC,15.56,39.878686,-106.33283,1726.0
3600883,BEAR TRAP SPRING,,39.98251,-106.445625,0.0067
3600885,BLUE RIVER GALLERY & PIPELINE,58.55,39.455766,-106.03113300000001,1.86
3600887,BREWER MINE SPRING NO 1,,39.464527000000004,-106.001434,0.0
3600888,BREWER SPRING NO 2,,39.46763,-105.99633100000001,0.0
3600889,BUFFALO MOUNTAIN GALLERY,43.84,39.626805,-106.07218700000001,2.637
3600891,BVR NO 1 SPG & COLL SYS,,39.945049,-106.308365,0.132
3600892,CARPENTER SPRING,,39.98003,-106.426202,0.0067
3600893,CHICAGO LODE TUNNEL SPG,,39.530511,-106.132329,0.015
3600895,CORONET SPG AND PL,,39.428859,-106.03136299999998,1.39
3600896,COX SPRING,,39.96952,-106.42953200000001,0.0264
3600897,CULBREATH DITCH NO 1,0.36,39.844164,-106.22809099999999,1.0
3600898,CULBREATH DITCH NO 2,0.38,39.844167999999996,-106.227741,1.0
3600900,FRIDAY TUNNEL,4.04,39.486211,-105.981256,0.033
3600902,HAWK SPRING,,39.761006,-106.13320800000001,0.018000000000000002
3600903,HIGH DITCH,7.82,39.955273,-106.42544199999999,2.0
3600906,KEYSTONE MUNICIPAL DIV 1,4.56,39.601812,-105.98028799999999,0.0
3600907,KEYSTONE MUNICIPAL DIV 2,11.36,39.597621999999994,-105.87540800000001,0.0
3600908,KEYSTONE SNOWLINE DITCH,6.46,39.606727,-105.951586,7.300000000000001
3600909,KITZMILLER PIPELINE,23.13,39.833259000000005,-106.22416899999999,0.01
3600912,TIGER RUN - BLUE RIVER DIVERSION,51.42,39.540059,-106.04108400000001,19.99
3600913,MEYERS SPRING NO 1,,39.965713,-106.43728600000001,0.044000000000000004
3600914,MEYERS SPRING NO 2,,39.967296000000005,-106.44541000000001,0.0067
3600915,PLANDEL PIPELINE,18.64,39.860388,-106.292189,0.0222
3600916,PLYMOUTH SPRING,,39.585848999999996,-105.87003999999999,0.066
3600918,REVETTE SPRINGS,,39.53881,-106.02853200000001,1.0170000000000001
3600920,SAN TOY SPRING NO 1,,39.995993,-106.43804899999999,0.1
3600921,SAN TOY SPRING NO 2,,39.990676,-106.434459,0.0067
3600922,SELLKE SPRING NO 1,,39.759828000000006,-106.132194,0.017
3600923,SELLKE SPRING NO 2,,39.761157,-106.132499,0.016
3600924,SELLKE SPRING NO 3,,39.760323,-106.132112,0.022000000000000002
3600926,TIGER RUN - SWAN RIVER DIVERSION 1,0.22,39.544594000000004,-106.03770700000001,25.044999999999998
3600929,THIRTY NINE DEG N P&PL,64.05,39.392133,-106.04839199999999,0.28800000000000003
3600931,VER PLOEG SPRING,,39.553227,-106.038592,0.011000000000000001
3600932,VIDLER TUNNEL DIV PT 1,5.64,39.623591,-105.792266,0.0
3600934,WILLOW HILLS PIPELINE,18.64,39.861268,-106.291656,0.05
3600935,YUST SPRING NO 1,,40.002136,-106.390482,0.6
3600936,B AND L DITCH,0.54,39.494402,-106.05528799999999,7.0
3600937,BLUE RIVER PARK PUMP STATION,44.3,39.623468,-106.066648,0.4
3600938,KEYSTONE LAKE DITCH,5.57,39.605681,-105.96472299999999,10.0
3600940,WHATLEY SPRING NO 2,,39.523576,-106.06254399999999,0.044000000000000004
3600941,HAMILTON CREEK DIVERSION,41.24,39.667365000000004,-106.066647,0.15
3600943,KEYSTONE HYDRO POWER PROJECT,3.0,39.566206,-105.954047,0.0
3600944,SILVER CREEK PIPELINE,13.38,39.573642,-105.85531399999999,1.0
3600945,HOAGLAND CANAL (SPRUCE),2.11,39.932981,-106.38701499999999,5.0
3600946,HOAGLAND CANAL (BENTON),7.47,39.971087,-106.378277,3.0
3600947,PEAK SEVEN PIPELINE,2.03,39.504186,-106.078023,0.0
3600948,CHIYO HORIUCHI SPG NO 1,,39.422003000000004,-106.04146999999999,0.033
3600949,FURMAN SEEPAGE & SPRINGS,,39.634001,-106.081259,0.1
3600950,HALLDORSON PIPELINE,16.67,39.871628,-106.30698100000001,0.40900000000000003
3600953,LYNNE HORIUCHI SPG NO 3,,39.422003000000004,-106.04146999999999,0.033
3600954,MAKOTO HORIUCHI SPG NO 2,,39.422003000000004,-106.04146999999999,0.033
3600956,SPRING CREEK RANCH SPRING 1,,39.912106,-106.38102099999999,0.0
3600957,SPRING CREEK RANCH SPRING 2,,39.912158000000005,-106.39048999999999,0.0
3600958,SPRING CREEK RANCH SPRING 3,,39.897601,-106.37624299999999,0.0
3600959,SPRING CREEK RANCH SPRING 4,,39.897626,-106.380981,0.0
3600961,SWEETWATER DITCH,17.53,39.872129,-106.30571599999999,1.2
3600962,WHITEFLOWER SPG & DITCH,,39.872273,-106.305724,0.2
3600963,BRECKENRIDGE RESERVOIR NO 2 FEEDER DITCH,0.03,39.475183,-106.04725400000001,18.776
3600964,BRECKENRIDGE RESERVOIR NO 1 FEEDER DITCH,0.04,39.473811,-106.058453,17.0
3600966,NEW KUMNIG DITCH,2.53,39.832436,-106.30059299999999,7.553000000000001
3600982,TIGER RUN - SWAN RIVER DIVERSION 2,0.49,39.541216999999996,-106.03549199999999,15.395
3600985,BLUE VALLEY RANCH HYDRO,8.06,39.963362,-106.35880300000001,129.0
3600988,STOCK POND DITCH HDG A,1.25,39.651489,-106.09958600000002,6.77
3600989,BRECKENRIDGE PIPELINE - AP,56.47,39.475256,-106.04718600000001,0.0
3600991,INDEPENDENT BLUE (ACORN),0.91,39.769560999999996,-106.134551,0.0
3600999,SPRING CREEK PIPELINE,2.29,39.911211,-106.38278500000001,0.11
3601001,VALAER DITCH HDG 2,0.2,39.624557,-106.07166299999999,4.16
3601002,CLEAR CREEK DITCH HDG 2,2.56,39.89452,-106.25243,0.0
3601003,CLEAR CREEK DITCH HDG 3,2.48,39.89484,-106.25445900000001,0.0
3601004,CLEAR CREEK DITCH HDG 4,1.44,39.887474,-106.27644099999999,0.0
3601005,DRY CREEK DITCH - HEADGATE NO 2,3.02,40.017993,-106.384844,0.0
3601006,COLUMBUS DITCH (HDG 2),1.21,39.722912,-106.15426299999999,3.0
3601008,BRECKENRIDGE PIPELINE,58.55,39.455546999999996,-106.031443,0.0
3601009,SWAN RIVER WATER SYSTEM,1.32,39.531177,-106.028699,2.45
3601010,YONLEY I SPRING,,39.582224,-105.87014099999999,0.001
3601011,KEYSTONE DITCH (MUNI),0.5,39.596382,-105.973468,0.0
3601012,LUSHER DITCH - DOT PLACER,62.02,39.415427,-106.0432,0.2817
3601014,STRAIGHT CREEK CONDUIT PT 1 - ROBERTS TUNNEL,2.97,39.646899,-106.02205500000001,0.0
3601015,STRAIGHT CREEK CONDUIT PT 2 - ROBERTS TUNNEL,1.78,39.639258,-106.04136899999999,0.0
3601017,GIBERSON HIGHLINE DITCH,2.67,39.591004,-106.108074,10.5
3601018,HOAGLAND CANAL (DEEP CR),1.39,39.886683000000005,-106.364094,25.0
3601019,HOAGLAND CANAL (SPRING),1.24,39.906001,-106.35710700000001,2.0
3601020,HOAGLAND CANAL (CAMP CK),0.94,39.963901,-106.375697,0.5
3601021,KEYSTONE DITCH - EAST LATERAL,0.24,39.599558,-105.976098,2.36
3601023,LOWLINE NO 2 DITCH HDG 1,42.2,39.648278999999995,-106.076715,0.0
3601025,GOULD DITCH HEADGATE NO2,1.18,39.735543,-106.114691,1.0
3601027,NORTH ACORN DITCH HDG 2,1.86,39.772433,-106.11336000000001,3.31
3601029,RANKIN NO 1 DITCH AP,3.0,39.64788,-106.022209,0.0
3601030,SONDREGGER NO 5 D HDGT 2,1.55,39.687117,-106.07526499999999,1.31
3601042,WAHLSTROM NO 1 DITCH HGT 2,1.46,39.752511,-106.170258,1.0
3601044,BRECKENRIDGE SKI AREA PUMP PLANT & PIPELINE,56.47,39.475301,-106.047175,417.43
3601047,HOAGLAND CANAL (MARTIN),1.56,39.868347,-106.35274,10.0
3601048,HOAGLAND CANAL(N SPRING),1.15,39.913117,-106.363378,1.0
3601049,HOAGLAND CANAL(N SPRUCE),1.03,39.94267,-106.390511,2.0
3601051,FREMONT NO 1 DITCH - MIDDLE FORK,18.46,39.382771000000005,-106.189022,20.0
3601052,FREMONT NO 1 DITCH - NORTH FORK,18.46,39.390063,-106.18082,20.0
3601053,ARAPAHOE BASIN SURFACE DIVERSION A,5.05,39.641621,-105.871452,0.0225
3601054,ARAPAHOE BASIN SURFACE DIVERSION B,11.1,39.641604,-105.87135900000001,0.0225
3601055,VIDLER TUNNEL UNIT HDGT A,5.64,39.623505,-105.79171799999999,2.8
3601056,VIDLER TUNNEL UNIT HDGT B,5.74,39.624783,-105.793259,7.6
3601057,VIDLER TUNNEL UNIT HDGT C,5.77,39.624971,-105.794752,0.4
3601058,VIDLER TUNNEL UNIT HDGT D,5.77,39.624925,-105.79489099999999,28.46
3601059,VIDLER TUNNEL UNIT HDGT E,5.31,39.620108,-105.798227,6.6
3601060,VIDLER TUNNEL UNIT HDGT F,5.13,39.619114,-105.79864599999999,3.6
3601061,VIDLER TUNNEL UNIT HDGT G,4.66,39.612512,-105.802275,0.0
3601062,VIDLER TUNNEL UNIT HDGT H,4.66,39.612392,-105.80271599999999,0.0
3601063,VIDLER TUNNEL UNIT HDGT J,4.63,39.612489000000004,-105.804278,0.0
3601064,VIDLER TUNNEL UNIT HDGT K,3.77,39.606291999999996,-105.810427,0.0
3601065,VIDLER TUNNEL UNIT HDGT L,3.3,39.607223,-105.817811,0.0
3601066,VIDLER TUNNEL UNIT HDGT M,3.28,39.619014,-105.824591,0.0
3601067,VIDLER TUNNEL UNIT HDGT N,3.12,39.61922,-105.82734199999999,0.0
3601068,VIDLER TUNNEL UNIT HDGT P,6.35,39.631946,-105.83441599999999,0.0
3601069,VIDLER TUNNEL UNIT HDGT Q,6.36,39.633608,-105.837652,0.0
3601070,VIDLER TUNNEL UNIT HDGT R,6.52,39.638575,-105.84105600000001,0.0
3601071,VIDLER TUNNEL UNIT HDGT S,6.47,39.635566,-105.84218500000001,0.0
3601072,VIDLER TUNNEL UNIT HDGT T,1.64,39.632717,-105.843631,0.0
3601073,VIDLER TUNNEL UNIT HDGT U,1.62,39.622803000000005,-105.84900900000001,0.0
3601074,VIDLER TUNNEL UNIT HDGT V,5.74,39.625004,-105.79121,0.0
3601075,VIDLER TUNNEL UNIT HDGT W,5.54,39.622228,-105.791307,0.0
3601076,VIDLER TUNNEL UNIT HDGT X,4.97,39.613323,-105.791823,0.0
3601077,VIDLER TUNNEL UNIT HDGT Y,4.97,39.613145,-105.791402,0.0
3601078,VIDLER TUNNEL UNIT HDGT Z,4.53,39.607333000000004,-105.792873,0.0
3601079,VIDLER TUNNEL UNIT HDGT ZZ,4.53,39.607292,-105.79356000000001,0.0
3601080,VIDLER - WILLOW CREEK UNIT HDGT A,1.25,39.651175,-106.099395,0.0
3601081,VIDLER - WILLOW CREEK UNIT HDGT B,1.25,39.649969,-106.10025,0.0
3601082,VIDLER - WILLOW CREEK UNIT HDGT C,0.56,39.619491,-106.07198100000001,0.0
3601085,COPPER MTN WEST LAKE PIPELINE 1,1.33,39.501503,-106.156535,14.4
3601086,COPPER MTN WEST LAKE PIPELINE 2,1.35,39.501211,-106.15683200000001,1.5
3601087,COPPER MTN WHEELER GULCH PIPELINE,1.13,39.499334000000005,-106.154452,2.5
3601088,COPPER MTN TENMILE CR PIPELINE,11.8,39.492145,-106.135099,5.78
3601089,COPPER MTN BEELER LAKE PIPELINE,0.59,39.503068,-106.145,7.1
3601090,COPPER MTN MCKENZIE LAKE PIPELINE,0.65,39.502271,-106.14537,7.1
3601091,COPPER MTN STAFFORD LAKE PIPELINE,0.9,39.501265999999994,-106.149506,5.7299999999999995
3601092,ARAPAHOE BASIN SNOWLINE,10.51,39.641284000000006,-105.87551599999999,1.1
3601093,GOLF SURFACE DIVERSION 1,3.63,39.601704,-105.99609199999999,4.0
3601094,HAWK HILL PUMP AND PIPELINE,30.59,39.772313,-106.15696799999999,0.0
3601095,FOX PUMP AND PIPELINE,30.12,39.778695,-106.159305,0.0
3601096,SONDREGGER NO 5 D HDGT 3,1.7,39.687367,-106.070558,0.0
3601097,TARGET PUMP,2.11,39.43658,-106.004682,0.08
3601098,RIVER CENTER HDGT & POND,43.55,39.630612,-106.072677,4.0
3601100,BLUE RIVER VALLEY RANCH RESERVOIR DIVERSION,42.22,39.647855,-106.069004,3.0
3601101,WINEGARD DITCH NO. 1,0.44,39.676155,-106.086545,10.0
3601102,WINEGARD DITCH NO. 2,0.37,39.676059,-106.08808300000001,10.0
3601103,ARAPAHOE BASIN SNOWLINE AP 1,2.04,39.622572,-105.916198,0.0
3601105,BRATTON CREEK PIPELINE,12.21,39.918634999999995,-106.331966,0.01
3601106,KUMNIG NO 1 DITCH AP NO 1,1.94,39.838249,-106.276955,0.0
3601107,TRIPLE CREEK DITCH,0.5,39.713772999999996,-106.139936,0.0
3601108,BRECK FLOW SPLIT CHANNEL,49.24,39.566885,-106.049727,9.52
3601109,ELK CREEK DITCH NO 1,0.95,39.715494,-106.09599399999999,0.3025
3601110,ELK CREEK DITCH NO 1 AP,0.64,39.714261,-106.10149299999999,0.0
3601111,STOCK POND DITCH HDG B,1.06,39.652640000000005,-106.09501200000001,1.0
3601112,SONDREGGER NO 5 D ALT PT,1.89,39.691194,-106.07186499999999,0.0
3601113,COTTONWOOD PARK HEADGATE,40.85,39.665447,-106.083125,0.0
3601114,BOBO DITCH ALT PT,42.34,39.646308000000005,-106.076544,0.0
3601115,BENSON RANCH POND DIVERSION,0.08,39.820452,-106.19338799999998,5.36
3601116,MINERS CREEK DITCH,3.45,39.532582,-106.085246,0.0
3601118,BARTON CREEK DIVERSION,2.03,39.499123,-106.074956,0.0
3601119,POND DITCH,7.51,39.969547999999996,-106.36288300000001,0.0
3601120,DILLON BLUE RIVER INTAKE,45.19,39.625608,-106.04838799999999,0.0
3601121,MELODY LODGE DITCH,22.44,39.837526000000004,-106.233034,0.25
3601122,KUMNIG NO 1 DITCH AP NO 2,2.8,39.826564000000005,-106.280151,0.0
3601123,BLUE RIVER WHITEWATER COURSE STRUCTURE 1,43.85,39.627016999999995,-106.07168999999999,0.0
3601124,BLUE RIVER WHITEWATER COURSE STRUCTURE 2,43.81,39.627417,-106.07222,0.0
3601125,BLUE RIVER WHITEWATER COURSE STRUCTURE 3,43.77,39.627964,-106.072496,0.0
3601126,MONTEZUMA BOWL/PORCUPINE PEAK SNOWLINE,9.97,39.601277,-105.897095,0.0
3601127,INDEPENDENCE MTN SNOWLINE,10.4,39.5994,-105.89041999999999,0.53
3601137,DILLON VALLEY DISTRICT - RANKIN NO 1 DITCH AP NO 3,2.97,39.646834999999996,-106.022171,0.0
3601138,STRAIGHT CREEK DITCH AP,2.97,39.646827,-106.022077,0.0
3601139,LASKEY GULCH AP,3.04,39.64864,-106.02176599999999,0.0
3601148,ELK CREEK DITCH NO 1 AP NO 2,0.63,39.714179,-106.101573,0.0
3601149,OLD DILLON RESERVOIR PUMP STATION,44.74,39.610112,-106.067981,0.0
3601150,HIGH MILLER DITCH OXBOW ENLARGEMENT,28.19,39.80209,-106.16510600000001,0.0
3601151,CATARACT CREEK 1 AND 3 - NEW PT OF DIVERSION,1.35,39.851602,-106.29075,6.5
3601152,BRECKENRIDGE PIPELINE ENLARGEMENT,49.03,39.569701,-106.04928000000001,0.0
3601153,BRECKENRIDGE PIPELINE ENLARGEMENT - AP,49.03,39.569802,-106.049026,0.0
3601154,STRAIGHT CREEK CONDUIT PT 2 - ROBERTS TUNNEL,1.52,39.629943,-106.040227,0.0
3601155,SWAN RIVER WATER SYSTEM - GOLD RUN AP,1.31,39.524375,-106.03062299999999,0.0
3601157,BELL DITCH HGT 2,0.51,39.915772,-106.351274,2.4
3601158,SPRUCE VALLEY AUGMENTATION PUMP,0.49,39.449658,-106.023872,0.0
3601159,LUCKY U LAKE,,39.764369,-106.14671299999999,0.0
3602000,MIN FLOW CATARACT CR LOW,0.29,39.864913,-106.277556,6.0
3602001,MIN FLOW OTTER CREEK,0.61,39.854019,-106.268258,3.0
3602002,MIN FLOW BRUSH CREEK,0.03,39.821399,-106.19795900000001,3.0
3602003,MIN FLOW WILLOW CREEK,0.13,39.64757,-106.080123,4.0
3602004,MIN FLOW CATARACT CR UP,3.85,39.830333,-106.324751,6.0
3602006,MIN FLOW NORTH ROCK CR,0.0,39.723420000000004,-106.122575,5.0
3602007,MIN FLOW SOUTH ROCK CR,0.49,39.723506,-106.13671799999999,4.0
3602008,MIN FLOW MARYLAND CREEK,0.03,39.701662,-106.10399,1.0
3602009,MIN FLOW PEBBLE CREEK,0.0,39.730788000000004,-106.136802,1.0
3602010,MIN FLOW BOULDER CREEK,0.03,39.737095000000004,-106.133925,6.0
3602011,MIN FLOW HARRIGAN CREEK,0.0,39.763411,-106.14155500000001,1.0
3602012,MIN FLOW SLATE CREEK,0.07,39.781504999999996,-106.16504499999999,7.0
3602013,MIN FLOW HAY CAMP CREEK,26.29,39.810549,-106.193247,1.0
3602014,MIN FLOW SQUAW CREEK,1.23,39.796044,-106.188448,1.0
3602015,MIN FLOW SOUTH BRUSH CR,1.17,39.806939,-106.20730900000001,2.0
3602016,MIN FLOW NORTH WILLOW CR,1.16,39.647621,-106.09916399999999,3.0
3602017,MIN FLOW MID WILLOW CR,1.16,39.647621,-106.09916399999999,2.0
3602018,MIN FLOW SOUTH WILLOW CR,1.16,39.647621,-106.09916399999999,3.0
3602019,MIN FLOW NORTH FORK SWAN RIVER,6.56,39.512834999999995,-105.947814,2.0
3602020,MIN FLOW DEER CREEK,14.12,39.560793,-105.85906999999999,2.0
3602021,MIN FLOW S FK SWAN RIVER,7.83,39.498092,-105.944074,1.5
3602022,MIN FLOW MID FORK SWAN RIVER - HDW TO N FORK,6.53,39.512082,-105.94956100000002,3.0
3602023,MIN FLOW NORTH TENMILE CREEK,0.02,39.574434000000004,-106.11098899999999,3.0
3602024,MIN FLOW CRYSTAL CREEK,1.34,39.43243,-106.055251,2.0
3602025,MIN FLOW SPRUCE CREEK,,39.947911,-106.35878999999998,0.5
3602026,MIN FLOW MEADOW CREEK,2.32,39.585961,-106.10333500000002,3.0
3602027,MIN FLOW SPRUCE CREEK,,39.441359999999996,-106.03898500000001,2.5
3602028,MIN FLOW KEYSTONE GULCH,0.0,39.601954,-105.97949799999999,1.5
3602029,MIN FLOW NORTH FORK SNAKE RIVER,7.03,39.605115000000005,-105.942572,3.5
3602030,MIN FLOW BLUE RIVER 3 - SWAN RIVER UP TO POND,50.93,39.546391,-106.03830400000001,20.0
3602031,MIN FLOW WEST TENMILE CK HW TO UNION GULCH,1.95,39.500398,-106.16703000000001,5.0
3602032,MIN FLOW TENMILE CREEK,10.46,39.509890000000006,-106.14206399999999,10.0
3602033,MIN FLOW SNAKE RIVER LOW - NORTH FORK TO DILLON,2.52,39.603840999999996,-106.010589,12.0
3602034,MIN FLOW BLUE RIVER 1 - BEMROSE/MONTE CRISTO - HWY,64.54,39.386928999999995,-106.052912,2.0
3602035,MIN FLOW BLUE RIVER 2 - FREDONIA TO GOOSE PASTURE ,59.16,39.448568,-106.034048,5.0
3602036,MIN FLOW WEST TENMILE CK - UNION GULCH TO TERMINUS,1.81,39.500502000000004,-106.164671,7.0
3602037,MIN FLOW BLUE RIVER 4 - SWAN RIVER TO DILLON,49.01,39.569951,-106.049494,32.0
3602038,MIN FLOW SWAN RIVER,0.0,39.546019,-106.038625,6.0
3602039,MIN FLOW SNAKE RIVER UP - DEER CK TO PERU CK,11.38,39.597460999999996,-105.875243,3.5
3602040,MIN FLOW STRAIGHT CREEK,2.97,39.6468,-106.022007,2.5
3602041,MIN FLOW INDIANA CREEK,0.03,39.454772,-106.02836699999999,2.0
3602042,MIN FLOW GULLER CREEK,2.61,39.504458,-106.17850700000001,1.5
3602043,MIN FLOW BLUE RIVER 5 - DILLON TO STRAIGHT CK,44.07,39.626513,-106.067732,50.0
3602044,MIN FLOW BLUE RIVER 6 - STRAIGHT CK TO WILLOW CK,41.96,39.651482,-106.076252,55.0
3602045,MIN FLOW BLUE RIVER 7 - ROCK CK TO WILLOW CK,35.6,39.723401,-106.125487,75.0
3602046,MIN FLOW BLUE RIVER 8 - ROCK CK TO BOULDER CK,33.97,39.73701,-106.133445,115.0
3602047,MIN FLOW BLUE RIVER 9 - BOULDER CK TO SLATE CK,29.76,39.782837,-106.16227099999999,125.0
3602048,MIN FLOW BLUE RIVER 10 - SLATE CK TO GMR,22.86,39.834308,-106.227226,125.0
3602049,MIN FLOW BLUE RIVER 11 - GMR TO COLORADO RIVER,0.02,40.042568,-106.39774299999999,60.0
3602050,MIN FLOW MINERS CREEK,0.3,39.576409000000005,-106.085999,1.5
3602063,MIN FLOW MINERS CREEK,48.37,39.576029999999996,-106.08608600000001,1.5
3602066,PEABODY NO 1 SEGMENT 1 BOULDER CREEK,2.9,39.725539000000005,-106.17792299999999,0.0
3602067,PEABODY NO 1 SEGMENT 2 BLUE RIVER,33.96,39.737185,-106.133927,0.0
3602068,PEABODY NO 1 SEGMENT 3 BLUE RIVER,30.84,39.769317,-106.154723,0.0
3602069,PEABODY NO 1 SEGMENT 4 BLUE RIVER,29.76,39.782837,-106.16231699999999,0.0
3602072,MIN FLOW OFFICERS GULCH,8.13,39.538204,-106.1465,1.5
3602073,MIN FLOW ACORN CREEK,2.13,39.762716,-106.11385700000001,1.0
3603501,ROBBIE'S POND,29.38,39.787446,-106.169881,0.0
3603502,TOP OF THE WORLD POND,1.31,39.788477,-106.183679,0.0
3603503,HAYCAMP CREEK POND B,1.4,39.786229,-106.192049,0.0
3603504,HAY CAMP CREEK POND E,1.4,39.78848,-106.192205,0.0
3603505,HAY CAMP CREEK POND G,1.32,39.792092,-106.191449,0.0
3603506,MAIN MEADOW POND  A,0.95,39.807159000000006,-106.19813500000001,0.0
3603507,MAIN MEADOW POND B,0.95,39.806441,-106.19788799999999,0.0
3603508,MAIN MEADOW POND C,0.95,39.805901,-106.197879,0.0
3603509,MORRIS MEADOW POND A,27.07,39.808434000000005,-106.17923200000001,0.0
3603510,MORRIS MEADOW POND B,26.69,39.807833,-106.180798,0.0
3603511,MORRIS MEADOW POND E,27.25,39.806163,-106.175712,0.0
3603513,MATHIS POND 1,0.18,39.7423,-106.135143,0.0
3603514,MATHIS POND 2,0.18,39.743487,-106.135442,0.0
3603533,BLACK LAKE RESERVOIR,5.49,39.795592,-106.27086299999999,1997.2
3603534,BOBO STRAIT RESERVOIR,41.95,39.652336,-106.07446999999999,40.0
3603537,BUMGARNER RESERVOIR,6.1,39.968067,-106.439255,22.0
3603538,CATARACT LAKE,3.45,39.835415000000005,-106.31683500000001,1652.8
3603539,BEARDSLEY NO 1 POND,1.31,39.798459,-106.210844,2.5
3603540,DILLON RESERVOIR-SALT CR,,39.611758,-106.07224599999999,323.40999999999997
3603542,GOOSE PASTURE TARN,58.62,39.454888000000004,-106.03056200000002,1498.73
3603543,GREEN MOUNTAIN RESERVOIR,15.77,39.876387,-106.33064499999999,209199.0
3603544,GRIGGS RESERVOIR,0.31,39.996871999999996,-106.38128999999999,40.8
3603545,GRIGGS RESERVOIR NO 2,0.71,39.992228999999995,-106.38536599999999,7.85
3603548,HOAGLAND NO 1 RESERVOIR,2.97,39.84583,-106.349797,921.5
3603549,JONES RESERVOIR,5.13,39.97951,-106.457917,14.6
3603555,LOST LAKE RESERVOIR,23.9,39.780051,-106.257534,75.0
3603557,CON-HOOSIER LOWER BLUE LAKE,64.36,39.387161,-106.089469,0.0
3603558,CON-HOOSIER MAYFLOWER LAKE,2.87,39.421714,-106.085778,0.0
3603560,MONTEZUMA RESERVOIR,12.97,39.578617,-105.864853,0.2
3603565,REYNOLDS RESERVOIR,1.79,39.583055,-105.996955,206.84
3603567,CON-HOOSIER SPRUCE LAKE,2.61,39.421518,-106.07481999999999,0.0
3603569,UPPER BLACK CREEK RESERVOIR,4.56,39.80494,-106.262975,428.34
3603570,CON-HOOSIER UPPER BLUE LAKE,64.36,39.385729,-106.100872,2140.0
3603571,WAY RESERVOIR,2.33,39.96349,-106.414396,93.67
3603573,MIN LAKE BOULDER LAKE,4.43,39.717262,-106.20113300000001,8.0
3603574,MIN LAKE CLIFF LAKE,8.63,39.780194,-106.33876000000001,271.0
3603575,CLINTON GULCH RESERVOIR,18.41,39.415312,-106.17255700000001,8710.0
3603576,FROST NO 2 RES COLL SYS,4.09,39.604877,-105.80408500000001,0.0
3603578,GRIGGS RESERVOIR NO 3,0.45,39.997046000000005,-106.386389,34.734
3603579,GRIGGS RESERVOIR NO 4,0.18,39.998625,-106.38166499999998,4.1
3603580,GRIGGS RESERVOIR NO 5,0.46,39.994824,-106.382279,2.3
3603581,GRIGGS RESERVOIR NO 6,0.51,39.994252,-106.382678,1.2
3603582,GRIGGS RESERVOIR NO 7,0.62,39.992975,-106.383987,1.0
3603583,HEIT RANCH RESERVOIR,42.74,39.645299,-106.06471100000002,30.0
3603584,MIN LAKE LOST LAKE,8.13,39.53686,-106.183793,9.0
3603585,MIN LAKE LOWER WHEELER,9.58,39.530184000000006,-106.16958600000001,48.0
3603586,MIN LAKE MOHAWK NO 2,2.87,39.418246999999994,-106.09034799999999,444.0
3603587,MIN LAKE MOHAWK NO 5,2.87,39.421587,-106.08683300000001,64.0
3603588,MIN LAKE MOHAWK NO 6,2.87,39.421508,-106.104804,288.0
3603589,MIN LAKE MOHAWK  NO 7,2.87,39.424445,-106.109521,15.0
3603591,MIN LAKE SALMON LAKE,37.34,39.675779999999996,-106.164608,70.0
3603592,SHANE RESERVOIR,0.32,39.845537,-106.228595,6.0
3603593,MIN LAKE SLATE LAKE NO 1,10.03,39.66337,-106.356376,350.0
3603594,MIN LAKE UPPER WHEELER,9.58,39.530184000000006,-106.16958600000001,70.0
3603595,VALLEY OF THE BLUE RESERVOIR 1,64.43,39.389002000000005,-106.048856,4.2
3603596,BILLS RANCH LAKE,0.82,39.568914,-106.089712,16.83
3603599,SAWMILL RESERVOIR,0.94,39.473442999999996,-106.05833100000001,36.894000000000005
3603602,CINNAMON RIDGE STORAGE TANK,6.41,39.607358000000005,-105.952666,0.0
3603604,MIN LAKE MAHAN LAKE,6.63,39.808378000000005,-106.38985500000001,173.0
3603605,MIN LAKE MIRROR LAKE,9.0,39.779963,-106.352966,41.0
3603606,OFFICERS GULCH POND,8.12,39.53985,-106.14376499999999,100.0
3603607,SOBOL POND,42.39,39.645119,-106.07649099999999,1.0
3603609,SWEETWATER POND NO 1,16.67,39.871539,-106.306932,0.018000000000000002
3603610,SWEETWATER POND NO 2,16.69,39.872203999999996,-106.307027,0.013000000000000001
3603611,SWEETWATER POND NO 3,16.7,39.872581,-106.307221,0.013000000000000001
3603612,SWEETWATER POND NO 4,16.71,39.872647,-106.306954,0.062
3603613,SWEETWATER POND NO 5,16.72,39.872837,-106.30682900000001,0.096
3603614,SWEETWATER POND NO 6,16.76,39.873444,-106.30655900000001,0.55
3603615,SWEETWATER POND NO 7,17.42,39.872236,-106.30578799999999,0.062
3603616,SWEETWATER POND NO 8,17.55,39.871932,-106.305595,0.013000000000000001
3603617,SWEETWATER POND NO 9,17.86,39.870653000000004,-106.30560600000001,0.096
3603624,SWAN RIVER WATER SYSTEM PONDS,1.41,39.526722,-106.02606200000001,56.0
3603625,LAKE ALVIN,0.62,39.793045,-106.179249,53.14
3603628,FRED H POND,2.27,39.966171,-106.323954,2.5
3603629,SWAN RIVER RESERVOIR NO 1,2.25,39.531456,-106.01231999999999,0.0
3603630,SWAN RIVER RESERVOIR NO 2,2.77,39.532907,-106.003905,0.0
3603632,SWAN RIVER RESERVOIR NO 4,4.82,39.52503,-105.973437,0.0
3603635,WYLER RESERVOIR,1.28,39.722737,-106.15552,15.0
3603636,EAGLES NEST RESERVOIR,39.97,39.671395000000004,-106.09451499999999,25.0
3603638,UPPER SLATE LAKE,10.03,39.660745,-106.25866,336.0
3603639,GREEN MOUNTAIN RES EXCH,15.6,39.878454999999995,-106.33253300000001,0.0
3603644,DUNHAM POND NO 1,0.55,39.713312,-106.10278400000001,0.26
3603645,DUNHAM POND NO 2,0.52,39.713684,-106.103467,0.54
3603646,DUNHAM POND NO 3,0.56,39.713709,-106.102744,0.0
3603648,SWAN RIVER RESERVOIR,6.34,39.514635999999996,-105.951247,0.0
3603649,LOWER MOHAWK RESERVOIR,,,,0.0
3603651,FAUSEL POND NO 1,36.75,39.712632,-106.110776,1.0
3603652,FAUSEL POND NO 2,36.51,39.715723,-106.11350900000001,40.0
3603655,BARBER POND,36.81,39.710428,-106.10855900000001,5.2
3603656,YOSUICHI RESERVOIR,0.51,39.495127000000004,-106.054787,1.75
3603657,SANDERS POND NO 1,0.5,39.715264000000005,-106.14133799999999,0.5
3603658,SANDERS POND NO 2,0.5,39.71478,-106.139265,2.1
3603659,SANDERS POND NO 3,0.5,39.715554,-106.138426,2.62
3603660,SANDERS POND NO 4,0.5,39.71585,-106.13756699999999,1.19
3603661,MILLIGAN RESERVOIR,2.02,39.968219,-106.327624,10.0
3603662,EAGLES NEST GOLF COURSE NO1 POND,0.47,39.663607,-106.08714099999999,12.4
3603663,EAGLES NEST GOLF COURSE NO 2 POND,0.29,39.658559000000004,-106.08358899999999,6.4
3603664,EAGLES NEST GOLF COURSE NO 4 SOUTH POND,0.5,39.653851,-106.085998,3.3
3603665,EAGLES NEST GOLF COURSE NO4 NORTH POND,0.5,39.653859999999995,-106.08596299999999,1.4
3603666,EAGLES NEST GOLF COURSE NO 7 POND,1.06,39.658881,-106.09340900000001,7.7
3603667,EAGLES NEST GOLF COURSE NO 9 SOUTH POND,1.01,39.66212,-106.09004399999999,2.3
3603668,EAGLES NEST GOLF COURSE NO 9 NORTH POND,1.01,39.662003000000006,-106.09007700000001,2.5
3603669,EAGLES NEST GOLF COURSE NO12 POND,1.25,39.671448,-106.094575,3.2
3603670,EAGLES NEST GOLF COURSE NO16 EAST POND,1.25,39.668203000000005,-106.09573600000002,1.3
3603671,EAGLES NEST GOLF COURSE NO16 WEST POND,1.25,39.672019,-106.09523700000001,2.5
3603672,LAKE LACY,0.96,39.650934,-106.092468,5.0
3603673,COUNIHAN POND,31.08,39.77664,-106.14124199999999,2.0
3603674,DOENZ POND,3.38,39.904433000000004,-106.40106100000001,1.5
3603675,LOWER POND,3.28,39.905943,-106.399805,0.6
3603678,SOUTH POND,0.31,39.674709,-106.08888999999999,4.0
3603679,PUMP POND,0.55,39.676393,-106.08418200000001,1.0
3603680,HOUSE POND 1,1.68,39.687557,-106.071494,2.0
3603681,HOUSE POND 2,1.69,39.687788,-106.071882,0.0
3603682,HOUSE POND 3,1.69,39.687805,-106.071952,0.0
3603683,WINEGARD POND 1,0.42,39.675872,-106.086891,0.1
3603684,WINEGARD POND 2,0.32,39.674575,-106.088771,1.1
3603685,WINEGARD POND 3,0.31,39.675646,-106.088939,7.5
3603686,WINEGARD POND 4,0.24,39.675007,-106.08981499999999,5.3
3603687,GETZ POND,,39.551738,-106.041898,0.45
3603688,TRENT PARK POND,0.29,39.652640999999996,-106.081445,5.0
3603690,BROOKS SNIDER POND,0.93,39.489958,-106.05943,0.5
3603691,BENSON RANCH POND,0.08,39.821121999999995,-106.193072,3.0
3603692,OFF GUL RP RESERVOIR,7.92,39.541798,-106.14204199999999,6.4
3603693,MELODY LODGE POND,22.3,39.839133000000004,-106.233506,4.0
3603694,ARAPAHOE BASIN SNOWMAKING RESERVOIR,4.78,39.640971,-105.876456,5.6
3603695,TRIPLE CREEK POND NO 1,0.5,39.716236,-106.132277,0.133
3603696,TRIPLE CREEK POND NO 2,0.5,39.715946,-106.13241200000002,0.009000000000000001
3603697,TRIPLE CREEK POND NO 3,0.5,39.714475,-106.135433,0.037000000000000005
3603698,TRIPLE CREEK POND NO 4,0.5,39.714284,-106.13564,0.003
3603699,TRIPLE CREEK POND NO 5,0.24,39.722640999999996,-106.129558,0.1
3603700,TRIPLE CREEK POND NO 6,0.23,39.722786,-106.129526,0.017
3603701,TRIPLE CREEK POND NO 7,0.5,39.718984000000006,-106.132205,0.156
3603703,MCCAIN RESERVOIR,58.62,39.454888000000004,-106.03056200000002,0.0
3603704,PERU CREEK RESERVOIR,4.0,39.604129,-105.805393,0.0
3603705,MOORE RESERVOIR,4.42,40.005831,-106.326279,120.0
3604512,DILLON RESERVOIR,44.67,39.618306,-106.065579,407914.0
3604620,VIDLER - RICE/SODA CREEK/PHILLIPS POOL,3.67,39.601259000000006,-105.99548,0.0
3604626,VIDLER TUNNEL WEST PORTAL,5.61,39.622948,-105.79142,147.26000000000002
3604657,FREMONT NO 1 DITCH,18.46,39.390485,-106.180943,10.0
3604658,STRAIGHT CREEK TUNNEL DRAIN SYSTEM,8.55,39.67873,-105.935608,0.9
3604683,CON-HOOSIER SYS BLUE RIVER DITCH,64.54,39.382959,-106.07716599999999,200.0
3604684,BLUE RIVER DIVERSION PROJECT,45.59,39.616986,-106.04423899999999,520.0
3604685,BOREAS NO 2 DITCH,4.84,39.413501000000004,-105.96791100000002,16.0
3604687,CON-HOOSIER SYS CRYSTAL DITCH,2.09,39.436993,-106.071502,40.0
3604688,CON-HOOSIER SYS DITCH INTERCEPTED FLOWS,64.54,39.380814,-106.071351,50.0
3604689,CON-HOOSIER EAST HOOSIER DITCH,0.41,39.373723,-106.05456000000001,90.0
3604690,CON-HOOSIER SYS MCCULLOUGH DITCH,1.65,39.401167,-106.07929299999999,60.0
3604692,CON-HOOSIER - EAST HOOSIER DITCH CLAIM 1,0.41,39.373723,-106.05453700000001,60.0
3604694,BLUE RIVER DIVR PROJECT,0.62,39.607653000000006,-106.055801,0.0
3604695,BLUE RIVER DIVR PROJECT,2.13,39.600291,-106.01831399999999,0.0
3604696,CON-HOOSIER - DITCH CLAIM 2,64.54,39.374541,-106.048825,37.0
3604697,CON-HOOSIER SYS SPRUCE DITCH,2.6,39.421611999999996,-106.074403,60.0
3604699,CON-HOOSIER TUNNEL,64.54,39.380778,-106.07135,20.0
3604900,GREEN MTN RES HUP AUTHORIZED BY SD-80,,39.876703000000006,-106.330546,0.0
3604903,GREEN MTN RES CONTRACT GROUP,15.58,39.878206,-106.333054,0.0
3604912,SUMMIT COUNTY DILLON STORAGE WATER,44.48,39.620957000000004,-106.06636499999999,0.0
3604923,CLIMAX INTEGRATED WATER SYSTEM,18.46,39.368317,-106.182032,519.3342
3605000,OLD IRONSIDES WELL,,39.531583000000005,-106.03363799999998,0.033
3605001,VAIL PASS WELL & EAST PL,,39.526862,-106.219597,0.033
3605002,FOX WELL NO 1,,39.901198,-106.30091200000001,0.033
3605003,OFFERSON WELL NO 1,,39.495393,-106.04529,0.044000000000000004
3605004,ADRIAN THEATER WELL NO 1,,39.494566999999996,-106.04301000000001,0.066
3605005,LIFTSIDE WELL NO 1 25259,,39.607096999999996,-105.955913,0.022000000000000002
3605006,LIFTSIDE WELL NO 2 25260,,39.607015000000004,-105.955923,0.022000000000000002
3605007,BAER WELL 1,,39.459903999999995,-106.043015,0.0333
3605008,DANIELS WELL NO 1,,39.447108,-106.042369,0.022000000000000002
3605009,BLUE RIVER VALLEY WELL NO 1,,39.645121,-106.073274,0.7659999999999999
3605011,BLUMENHEIN WELL NO 1,,39.568775,-106.09391299999999,0.022000000000000002
3605012,BOGGS WELL,,39.640306,-106.07051799999999,0.1
3605013,BRECKENRIDGE WELL NO 1,,39.47987,-106.066893,0.08900000000000001
3605014,BRECKENRIDGE WELL NO 2,,39.48057,-106.06826399999999,0.033
3605015,BRECKENRIDGE WELL NO 3,,39.479076,-106.06707800000001,0.057999999999999996
3605016,BUFFALO MOUNTAIN WELL,,39.626806,-106.072071,0.0
3605017,BUMGARNER WELL,,39.986346000000005,-106.43643,0.055
3605018,BURGER WELL,,39.575672,-106.097374,0.066
3605019,CHANDLER WELL,,39.64393,-106.070558,0.0266
3605020,COX WELL,,39.661831,-106.080203,0.044000000000000004
3605021,VUKOVICH WELL NO 1,,39.784589000000004,-106.14648799999999,0.0
3605022,DAY WELL,,39.458386,-106.033033,0.022000000000000002
3605023,DILLON HI COUNTRY WELL 1,,39.571465,-106.060332,0.044000000000000004
3605024,DILLON RESERVOIR RESIDENCE WELL,,39.625710999999995,-106.03236100000001,0.0912
3605025,DODGE WELL,,39.494236,-106.094827,0.0334
3605026,DOLE & BOWEN WELL,,39.600167,-105.97584499999999,0.0223
3605027,COPPER MTN DOMESTIC WELL,,39.501181,-106.14988799999999,0.055
3605028,FARMER WELL NO 1,,39.565003000000004,-106.05462299999999,0.08900000000000001
3605029,FARMER WELL NO 2,,39.563891,-106.053393,0.022000000000000002
3605030,FRISCO WELL NO 1,,39.5755,-106.109702,0.7
3605031,FRISCO WELL NO 2,,39.575375,-106.10967600000001,0.88
3605032,FRISCO WELL NO 3,,39.576895,-106.099524,0.89
3605033,FUNK WELL,,39.736307000000004,-106.162585,0.035
3605034,GOODBODY WELL,,39.494588,-106.037695,0.0022
3605035,GUIDA WELL A,,39.567816,-106.08881799999999,0.033
3605036,GUIDA WELL B,,39.571441,-106.08881799999999,0.0156
3605037,G F P WELL NO 1,,39.875875,-106.32432800000001,0.002
3605038,G F P WELL NO 2,,39.890267,-106.29608999999999,0.033
3605039,G F P WELL NO 3,,39.846696,-106.23553899999999,0.022000000000000002
3605040,HAMMER WELL,,39.672733,-106.09450600000001,0.033
3605041,HARRIS WELL,,39.578708,-106.108071,0.044000000000000004
3605042,HELLMAN WELL,,39.596527,-106.00436699999999,0.078
3605043,HIGH COUNTRY WELL NO 1,,39.593222,-106.098525,0.08800000000000001
3605044,HIGH COUNTRY WELL NO 2,,39.593222,-106.098525,0.067
3605045,HOFF WELL,,39.516298,-106.057773,0.033
3605046,HYNA WELL,,39.565388,-106.05193899999999,0.0446
3605047,JANKOVSKY WELL,,39.605133,-105.976375,0.011000000000000001
3605048,JEFFREY WELL,,,,0.022000000000000002
3605049,KOEHN WELL,,39.533787,-106.039093,0.01
3605050,KEYBASE WELL,,39.604482,-105.95281299999999,2.327
3605051,KEYSTONE INTERN WELL NO1,,39.607473,-105.971375,0.11
3605052,KEYSTONE INTERN WELL NO2,,39.604145,-105.96198700000001,0.033
3605053,KEYSTONE INTERN WELL NO3,,39.607312,-105.923685,0.033
3605054,KEYTOP WELL NO 1,,39.578709,-105.94337800000001,0.067
3605055,KEYTOP WELL NO 2,,39.578969,-105.939074,0.067
3605056,KIMMEL WELL NO 1,,39.759828000000006,-106.132194,0.033
3605057,LANCER WELL NO 1,,39.392065,-106.05191,0.044000000000000004
3605058,LANCER WELL NO 3,,39.401724,-106.04898899999999,0.044000000000000004
3605059,MACKOWN WELL,,39.665527000000004,-106.08030500000001,0.067
3605060,MCDILL PLACER WELL,,39.385022,-106.06348999999999,0.033
3605061,MCNEIL WELL,,39.451143,-106.03825900000001,0.055
3605065,MONTEZUMA WELL,,39.582224,-105.87014099999999,0.033
3605066,MOORE WELL,,39.384925,-106.049419,0.011000000000000001
3605067,NORTHFIELD WELL,,39.40169,-106.05174099999999,0.067
3605068,OWNERS WELL NO 1,,39.604290999999996,-105.9574,0.0843
3605069,OWNERS WELL NO 2,,39.607119,-105.94873799999999,0.1703
3605070,OWNERS WELL NO 3,,39.606878,-105.949596,0.1503
3605071,OWNERS WELL NO 4,,39.606592,-105.948206,0.6283
3605072,PADON WELL,,39.603916999999996,-105.971228,0.0
3605073,PLYMOUTH WELL,,39.586180999999996,-105.870268,0.066
3605074,POST WELL,,39.60802,-105.957521,0.07
3605075,PTARMIGAN WELL NO 1,,39.675847,-106.087695,0.08900000000000001
3605076,PTARMIGAN WELL NO 2,,39.663463,-106.07654199999999,0.027000000000000003
3605077,PTARMIGAN WELL NO 3,,39.663055,-106.078774,0.08900000000000001
3605078,PTARMIGAN WELL NO 4,,39.669214000000004,-106.085877,0.033
3605079,PTARMIGAN WELL NO 5,,39.663876,-106.074707,0.067
3605080,PTARMIGAN WELL NO 6,,39.661221999999995,-106.072323,0.044000000000000004
3605081,PURMAL WELL,,39.593167,-106.08416499999998,0.0334
3605082,QUALY WELL,,39.585913,-106.08878600000001,0.08800000000000001
3605083,COPPER MTN RESTAURANT STAND-BY WELL,,39.483973999999996,-106.155105,0.055
3605084,COPPER MTN RESTAURANT WELL NO 1,,39.484476,-106.155404,0.055
3605085,RILEY WELL,,39.570878,-105.85986100000001,0.14
3605086,RIVER TRAILER COURT WELL,,39.634902000000004,-106.07741599999999,0.022000000000000002
3605087,ROWLEY WELL,,39.600167,-105.97584499999999,0.011000000000000001
3605088,SEYMOUR WELL,,39.607012,-105.94420500000001,0.033
3605089,SHIRLEY WELL NO 1,,39.649758,-106.08239099999999,0.0396
3605090,SILVERTHORNE WELL NO 01,,39.630379,-106.07445600000001,0.667
3605091,SILVERTHORNE WELL NO 02,,39.629973,-106.075499,0.667
3605092,SILVERTHORNE WELL NO 03,,39.633734000000004,-106.073168,0.667
3605093,SILVERTHORNE WELL NO 04,,39.634283,-106.07421399999998,0.667
3605094,SITE NO 1 WELL,,39.60687,-105.96698700000002,1.98
3605095,SKELLY WELL NO 1,,39.627916,-106.06503899999998,0.067
3605096,SKI CLUB WELL,,39.481545000000004,-106.05123300000001,0.044000000000000004
3605097,SMART WELL,,39.661812,-106.075325,0.044000000000000004
3605098,STAFFORD STORE WELL NO 1,,39.921607,-106.332831,0.11
3605099,STRAUSS WELL,,39.563887,-106.04828700000002,0.0444
3605100,SWAN WELL,,39.607808,-105.942424,0.044000000000000004
3605101,TAUSCHER WELL,,39.633157000000004,-106.07996399999999,0.08900000000000001
3605102,TYROLLEAN TERRACE WELL#2,,39.471548,-106.03256299999998,0.022000000000000002
3605103,UNION WELL NO 01,,39.653418,-106.077307,0.0
3605104,UNION WELL NO 02,,39.653721000000004,-106.081601,0.0
3605105,UNION WELL NO 03,,39.654875,-106.077598,0.0
3605106,UNION WELL NO 04,,39.657338,-106.079175,0.0
3605107,UNION WELL NO 05,,39.659158000000005,-106.07918000000001,0.0
3605108,UNION WELL NO 06,,39.664602,-106.083905,0.0
3605109,UNION WELL NO 07,,39.659181,-106.08157,0.0
3605110,UNION WELL NO 08,,39.662809,-106.08388799999999,0.0
3605111,UNION WELL NO 09,,39.653693,-106.07678700000001,0.0
3605112,UNION WELL NO 10,,39.655514000000004,-106.07678,0.0
3605113,UNION WELL NO 11,,39.657385999999995,-106.077008,0.0
3605114,UNION WELL NO 12,,39.657367,-106.077031,0.0
3605115,VIDLER WELL NO 01,,39.595008,-106.00676899999999,0.0
3605116,VIDLER WELL NO 02,,39.595432,-106.006694,0.0
3605117,VIDLER WELL NO 03,,39.594703,-106.00768500000001,0.0
3605118,VIDLER WELL NO 04,,39.591275,-106.00392,1.5
3605119,VIDLER WELL NO 05,,39.591372,-106.004236,1.7
3605120,VIDLER WELL NO 06,,39.591563,-106.00501899999999,0.0
3605121,VIDLER WELL NO 07,,39.591640999999996,-106.005358,0.0
3605122,VIDLER WELL NO 08,,39.591607,-106.006231,0.0
3605123,VIDLER WELL NO 09,,39.591807,-106.00603600000001,0.0
3605124,VIDLER WELL NO 10,,39.592071000000004,-106.00675,0.0
3605125,WELL NO P-5389,,39.47295,-106.03806000000002,0.111
3605126,WELL NO P-6614,,39.643769,-106.075328,0.0555
3605127,APPELHANS WELL,,39.534647,-106.039699,0.02
3605128,DOT PLACER WELL NO 1 - TIMBER CREEK WATER COMPANY,,39.408248,-106.04391799999999,0.0
3605129,HIGH TOR CONDO WELL,,39.531448,-106.038541,0.018000000000000002
3605130,WELL NO 18192,,39.531448,-106.038541,0.006999999999999999
3605131,DOT PLACER WELL NO 2 - TIMBER CREEK WATER COMPANY,,39.408327,-106.0422,0.0
3605132,WELL NO 25607,,39.531645000000005,-106.03386699999999,0.0222
3605133,BLUE VALLEY RANCH WELL 2,,40.000839,-106.374997,0.03
3605134,BLUE VALLEY RANCH HDQT WELL 1,,39.991506,-106.38177900000001,0.055
3605135,BLUE VALLEY RANCH IRR SUMP 1,,40.001065000000004,-106.378727,0.033
3605136,BLUE VALLEY RANCH IRR SUMP 2,,39.987007,-106.379768,0.031
3605137,WHEATON WELL NO 1,,39.605412,-105.98176000000001,0.0088
3605138,WHEATON WELL NO 2,,39.605378,-105.98158500000001,0.0066
3605139,WHEATON WELL NO 3,,39.605243,-105.98258500000001,0.022000000000000002
3605140,WILLIAMS WELL,,39.448326,-106.022655,0.044000000000000004
3605141,WINCHELL WELL,,39.469359000000004,-106.04363300000001,0.111
3605142,YATES WELL,,39.604088,-105.942454,0.0444
3605143,ALTIMARI WELL,,39.460597,-106.005271,0.018000000000000002
3605144,BASIN WELL NO 1,,39.604088,-105.942454,0.055999999999999994
3605145,BASIN WELL NO 2,,39.604088,-105.942454,0.045
3605146,BISBING-ALFORD WELL,,39.737219,-106.15881999999999,0.033
3605147,BLUE RIVER WELL NO 1,,39.490823999999996,-106.064246,0.133
3605148,BLUE RIVER WELL NO 2,,39.493140999999994,-106.07098,0.133
3605149,BLUE RIVER WELL NO 3,,39.47047,-106.04635800000001,0.771
3605150,BLUE RIVER WELL NO 4,,39.521443,-106.04720400000001,0.111
3605151,BLUE RIVER WELL NO 5,,39.503011,-106.082274,0.667
3605152,BVA NO 2 WELL,,39.9812,-106.358102,0.011000000000000001
3605153,BVR NO 1 WELL,,39.991437,-106.38073500000002,0.033
3605154,CINNAMON RIDGE WELL NO 1,,39.609077,-105.9517,0.0
3605155,CINNAMON RIDGE WELL NO 2,,39.608133,-105.951454,0.0
3605156,CINNAMON RIDGE WELL NO 3,,39.607077000000004,-105.949518,0.0
3605158,WILLOW BROOK WELL NO 11,,39.63816,-106.086428,0.0
3605159,WILLOW BROOK WELL NO 01,,39.647293,-106.088692,0.0
3605160,WILLOW BROOK WELL NO 2,,39.641134,-106.08836299999999,0.0
3605169,MAID OF ORLEANS SPRING,,39.603264,-105.850264,0.022000000000000002
3605170,MCKEE SPRING,,39.757637,-106.12570500000001,0.044000000000000004
3605171,FLANIGAN SPRING NO 1,,39.869568,-106.30993500000001,0.044000000000000004
3605173,ASPENRIDGE WELL NO 2,,39.609095,-105.951723,0.0667
3605174,BLUMENHEIN WELL NO 2,,39.570124,-106.090372,0.0
3605175,EBERHARD WELL,,39.837932,-106.240532,0.022000000000000002
3605176,FRISCO WELL NO 4,,39.577073999999996,-106.092017,1.07
3605177,FRISCO WELL NO 5,,39.585749,-106.10073600000001,1.1840000000000002
3605178,FRY WELL NO 1,,39.955777000000005,-106.34801599999999,0.033
3605179,GOOD WELL NO 1,,39.605278000000006,-105.950308,0.0308
3605180,GORMAN WELL NO 1,,39.64393,-106.070558,0.033
3605181,HORIUCHI WELL NO 1,,39.422003000000004,-106.04146999999999,0.0088
3605182,HUSTON WELL NO 1,,39.395672,-106.04308,0.033
3605183,KEYSTONE WELL NO 1,,39.578671,-105.994353,40.489
3605184,KEYSTONE WELL NO 2,,39.581955,-105.99391100000001,40.489
3605185,KEYSTONE WELL NO 3,,39.581964,-105.99391100000001,40.489
3605186,LANCER WELL NO 2,,39.388565,-106.05415500000001,0.022000000000000002
3605187,MESA CORTINA WELL NO 4,,39.621803,-106.100305,0.0557
3605188,MESA CORTINA WELL NO 5,,39.622307,-106.08881299999999,0.0426
3605189,MESA CORTINA WELL NO 6,,39.622206,-106.094812,0.0718
3605190,SILVERTHORNE WELL NO 05,,39.644637,-106.07890800000001,0.635
3605191,SILVERTHORNE WELL NO 06,,39.643694,-106.07857800000001,0.579
3605192,SILVERTHORNE WELL NO 07,,39.639002000000005,-106.07446200000001,0.0
3605193,SILVERTHORNE WELL NO 08,,39.643479,-106.07646499999998,0.0
3605194,SILVERTHORNE WELL NO 09,,39.638453000000005,-106.073334,0.0
3605195,SILVERTHORNE WELL NO 10,,39.637658,-106.07364799999999,0.0
3605196,SILVERTHORNE WELL NO 11,,39.637094,-106.074211,0.0
3605197,SPRING CREEK RANCH WELL 4-R,,39.904765000000005,-106.355644,0.0
3605198,SPRING CREEK RANCH WELL 5,,39.892942,-106.37808999999999,0.0
3605199,SPRING CREEK RANCH WELL 6,,39.896134,-106.367135,0.0
3605200,SPRING CREEK RANCH WELL 7,,39.89294,-106.378183,0.0
3605201,SPRINGER WELL NO 1,,39.607556,-105.95588400000001,0.17800000000000002
3605202,TIEZE WELL NO 1,,39.604482,-105.95281299999999,0.2
3605203,TIEZE WELL NO 2,,39.608121999999995,-105.95288700000002,0.0
3605204,TOURNIER WELL,,39.580334,-106.100743,0.077
3605205,KEY CONDO WELL NO 1,,39.605419,-105.949518,0.133
3605206,KEY CONDO WELL NO 2,,39.605281,-105.948829,0.0
3605207,KEY CONDO WELL NO 3,,39.605732,-105.949802,0.0
3605208,KEY CONDO WELL NO 4,,39.605834,-105.949454,0.0
3605209,SUMMIT MOTOR INN WELL NO 24989-F,,39.533051,-106.039873,0.0
3605210,SUMMIT MOTOR INN WELL NO 3689-F,,39.532472999999996,-106.039993,0.067
3605212,DAWDY WELL,,39.49434,-106.04413400000001,0.066
3605213,RUSSELL WELL NO 109028,,39.94846,-106.352802,0.012
3605214,COUNTRY BOY MINE SPRING,,39.480343,-106.01414299999999,0.033
3605215,GLEN HAVEN WELL NO1,49.94,39.557276,-106.048243,0.0
3605217,COPPER MOUNTAIN METRO DISTRICT WELL NO 1A,,39.501715999999995,-106.147792,2.5700000000000003
3605219,EAGLES NEST WELL NO 1,,39.664293,-106.086977,0.0
3605220,EAGLES NEST WELL NO 2,,39.663532000000004,-106.086487,0.0
3605221,SNAKE RIVER WATER DISTRICT WELL 1,,39.607455,-105.950629,0.46900000000000003
3605222,SNAKE RIVER WATER DISTRICT SUPPLEMENTAL WELL 1A,,39.606796,-105.966078,1.67
3605224,TERRILL WELL NO 10309,,39.494011,-106.048723,0.044000000000000004
3605225,HAMILTON CREEK WELL NO 1,,39.667286,-106.06643600000001,0.16899999999999998
3605226,HAMILTON CREEK WELL NO 2,,39.667133,-106.066445,0.0
3605228,COPPER MOUNTAIN METRO DISTRICT WELL NO 3,,39.501327,-106.149693,1.54
3605230,GLEN HAVEN WELL NO2,50.03,39.556658,-106.047873,0.0
3605231,HALIFAX WELL,,39.445071999999996,-106.02894099999999,0.0
3605233,SCHAKE SPRING NO 1,,39.970406,-106.330956,0.022000000000000002
3605234,SCHAKE SPRING NO 4,,39.970364000000004,-106.32896000000001,0.022000000000000002
3605235,SCHAKE SPRING NO 2,,39.974035,-106.32415300000001,0.014000000000000002
3605236,SCHAKE SPRING NO 3,,39.974035,-106.32415300000001,0.008
3605237,GIBERSON PRESERVE WELL NO 2,,39.596539,-106.095491,0.011000000000000001
3605238,SNAKE RIVER WATER DISTRICT SUPP WELL 1B,,39.60627,-105.965395,1.2
3605239,SELDOM ACRES WELL 1,,39.561178999999996,-106.049012,0.4234
3605240,SPRUCE VALLEY RANCH WELL FIELD,,39.452208,-106.02898799999998,13.2583
3605241,SELDOM ACRES WELL 2,,39.560582000000004,-106.04936399999998,0.0
3605242,SELDOM ACRES WELL 3,,39.560258000000005,-106.049278,0.4234
3605243,SELDOM ACRES WELL 4,,39.559076,-106.04845700000001,0.4234
3605244,LOWRY AIR BASE WELL 1,,39.600305,-106.02748400000002,0.027000000000000003
3605248,DERCUM DITCH WELLS 1TO15,,39.606818,-105.93931,0.0
3605249,W PORTAL ST CR TUN WELL,,39.682804,-105.936619,0.03
3605250,PEBBLE CR RANCH WELL 01,,39.722241,-106.15376200000001,1.313
3605251,PEBBLE CR RANCH WELL 02,,39.723602,-106.15370300000001,0.311
3605252,PEBBLE CR RANCH WELL 03,,39.723554,-106.15220900000001,0.311
3605253,PEBBLE CR RANCH WELL 04,,39.723058,-106.151349,0.313
3605254,PEBBLE CR RANCH WELL 05,,39.722988,-106.150227,0.3066
3605255,PEBBLE CR RANCH WELL 06,,39.723234000000005,-106.148995,0.31779999999999997
3605256,PEBBLE CR RANCH WELL 07,,39.723729999999996,-106.14803400000001,0.3066
3605257,PEBBLE CR RANCH WELL 08,,39.723983000000004,-106.147047,0.313
3605258,PEBBLE CR RANCH WELL 09,,39.724055,-106.146185,0.313
3605259,PEBBLE CR RANCH WELL 10,,39.725372,-106.143301,0.3267
3605260,PEBBLE CR RANCH WELL 11,,39.725059,-106.142071,0.3267
3605261,PEBBLE CR RANCH WELL 12,,39.725313,-106.14098999999999,0.0
3605262,PEBBLE CR RANCH WELL 13,,39.72278,-106.140271,0.3222
3605263,PEBBLE CR RANCH WELL 14,,39.721799,-106.143755,0.0
3605264,PEBBLE CR RANCH WELL 15,,39.722725,-106.14218400000001,0.30219999999999997
3605265,PEBBLE CR RANCH WELL 16,,39.722696,-106.14328,0.3066
3605266,PEBBLE CR RANCH WELL 17,,39.7223,-106.14416000000001,0.31779999999999997
3605267,PEBBLE CR RANCH WELL 18,,39.722153000000006,-106.145371,0.31779999999999997
3605268,PEBBLE CR RANCH WELL 19,,39.725136,-106.157054,1.311
3605269,BUFFALO MTN METRO WELL 2,,39.626975,-106.07226000000001,0.0
3605270,BUFFALO MTN METRO WELL 3,,39.627342,-106.07252199999999,0.0
3605272,VISTAHAUS WELL NO 1,,39.470287,-106.08408,1.322
3605273,VISTAHAUS WELL NO 2,,39.471412,-106.085155,2.527
3605274,PEAK 9 COLLECTION GALLERY,,39.457569,-106.07576999999999,2.565
3605276,COPPER MOUNTAIN METRO DISTRICT WELL NO 2,,39.500633,-106.14428500000001,1.5
3605277,COPPER MTN STAFFORD LAKE WELL,,39.501204,-106.14849299999999,0.33
3605278,COPPER MTN UNION LAKE WELL,,39.504545,-106.14323300000001,0.33
3605279,GIBERSON PRESERVE WELL NO 3,,39.59768,-106.0958,0.033
3605281,HILL RANCH LOT 1 WELL,,39.771475,-106.15602,0.033
3605282,BUFFALO MTN METRO WELL 1,,39.62669,-106.071976,0.0
3605283,BUFFALO MTN METRO WELL 4,,39.626746000000004,-106.07172,0.0
3605284,LODGE 4 WELL,,39.561849,-105.932405,0.0668
3605285,SWAN MOUNTAIN INN WELL,,39.565991,-106.052007,0.0334
3605288,SE-1 WELL,,39.524282,-106.01461200000001,0.40800000000000003
3605292,SE-6 WELL,,39.520623,-106.014606,0.033
3605293,SE-7 WELL,,39.522407,-106.01364299999999,0.031
3605295,SE-9 WELL,,39.523784,-106.011766,0.022000000000000002
3605298,SE-12 WELL,,39.524853,-106.012073,0.0154
3605301,SE-15 WELL,,39.52642,-106.013177,0.022000000000000002
3605302,SE-16 WELL,,39.527438000000004,-106.01321599999999,0.033
3605305,SE-19 WELL,,39.527414,-106.01181899999999,0.026000000000000002
3605306,SE-20 WELL,,39.527031,-106.011301,0.026000000000000002
3605307,SE-21 WELL,,39.527601000000004,-106.01108899999998,0.022000000000000002
3605310,SE-24 WELL,,39.526903999999995,-106.00833300000001,0.026000000000000002
3605314,SE-28 WELL,,39.528133000000004,-106.00476699999999,0.028999999999999998
3605316,SE-30 WELL,,39.528298,-106.00344299999999,0.033
3605317,SE-31 WELL,,39.527882,-106.00252900000001,0.026000000000000002
3605318,SE-32 WELL,,39.527703,-106.003446,0.0
3605319,SE-33 WELL,,39.527163,-106.004497,0.027000000000000003
3605320,SE-34 WELL,,39.526919,-106.00555200000001,0.03
3605322,SE-36 WELL,,39.526289,-106.007626,0.033
3605323,SE-37 WELL,,39.525702,-106.008804,0.0
3605326,SE-40 WELL,,39.525106,-106.00995900000001,0.026000000000000002
3605328,SE-42 WELL,,39.524772999999996,-106.00888400000001,0.013000000000000001
3605331,SE-45 WELL,,39.525513000000004,-106.005672,0.0
3605335,SE-49 WELL,,39.523321,-106.008991,0.025
3605336,SE-50 WELL,,39.523414,-106.00976000000001,0.021
3605337,SE-51 WELL,,39.521602,-106.00981499999999,0.027000000000000003
3605339,SE-53 WELL,,39.520352,-106.00856399999999,0.0
3605340,SE-54 WELL,,39.519756,-106.01070700000001,0.066
3605342,SE-56 WELL,,39.520917,-106.007769,0.435
3605344,SE-58 WELL,,39.521176000000004,-106.00697,0.033
3605346,SE-60 WELL,,39.521502000000005,-106.005753,0.0
3605348,SE-62 WELL,,39.522925,-106.005867,0.028999999999999998
3605349,SE-63 WELL,,39.521886,-106.007225,0.033
3605350,SE-64 WELL,,39.522622999999996,-106.00749099999999,0.03
3605352,SE-66 WELL,,39.523838,-106.005496,0.033
3605353,SE-67 WELL,,39.523749,-106.00434299999999,0.0223
3605354,WELL NO. 1,,39.529663,-106.013259,0.022000000000000002
3605355,WELL NO. 2,,39.529664000000004,-106.01115300000001,0.0
3605356,WELL NO. 3,,39.529796999999995,-106.01029399999999,0.0
3605358,WELL NO. 5,,39.5304,-106.006289,0.0334
3605359,WELL NO. 6,,39.530696999999996,-106.005293,0.0264
3605360,WELL NO. 7,,39.531099,-106.003588,0.033
3605361,WELL NO. 8,,39.528859999999995,-106.012352,0.0
3605362,WELL NO. 9,,39.528626,-106.008218,0.033
3605363,WELL NO. 10,,39.528581,-106.00717,0.0067
3605364,WELL NO. 11,,39.528976,-106.00626799999999,0.028999999999999998
3605365,WELL NO. 12,,39.52947,-106.005403,0.0
3605366,WELL NO. 13,,39.529697999999996,-106.004126,0.033
3605367,WELL NO. 14,,39.530245,-106.00338899999998,0.026000000000000002
3605368,WELL NO. 15,,39.530372,-106.00223899999999,0.018000000000000002
3605369,SWANS NEST WELL NO. 1,,39.536232,-106.03374199999999,0.0
3605370,SWANS NEST WELL NO. 2,,39.53634,-106.03270800000001,0.0
3605373,DIANTHIA WELL,,39.44554,-106.02797199999999,0.017
3605374,MOSES SPRING NO 2,,39.901202000000005,-106.305489,0.04
3605375,MOSES SPRING NO 3,,39.904826,-106.305499,0.02
3605376,BLACK CLOUD WELL,,39.443005,-106.02823000000001,0.006999999999999999
3605377,GOLDENVIEW WELL NO 1,,39.467927,-106.010957,0.0045
3605378,COPPER MTN BEELER LAKE WELL,,39.503253,-106.144456,5.6
3605379,COPPER MTN MCKENZIE LAKE WELL,,39.50262,-106.14473600000001,5.6
3605380,COPPER MTN EAST LAKE WELL,,39.502137,-106.143403,3.1
3605381,COPPER MTN GULLER LAKE WELL,,39.499939000000005,-106.144274,3.1
3605382,COPPER MTN WEST LAKE WELL,1.25,39.501613,-106.155374,5.6
3605383,COPPER MOUNTAIN WELL NO 4,,39.502621000000005,-106.15006299999999,0.0
3605384,COPPER MOUNTAIN WELL NO 5,,39.502724,-106.142424,0.0
3605385,COPPER MTN UNION BOWL WELL1,,39.475094,-106.16643300000001,0.0
3605386,COPPER MTN UNION BOWL WELL2,,39.476671,-106.166448,0.0
3605387,COPPER MTN L-LIFT RESTAURANT WELL NO 1,,39.486328,-106.18092299999999,0.0
3605388,COPPER MTN L-LIFT RESTAURANT WELL NO 2,,39.484538,-106.178858,0.0
3605389,LODGE 3 WELL,,39.565554,-105.95218700000001,0.0668
3605390,EAGLE PASS RANCH SPRING NO 1,,39.998431,-106.376694,0.057999999999999996
3605391,EAGLE PASS RANCH SPRING NO 2,,39.986111,-106.380101,0.11199999999999999
3605392,FRISCO WELL NO 6,,39.586801,-106.097131,0.0
3605393,FRISCO WELL NO 7,,39.574923,-106.07720900000001,0.0
3605394,BLUE VALLEY METRO PUMP & PIPELINE (WELL / INFILTRA,,39.920669000000004,-106.34308600000001,0.37200000000000005
3605395,BLUE VALLEY METRO WELL NO 1,,39.920169,-106.34035,0.0
3605396,BLUE VALLEY METRO WELL NO 2,,39.920142,-106.34036100000002,0.0
3605397,GREEN MOUNTAIN WELL,,39.905889,-106.32546,0.022000000000000002
3605398,HILL RANCH WELL LOT 1 WELL,,39.771440000000005,-106.155984,0.033
3605400,MEDICINE SPRING,,39.833267,-106.283477,0.033
3605401,OTTER SPRING,,39.839434000000004,-106.268345,0.245
3605402,DEADHORSE SPRING,,39.839432,-106.277768,0.0223
3605403,FISH SPRING (CHARCO SPR),,40.011635999999996,-106.347082,0.0223
3605404,ALAMEDA SPRING NO 1,,40.012357,-106.33283700000001,0.0223
3605405,ALAMEDA SPRING NO 2,,40.015543,-106.332948,0.0223
3605406,ALAMEDA SPRING NO 3,,40.015543,-106.332948,0.0223
3605407,ALAMEDA SPRING NO 4,,40.015543,-106.332948,0.0223
3605408,ALTERNATE WELL LODGE 4,,39.559222,-105.932999,0.0
3605409,BLUE ROCK SPRING,,39.435889,-106.04188799999999,0.033
3605411,DIANA SPRING,,39.832211,-106.21681000000001,0.0089
3605412,LOREDANA SPRING,,39.832211,-106.21681000000001,0.0045
3605413,ELISABETH SPRING WELL,,39.831408,-106.221951,0.0056
3605414,BLUE RIVER AGGREGATE WELL NO 2,,39.711234999999995,-106.1108,12.5
3605415,ZELLARS' SPRING,,39.933902,-106.338462,0.067
3605416,JUNCTION BUTTE WILDLIFE AREA SPRING NO 1,,40.031259999999996,-106.36618500000002,0.02
3605417,SPRING CREEK RANCHERS COMMUNITY WELL,,39.888752000000004,-106.384883,17.216
3605419,KING CREEK LOWER SPRING COLLECTION SYSTEM,,39.944232,-106.308151,0.1
3605420,BLEVINS WELL NO. 1,,39.952451,-106.352675,0.0267
3605445,PEARSON WELL NO. 1,,39.543633,-106.04243999999998,0.0
3605446,PEARSON WELL NO. 2,,39.545739000000005,-106.034628,0.0
3605449,EAGLES NEST CABIN SPR AP-A,,39.831371999999995,-106.21936799999999,0.0499
3605450,EAGLES NEST CABIN SPR AP-B,,39.831169,-106.219902,0.0499
3605451,JUNCTION BUTTE WILDLIFE AREA SPRING NO 2,,40.01477,-106.35103400000001,0.02
3605452,COPPER MTN CB-2 WELL,,39.487007,-106.160876,1.862
3605453,COUNIHAN SPRING,,39.77686,-106.14083600000001,0.033
3605454,DOENZ SPRING,,39.904501,-106.401344,0.03
3605455,LOWER SPRING,,39.905590000000004,-106.399997,0.03
3605456,GOLDENVIEW SUBDIVISION EXCHANGE,,39.467059000000006,-106.007451,0.0
3605457,GETZ WELL NO. 1,,39.552056,-106.042601,0.033
3605458,COUNIHAN WELL NO 1,,39.780817,-106.14431200000001,0.018000000000000002
3605459,COUNIHAN WELL NO 2,,39.778807,-106.14626299999999,0.016
3605460,COUNIHAN WELL NO 3,,39.778503,-106.146002,0.022000000000000002
3605461,DILLON VALLEY WELL NO 1,,39.643623999999996,-106.034792,0.0
3605462,DILLON VALLEY WELL NO 2,,39.640567,-106.038021,0.0
3605463,DILLON VALLEY WELL NO 3,,39.640388,-106.03896200000001,0.0
3605464,DILLON VALLEY WELL NO 4,,39.636239,-106.048397,0.0
3605465,DILLON VALLEY WELL NO 5,,39.634669,-106.051671,0.0
3605466,BAKRS TNK PG SPRING,,39.443095,-105.99688400000001,0.001
3605467,CATRCT CR CG SPRING,,39.839804,-106.30578100000001,0.001
3605468,GBRSN BY FPL WELL,,39.596745,-106.079398,0.002
3605469,HEATN BAY CG WELL,,39.60037,-106.074727,0.011000000000000001
3605470,INDRFT SPG 1,,39.61475,-106.004447,0.003
3605471,INDRFT SPG 2,,39.625688000000004,-106.027673,0.003
3605472,LOWRY AFB OC WELL,,39.596715,-106.027409,0.005
3605473,PEAK ONE CG WELL,,39.5859,-106.069929,0.008
3605474,PROSPECTR CG SPRING,,39.600429999999996,-106.04158999999999,0.002
3605475,SLATE CR GS SPRING,,39.781535999999996,-106.169743,0.002
3605476,UC OF C OC WELL,,39.58228,-106.060353,0.005
3605477,TOWN OF DILLON WELL NO 1,,39.643509,-106.035501,0.0
3605478,TOWN OF DILLON WELL NO 2,,39.640177,-106.03833,0.0
3605479,TOWN OF DILLON WELL NO 3,,39.640155,-106.038795,0.0
3605480,TOWN OF DILLON WELL NO 4,,39.636185,-106.048397,0.0
3605481,TOWN OF DILLON WELL NO 5,,39.634498,-106.051657,0.0
3605482,KING CREEK UPPER SPRING,,39.945904999999996,-106.297133,0.011000000000000001
3605483,EAGLE'S NEST WELL NO 3,,39.666041,-106.087949,0.0
3605484,EAGLE'S NEST WELL NO 4,,39.665754,-106.087805,0.0
3605485,EAGLE'S NEST WELL NO 5,,39.665574,-106.087779,0.0
3605486,EAGLE'S NEST WELL NO 6,,39.665414,-106.08761299999999,0.0
3605487,GIBERSON PRESERVE WELL NO 1,,39.596181,-106.096149,0.0
3605490,SENIOR CITIZEN WELL NO. 1,,39.591772999999996,-106.10015600000001,0.0
3605491,SENIOR CITIZEN WELL NO. 2,,39.592573,-106.09853799999999,0.0
3605492,SPRUCE SPRING,,39.715514,-106.130527,0.135
3605493,SUMMIT ESTATES WELL SE-32,,39.527703,-106.003446,0.033
3605495,COUNIHAN WELL NO 7,,39.781621,-106.13223899999998,0.0
3605496,VARVIL WELL NO 1,,39.782142,-106.135167,1.283
3605497,COUNIHAN WELL NO 4,,39.779362,-106.14023600000002,0.0
3605498,COUNIHAN WELL NO 5,,39.777907,-106.141601,0.0
3605499,COUNIHAN WELL NO 6,,39.781639,-106.132227,0.0
3605500,NEWBERRY WELL,,39.737792,-106.16363700000001,0.033
3605501,MCCULLOUGH GULCH RESERVE WELL NO. 5,,39.408933000000005,-106.046971,0.0
3605502,MCCULLOUGH GULCH RESERVE WELL NO. 6,,39.409488,-106.04629399999999,0.0
3605503,MCCULLOUGH GULCH RESERVE WELL NO. 7,,39.410315000000004,-106.04553999999999,0.0
3605504,LING'S WELL,,39.52512,-106.01351899999999,0.066
3605505,MELODY LODGE WELL NO 1,,39.83797,-106.231885,0.111
3605506,MELODY LODGE WELL NO 2,,39.837749,-106.23240600000001,0.111
3605507,PTARMIGAN WELL NO 4-A,,39.669406,-106.085554,0.0
3605508,RIVERSHORE LOT 1 WELL,,39.456942,-106.036625,0.0
3605509,RIVERSHORE LOT 2 WELL,,39.457259,-106.036525,0.0
3605510,RIVERSHORE LOT 3 WELL,,39.457,-106.035196,0.022000000000000002
3605511,RIVERSHORE LOT 4 WELL,,39.457387,-106.035248,0.033
3605512,RIVERSHORE LOT 5 WELL,,39.457342,-106.034306,0.022000000000000002
3605513,RIVERSHORE LOT 6 WELL,,39.457024,-106.03352199999999,0.462
3605514,LODGE 6 WELL,,39.600097,-105.89696299999999,0.0
3605515,WELL 3C,,39.598832,-105.89039,0.0
3605516,WELL 3D,,39.595515,-105.875149,0.0
3605517,WELL 3E,,39.588685,-105.870346,0.0
3605520,MIDWAY WELL,,39.633945000000004,-105.870226,0.037000000000000005
3605521,WARMING HOUSE 1 WELL,,39.554505,-105.94593700000001,0.0
3605522,WARMING HOUSE 2 WELL,,39.545019,-105.919797,0.0
3605523,WARMING HOUSE 3 WELL,,39.540427,-105.94861999999999,0.0
3605524,BALDY RIDGE WELL 1,,39.474714,-106.026169,0.0
3605525,LODGE 5 WELL,,39.548074,-105.940077,0.0
3605526,MATHIS WELL NO 1,,39.742173,-106.135269,0.0
3605527,MATHIS WELL NO 2,,39.743355,-106.13505500000001,0.0
3605528,MATHIS WELL NO 3,,39.744636,-106.134901,0.0
3605529,MATHIS WELL NO 4,,39.745633000000005,-106.13435700000001,0.0
3605530,MATHIS WELL NO 5,,39.746672,-106.133977,0.0
3605531,MATHIS WELL NO 6,,39.747657000000004,-106.13368999999999,0.0
3605532,MATHIS WELL NO 7,,39.74881,-106.133721,0.0
3605533,BALDY RIDGE WELL 2,,39.474429,-106.02883899999999,0.004
3605534,BALDY RIDGE WELL 3,,39.4749,-106.028497,0.017
3605535,BALDY RIDGE WELL 4,,39.474773,-106.027588,0.011000000000000001
3605536,BALDY RIDGE WELL 5,,39.475342,-106.027387,0.022000000000000002
3605537,BALDY RIDGE WELL 6,,39.474812,-106.02621699999999,0.013000000000000001
3605538,BALDY RIDGE WELL 7,,39.474795,-106.02617,0.0
3605539,BALDY RIDGE WELL 8,,39.474540999999995,-106.025306,0.022000000000000002
3605540,BALDY RIDGE WELL 9,,39.474795,-106.02617,0.0
3605541,BALDY RIDGE WELL 10,,39.474795,-106.026159,0.0
3605542,BALDY RIDGE WELL 11,,39.474795,-106.02617,0.0
3605543,GOLDENVIEW WELL NO 2,,39.469382,-106.00939699999999,0.0
3605544,PEAK 10 WELL NO. 1,,39.454943,-106.071371,0.0
3605545,PEAK 10 WELL NO. 2,,39.454961,-106.071371,0.0
3605546,A-2  WELL NO. 1,,39.462016,-106.061471,0.0
3605547,A-2  WELL NO. 2,,39.46188,-106.06159699999999,0.0
3605548,A-2  COLLECTION GALLERY,,39.46091,-106.06226799999999,0.0
3605549,GOLDENVIEW WELL NO 3,,39.4677,-106.010058,0.0
3605550,COUNTY WELL NO. 1,,39.570017,-106.08357099999999,0.0
3605551,COUNTY WELL NO. 2,,39.570017,-106.08357099999999,0.0
3605552,GOLDENVIEW WELL NO 4,,39.467596,-106.00965,0.0045
3605553,GOLDENVIEW WELL NO 5,,39.467646,-106.00903500000001,0.0
3605554,GOLDENVIEW WELL NO 6,,39.467721999999995,-106.008559,0.0
3605555,GOLDENVIEW WELL NO 7,,39.467887,-106.008248,0.0
3605556,GOLDENVIEW WELL NO 8,,39.467484000000006,-106.007951,0.0045
3605557,GOLDENVIEW WELL NO 9,,39.467652,-106.007326,0.0
3605558,GOLDENVIEW WELL NO 10,,39.467628000000005,-106.00698799999999,0.0
3605559,GOLDENVIEW WELL NO 11,,39.467182,-106.00747,0.0045
3605560,GOLDENVIEW WELL NO 12,,39.467114,-106.008016,0.0
3605561,GOLDENVIEW WELL NO 13,,39.467112,-106.008283,0.0045
3605562,GOLDENVIEW WELL NO 14,,39.467099,-106.008771,0.0045
3605563,GOLDENVIEW WELL NO 15,,39.467104,-106.00918999999999,0.0045
3605564,GOLDENVIEW WELL NO 16,,39.466848999999996,-106.009569,0.0
3605565,GOLDENVIEW WELL NO 17,,39.466684,-106.00988100000001,0.0045
3605566,GOLDENVIEW WELL NO 18,,39.466609999999996,-106.010124,0.0045
3605567,GOLDENVIEW WELL NO 19,,39.466507,-106.010494,0.0045
3605568,GOLDENVIEW WELL NO 20,,39.466322999999996,-106.010922,0.0
3605569,GOLDENVIEW WELL NO 21,,39.466473,-106.011261,0.0045
3605570,GOLDENVIEW WELL NO 22,,39.466712,-106.01182299999999,0.0045
3605571,GOLDENVIEW WELL NO 23,,39.466646999999995,-106.01204299999999,0.0
3605572,GOLDENVIEW WELL NO 24,,39.467082,-106.01173500000002,0.0
3605573,GOLDENVIEW WELL NO 25,,39.467177,-106.011202,0.0045
3605574,GOLDENVIEW WELL NO 26,,39.46683,-106.01066200000001,0.0045
3605575,GOLDENVIEW WELL NO 27,,39.467133000000004,-106.01007299999999,0.0
3605576,GOLDENVIEW WELL NO 28,,39.467119,-106.01056100000001,0.0045
3605577,GOLDENVIEW WELL NO 29,,39.467504,-106.010916,0.0045
3605578,GOLDENVIEW WELL NO 30,,39.467663,-106.01120900000001,0.0045
3605580,TIGER RUN - BLUE RIVER WELL FIELD,,39.543248,-106.040072,19.88
3605581,TIGER RUN - SWAN RIVER WELL FIELD,,39.542473,-106.03710500000001,29.88
3605585,BILL'S RANCH WELL FIELD,,39.569673,-106.09145900000001,0.0
3605586,CAVANAUGH WELL,,39.484054,-106.044771,1.033
3605588,LOT 4 WELL - MCCULLOUGH GULCH,,39.407381,-106.05116399999999,0.0
3605589,LOT 3 WELL - MCCULLOUGH GULCH,,39.403863,-106.051553,0.0
3605590,SAWMILL GULCH INFILTRATION GALLERY,,39.466064,-106.07983,0.0
3605591,HEIT RANCH WELL FIELD,,39.644890000000004,-106.066126,0.0
3605592,AGAPE OUTPOST WELL NO. 1,,39.555529,-106.04713500000001,0.0
3605593,PEAK 7 - WELL NO 1,,39.480472999999996,-106.093203,0.0
3605594,PEAK 7 - WELL NO 2,,39.481257,-106.09319199999999,0.0
3605596,PDWTP WELL NO 1,,39.451433,-106.15195200000001,0.0
3605597,PDWTP BEDROCK WELL,,39.445736,-106.164002,0.0
3605598,HESTERS SPRING,,40.025836,-106.369968,0.0022
3605607,LOT 1 WELL - MCCULLOUGH GULCH,,39.404403,-106.0517,0.0
3605609,COPPER MOUNTAIN METRO DISTRICT WELL NO 4,,39.500306,-106.14636200000001,0.0
3605610,COPPER MOUNTAIN METRO DISTRICT WELL NO 5,,39.499515,-106.14707,0.0
3605611,COPPER MOUNTAIN METRO DISTRICT WELL NO 6,,39.502668,-106.150774,0.0
3605612,PDWTP WELL NO 2,,39.451433,-106.15195200000001,0.0
3605613,PDWTP WELL NO 3,,39.451433,-106.15195200000001,0.0
3605614,MAYFLOWER TUNNEL,,39.444289000000005,-106.16366399999998,0.0
3607000,SUMMIT COUNTY UMBRELLA AUG PLAN,,39.621541,-106.062564,6.431
3607005,DILLON BLUE RIVER INTAKE EXCHANGE,,39.625766999999996,-106.04649199999999,0.0
3607007,LOVE PIT AUG PLAN,,39.70219,-106.106958,0.0
3607010,DILLON EXCHANGE - DILLON BLUE RIVER INTAKE,43.92,39.626422999999996,-106.070655,0.0
3607011,DILLON EXCHANGE - LASKEY GULCH DIVERSION,43.92,39.626422999999996,-106.070655,0.0
3607012,DILLON EXCHANGE - DILLON DITCH,0.0,39.626422999999996,-106.070655,0.0
3607143,BRECKENRIDGE MUNICIPAL AUG PLAN,,39.455501,-106.031512,130.0
3607144,BRECKENRIDGE MUNICIPAL EXCHANGE,15.51,39.879478000000006,-106.338676,0.0
3607161,CLINTON/BRECKENRIDGE EXCHANGE,,39.414946,-106.17310800000001,0.0
3607182,WILLIAMS FORK RESERVOIR EXCHANGE,0.02,40.041681,-106.397825,0.0
3607193,BUD AND DOT EXCHANGE,0.95,39.622424,-106.066574,0.0
3607284,KEYSTONE-ARAPAHOE LMT EXCHANGE,,39.599827000000005,-105.88290900000001,1011.68
3607287,SELDOM ACRES DEPLETION REACH,44.48,39.621541,-106.062599,0.0
3607290,PERKINS EXCH,44.5,39.618541,-106.070158,0.0
3607291,BENSON EXCH,44.5,39.618541,-106.070158,0.0
3607292,SAYE-WILKONSON EXCH,44.5,39.618541,-106.070158,0.0
3607293,TOWN OF BRECKENRIDGE WHITEWATER PARK,55.1,39.493683000000004,-106.046043,500.0
3607294,PARADOX LODGE EXCH,0.0,39.618541,-106.070158,0.0
3607295,GLEN HAVEN DEPLETION REACH,44.48,39.621541,-106.062599,0.0
3607298,SWANS NEST METRO DISTRICT EXCHANGE,0.0,39.618541,-106.070158,0.0
3607312,VIDLER-RICE/SODA CREEK/PHILLIPS POOL,3.67,39.601259000000006,-105.99548,0.0
3607314,VIDLER-GIBERSON/HOMESTEAD POOL,5.6,39.622839,-105.79159399999999,0.0
3607315,VIDLER-BLUE DANUBE POOL,5.98,39.628073,-105.796104,0.0
3607328,SNAKE RIVER WTR EXCH 3,0.0,40.041681,-106.397825,0.0
3607384,WOLFORD-DILLON EXCHANGE,0.0,40.04307,-106.39798799999998,0.0
3607385,WOLFORD-ROBERTS EXCHANGE,0.0,40.042962,-106.397997,0.0
3607407,COPPER MTN W & S DEPL REACH,0.02,40.041681,-106.397825,0.0
3607409,COPPER MTN INC EXCHANGE 1,15.76,39.875876,-106.329275,0.0
3607413,COPPER MTN EXCHANGE 5,54.33,39.492165,-106.134925,0.0
3607438,FRISCO-GRN MTN RES EXCH,15.76,39.875876,-106.329275,0.0
3607439,FRISCO-DILLON RES EXCH,0.0,39.618541,-106.070158,0.0
3607538,SILVERTHORNE WELLS EXCHANGE,,40.04254,-106.397848,0.0
3607577,RANCH AT BRECKENRIDGE EXCHANGE,57.45,39.484055,-106.004232,0.0
3607587,PEARSON WELLS EXCHANGE,15.76,39.875876,-106.329275,0.0
3607588,GOLD HILL ESTATES AUG PLAN,,39.533069,-106.002872,0.0
3607591,HILL RANCH LOT 1 EXCHANGE,,39.875876,-106.329275,0.0
3607597,BUFFALO MTN GALLERY EXCHANGE,15.55,39.878564000000004,-106.333225,0.0
3607599,SPRUCE VALLEY RANCH ASSOCIATES WELL EXCHANGE,15.58,39.878215999999995,-106.33291399999999,0.0
3607600,SPRUCE VALLEY RECHARGE EXCHANGE,0.0,39.620731,-106.06648999999999,0.0
3607605,COUNIHAN EXCHANGE,15.76,39.875876,-106.329275,0.0
3607607,HOFFART WELLS EXCHANGE,44.5,39.618541,-106.070158,0.0
3607687,SHANE GULCH SUBD EXCHANGE,15.76,39.875876,-106.329275,0.0
3607690,TRENT PARK POND EXCHANGE,40.84,39.665661,-106.083327,0.0
3607696,MINERS CREEK DITCH EXCHANGE,45.81,39.619006,-105.953047,0.0
3607698,DILLON VALLEY EXCHANGE,44.12,39.641290999999995,-106.038731,0.0
3607699,DILLON DITCH EXCHANGE,,39.611283,-106.088994,0.0
3607721,KEYSTONE RIVER GOLF EXCHANGE,,39.60165,-105.996126,0.0
3607875,GREEN MTN CANAL/DONLON EXCHANGE,30.11,39.777794,-106.160348,0.0
3607902,SPRING CREEK RANCHERS HOA EXCHANGE,1.24,39.878703,-106.332877,0.0
3607931,GIBERSON EXCHANGE,2.79,39.595998,-106.09549399999999,0.0
3607995,COPPER MTN WEST LAKE EXCHANGE,1.33,39.501431,-106.15651000000001,0.0
3609006,FARMERS KORNER HENRIKSEN WELL DEPLETION REACH,44.48,39.620894,-106.066341,0.0
3609009,BRECKENRIDGE MUNICIPAL AUG/EXCHANGE DEPLETION REAC,58.55,39.455556,-106.031443,0.0
3609010,GLEN HAVEN DEPLETION REACH,44.69,39.618046,-106.06543500000001,0.0
3609012,BUFFALO MTN AUG/EXCHANGE DEPLETION REACH,43.83,39.626849,-106.072258,0.0
3609013,CLINTON/BRECKENRIDGE EXCHANGE DEPLETION REACH,18.41,39.414937,-106.173096,0.0
3609014,SUMMIT COUNTY UMBRELLA AUG PLAN DEPLETION REACH,226.62,40.042390999999995,-106.397493,0.0
3609015,SELDOM ACRES DEPLETION REACH,44.7,39.617595,-106.06554399999999,0.0
3609017,SILVERTHORNE AUG/EX DEPLETION REACH,43.51,39.631089,-106.07274299999999,0.0
3609021,KEYSTONE-ARAPAHOE BASIN DEPLETION REACH,6.45,39.606789,-105.951645,0.0
3609024,WOLFORD-DILLON EXCHANGE DEPLETION REACH,0.0,40.043043,-106.397952,0.0
3609026,AGAPE OUTPOST WELL DEPLETION REACH,50.11,39.555788,-106.04641699999999,0.21
3609027,MT POWELL RANCH DEPLETION REACH,0.0,39.821038,-106.20470800000001,0.0
3609028,TOWN OF DILLON STRAIGHT CREEK DEPL REACH,0.0,39.626325,-106.07051399999999,0.0
3609029,TOWN OF DILLON BLUE RIVER DEPL REACH,43.91,39.626476000000004,-106.07077199999999,0.0
3609030,TOWN OF DILLON SALT LICK GULCH DEPL REACH,0.0,39.626465,-106.070924,0.0
3609031,ELK CREEK DITCH NO 1 AUG/EX PLAN DEPLETION REACH,0.47,39.712068,-106.10376699999999,0.0
3609032,DILLON/ROBERTS/WILLIAMS FORK EXCHANGE DEPL REACH,0.01,40.042703,-106.397793,0.0
3609035,DOT PLACER WELLS EXCHANGE DEPLETION REACH,62.66,39.406473,-106.04094099999999,0.0
3609037,DILLON BLUE RIVER INTAKE EXCHANGE DEPL REACH,43.93,39.626407,-106.07038700000001,0.0
3609039,SWANS NEST METRO AUG/EX DEPLETION REACH,0.86,39.536223,-106.03376499999999,0.0
3609040,BEARDSLEY NO 1 POND AUG PLAN DEPLETION REACH,1.31,39.798398,-106.21064399999999,0.0
3609042,GREEN MOUNTAIN CANAL DEPL REACH - COHEN,30.25,39.777078,-106.15888100000001,0.0
3609044,COPPER MTN TENMILE CR DEPLETION REACH,11.8,39.492145,-106.135099,0.0
3609054,SWANS NEST DEPLETION REACH,0.01,39.546338,-106.03818600000001,0.0
3609056,RANCH AT BRECKENRIDGE AUG PLAN DEPLETION REACH,57.63,39.47606,-106.006133,0.0
3609058,PEARSON WELL AUG PLAN DEPLETION REACH,51.18,39.544255,-106.04239199999999,0.0
3609061,HILL RANCH LOT 1 AUG/EXCHANGE DEPLETION REACH,30.66,39.771390000000004,-106.156403,0.0
3609065,SPRUCE VALLEY RANCH AUG/EXCH DEPLETION REACH,58.68,39.449658,-106.023872,0.0
3609068,COPPER MTN WEST TENMILE CR DEPLETION REACH,1.33,39.501503,-106.156535,0.0
3609069,COUNIHAN AUG/EXCHANGE PLAN DEPLETION REACH,31.08,39.776623,-106.141101,0.0
3609070,HOFFART WELLS AUG PLAN DEPLETION REACH,49.54,39.563439,-106.053249,0.0
3609071,SE-54 WELL AUG PLAN DEPLETION REACH,2.19,39.519756,-106.01070700000001,0.0
3609074,SHANE GULCH SUBD AUG/EXCHANGE DEPLETION REACH,0.25,39.844822,-106.229786,0.0
3609076,TRENT PARK POND AUG PLAN DEPLETION REACH,0.29,39.665898,-106.08306200000001,0.0
3609079,DILLON VALLEY AUG PLAN DEPLETION REACH,0.97,39.625824,-106.048427,0.0
3609080,KEYSTONE RIVER GOLF AUG/EXCHANGE DEPLETION REACH,3.64,39.601517,-105.995833,0.0
3609082,GIBERSON AUG PLAN/EXCHANGE DEPLETION REACH,3.66,39.59613,-106.095822,0.0
3609083,GOLDENVIEW SUBDIVISION DEPLETION REACH,2.32,39.466953000000004,-106.006874,0.0
3609086,GREEN MOUNTAIN CANAL DEPL REACH - DONLON,30.25,39.777033,-106.15888000000001,0.0
3609087,VIDLER UMBRELLA AUG PLAN DEPLETION REACH,64.54,39.372607,-106.05840900000001,0.0
3609088,SPRING CREEK RANCHERS HOA DEPLETION REACH,3.16,39.888762,-106.38486,0.0
3609094,MATHIS WELLS DEPLETION REACH,33.23,39.747153000000004,-106.129993,0.0
3609095,TIMBERLINE VALLEY WELLS EXCHANGE/AUG REACH,5.71,39.403721000000004,-106.051341,0.0
3609098,LOVE PIT AUG PLAN DEPLETION REACH,37.63,39.702172,-106.10696899999999,0.0
3609099,BALDY RIDGE WELLS 1-11 AUG PLAN POD,57.45,39.474777,-106.02617,0.0
3609100,MOSER CU EXCHANGE DEPLETION REACH,226.66,40.042869,-106.39744499999999,0.0
3609101,DILLON DITCH EXCHANGE DEPLETION REACH,226.62,40.042515,-106.39768400000001,0.0
3609102,KING CREEK LOWER/UPPER SPRING DEPLETION REACH,10.63,39.947106,-106.296945,0.0
3609103,SOUTH FORK SWAN SEGMENT A - SWAN RIVER WELLS,7.8,39.497088,-105.946298,0.0
3609104,MIDDLE FORK SWAN SEGMENT A - SWAN RIVER WELLS,7.8,39.497088,-105.946298,0.0
3609105,MIDDLE FORK SWAN RIVER SEGMENT C - S FORK TO N FOR,6.55,39.512562,-105.94805500000001,0.0
3609106,NORTH FORK SWAN SEGMENT D,6.55,39.512562,-105.94805500000001,0.0
3609107,SWAN RIVER SEGMENT E - NORTH FORK TO MUGGINS GULCH,4.99,39.525578,-105.970396,0.0
3609108,SWAN RIVER SEGMENT F - MUGGINS GULCH TO BLUE RIVER,0.0,39.546481,-106.038293,0.0
3609109,SEGMENT A - SNAKE,14.08,39.563790000000004,-105.860699,0.0
3609110,SEGMENT B - DEER CREEK,14.08,39.563790000000004,-105.860699,0.0
3609111,SEGMENT C - SNAKE,11.39,39.597372,-105.87508999999999,0.0
3609112,SEGMENT D - PERU CREEK,0.0,39.597533,-105.87520900000001,0.0
3609113,SEGMENT E - SNAKE,7.05,39.604890999999995,-105.94251100000001,0.0
3609114,SEGMENT F - NORTH FORK,7.05,39.604898999999996,-105.942522,0.0
3609115,SEGMENT G - SNAKE,4.6,39.602052,-105.979546,0.0
3609116,SEGMENT H - KEYSTONE GULCH,0.0,39.602052,-105.979546,0.0
3609117,SEGMENT I - SNAKE,2.52,39.603967,-106.010626,0.0
3609118,SEGMENT A - TENMILE CREEK,3.65,39.579659,-106.09206999999999,0.0
3609119,SEGMENT A - STRAIGHT CREEK,0.01,39.626546999999995,-106.06789599999999,0.0
3609120,SUMMIT CO LOWER BLUE RIVER DEPLETION REACH,22.24,39.840949,-106.23391299999999,0.0
3609121,SUMMIT CO MINERS CREEK DEPLETION REACH,44.49,39.62084,-106.06639799999999,0.0
3609122,LUCKY U LAKE EXCHANGE DEPLETION REACH,32.48,39.758169,-106.13115400000001,0.0
3609123,UPPER BLUE SEGMENT A - HEADWATERS TO MONTE CRISTO ,64.54,39.386912,-106.052796,0.0
3609124,UPPER BLUE SEGMENT B - MONTE CRISTO CK,64.54,39.386912,-106.052796,0.0
3609125,UPPER BLUE SEGMENT C - MONTE CRISTO TO PENNSYLVANI,60.82,39.431206,-106.042018,0.0
3609126,UPPER BLUE SEGMENT D - SPRUCE CREEK,59.83,39.441776000000004,-106.03791000000001,0.0
3609127,UPPER BLUE SEGMENT E - PENNSYLVANIA CK TO FRENCH G,55.06,39.494214,-106.046098,0.0
3609128,UPPER BLUE SEGMENT F - FRENCH GULCH TO SWAN RIVER,51.5,39.539445,-106.04225,0.0
3609129,UPPER BLUE SEGMENT G - SWAN RIVER TO DILLON INLET,50.92,39.546428000000006,-106.038211,0.0
3609130,LOWER BLUE SEGMENT A - DILLON TO WILLOW CK,41.96,39.651455,-106.076205,0.0
3609131,LOWER BLUE SEGMENT B WILLOW CK TO ROCK CK,35.53,39.72422,-106.12561699999999,0.0
3609132,LOWER BLUE SEGMENT C - ROCK CK TO BOULDER CK,33.97,39.736954,-106.13363100000001,0.0
3609133,LOWER BLUE SEGMENT D - BOULDER CK TO SLATE CK,29.76,39.782829,-106.16223500000001,0.0
3609134,LOWER BLUE SEGMENT E - SLATE CK TO GREEN MTN RESER,22.92,39.833556,-106.22671000000001,0.0
3609135,DILLON EXCHANGE-BLUE RIVER INTAKE DEPL REACH,43.92,39.626422999999996,-106.070655,0.0
3609136,DILLON EXCHANGE-LASKEY GULCH DEPLETION REACH,43.92,39.626422999999996,-106.070655,0.0
3609137,DILLON EXCHANGE-DILLON DITCH,43.92,39.626422999999996,-106.070655,0.0
3617010,DOT PLACER WELL EXCHANGE - TIMBER CREEK WATER COMP,,39.620746999999994,-106.06661799999999,0.0
3617016,DUNHAM ELK CREEK DITCH NO 1 EXCHANGE,0.01,39.711721999999995,-106.112628,0.0
3617018,TIMBERLINE VALLEY WELLS EXCHANGE,,39.621002000000004,-106.066331,0.0
3617021,LOVE PIT AUG PLAN,,39.70219,-106.106958,0.0
3617023,BALDY RIDGE WELL 1-11 EXCHANGE,,39.618541,-106.070158,0.0
3700502,ALKALI DITCH,4.18,39.750818,-106.67201499999999,5.1
3700503,O H ANDERSON DITCH,0.34,39.64528,-106.95095900000001,1.58
3700505,ARMINDA DITCH,1.31,39.561245,-106.419471,3.0
3700506,BAILEY DITCH,2.12,39.599038,-106.602603,1.125
3700507,BEAVER MEADOWS DITCH,11.69,39.473766,-106.729522,1.1
3700509,BEECHER CREEK DITCH,10.73,39.552137,-106.76940800000001,3.19
3700510,BEMIS DITCH,7.74,39.594081,-106.728994,2.69
3700513,BLACK GORE DITCH,0.13,39.623721,-106.280657,4.4
3700514,BOLTS DITCH,2.21,39.550455,-106.42138,30.0
3700517,BORAH DITCH,8.33,39.583931,-106.76236899999999,4.05
3700518,BOTTOLFSON DITCH,3.26,39.474686,-106.36453300000001,1.5
3700519,BRAGG NO 1 DITCH,4.96,39.575918,-106.571055,11.58
3700520,BRAGG NO 2 DITCH,4.9,39.576436,-106.57200900000001,2.99
3700521,BRETT DITCH,0.8,39.642122,-106.611802,5.45
3700522,BRYANT LOWER DITCH,3.47,39.636589,-106.40216699999999,5.0
3700523,BUFFEHR & ROSE DITCH,3.65,39.638861999999996,-106.401234,5.21
3700524,BURNISON DITCH,1.31,39.667373,-106.59571799999999,2.4
3700525,BURNISON NO 2 DITCH,0.86,39.661056,-106.595817,0.5
3700526,C A C NO 1 DITCH,1.02,39.603753000000005,-106.47095800000001,1.13
3700527,C A C NO 2 DITCH,0.8,39.606493,-106.468756,1.4
3700528,C A C NO 3 DITCH,0.7,39.615956,-106.472125,6.4
3700529,CAMPBELL DITCH,18.99,39.478233,-106.824583,3.86
3700530,CASH CREEK DITCH,2.65,39.731371,-106.622175,0.8
3700531,CASTEEL DITCH,2.12,39.603851,-106.62004499999999,3.14
3700532,F E W NO 2 DITCH,2.25,39.721453000000004,-106.743255,2.13
3700533,CASTLE DITCH,3.12,39.696359,-106.83346399999999,2.0
3700534,CASTLE NO 1 DITCH,2.8,39.692045,-106.831647,14.757
3700535,CASTLE NO 2 DITCH,3.21,39.697406,-106.834448,20.075
3700537,CASTLE CREEK DITCH,1.57,39.687974,-106.803354,0.4036
3700539,CHATFIELD BARTHOLOMEW D,3.41,39.614509000000005,-106.96349099999999,42.34
3700540,MALOIT PARK DIVERSION STRUCTURE,1.04,39.563511,-106.417596,0.0
3700545,C K P DITCH,0.67,39.645215,-106.835025,2.4000000000000004
3700546,CLARK DITCH,5.75,39.451858,-106.390097,3.0
3700547,CLARK PIPELINE,5.75,39.452093,-106.390753,1.0
3700548,C M STREMME GATES DITCH,12.89,39.647309,-106.87873700000002,15.9414
3700549,COLLINS NO 1 DITCH,12.49,39.518128000000004,-106.907078,0.9600000000000001
3700550,COLLINS NO 2 DITCH,12.49,39.518128000000004,-106.907078,0.39
3700551,COOLEY L E NO 1 DITCH,1.54,39.634554,-106.92094499999999,0.7
3700552,COOLEY L E NO 2 DITCH,1.6,39.633715,-106.921015,1.3
3700557,COWEN DITCH,4.18,39.743521,-106.744757,2.25
3700558,COWEN SPRINGS,,39.741471999999995,-106.74321100000002,3.05
3700559,CRANN DITCH,8.42,39.584222,-106.746052,1.3
3700560,CREAMERY DITCH,2.12,39.615491,-106.614865,22.96
3700561,DAGGETT AND PARKER DITCH,5.0,39.595286,-106.96968999999999,23.26
3700563,A B DEGRAW DITCH,2.12,39.601543,-106.61561200000001,3.566
3700564,DESERT DITCH,0.04,39.562607,-106.95588000000001,1.2
3700566,DITCH NO 1 DITCH,1.51,39.642720000000004,-106.824692,5.1259999999999994
3700567,DITCH NO 2 DITCH,1.47,39.642386,-106.825255,2.55
3700568,DITCH NO 3 DITCH,1.04,39.642821999999995,-106.830767,2.7600000000000002
3700569,DITCH NO 4 DITCH,2.08,39.637816,-106.81735,1.2
3700570,DIXON DITCH,1.77,39.575775,-106.44967700000001,1.6
3700571,J M DODD DITCH,1.89,39.627837,-106.61408,13.14
3700572,DOLL DITCH,,39.58576,-106.92903999999999,3.86
3700573,DORA B DITCH,1.29,39.644884000000005,-106.650557,1.0
3700576,DRY GULCH DITCH,0.91,39.629353,-106.563131,0.3
3700577,DUNNINGTON DITCH,2.5,39.722075,-106.63936399999999,0.2
3700578,DUTTON DITCH,0.15,39.647576,-106.59123600000001,0.0628
3700579,EAGLE DITCH,42.43,39.609097,-106.45648500000001,13.200000000000001
3700583,EAGLE TOWN OF GRAV SYS,9.86,39.563931,-106.765227,5.7
3700585,EAST FROST DITCH,7.24,39.59774,-106.76191599999999,3.1399999999999997
3700586,EBY CREEK PIPELINE,0.57,39.662109,-106.82723999999999,0.01
3700587,EDWARD DITCH,4.04,39.647544,-106.396235,2.0
3700588,EDWARDS DITCH,2.18,39.636987,-106.816222,2.2
3700590,EMPIRE ZINC CO PIPELINE,0.27,39.524051,-106.40562,16.0
3700591,EMPIRE ZINC CO PIPELINE,1.31,39.542215999999996,-106.38055200000001,1.0
3700592,EMPIRE ZINC CO IND WTR S,50.2,39.527782,-106.39690700000001,8.689
3700593,ERICKSON DITCH,0.65,39.643121,-107.04857700000001,3.782
3700594,ERICKSON NO 1 DITCH,12.6,39.518634999999996,-106.903625,0.14
3700595,ERICKSON NO 2 DITCH,12.68,39.520328000000006,-106.900903,2.416
3700596,FERGUSON DITCH,6.39,39.572508,-106.979849,0.72
3700597,F E W NO 2 DITCH,3.31,39.727304,-106.756727,1.07
3700598,F E W NO 3 DITCH,2.57,39.729101,-106.745677,1.12
3700599,F E W NO 4 DITCH,2.63,39.728611,-106.746528,5.0
3700601,F M S DITCH,0.43,39.644126,-106.95047199999999,1.62
3700602,FOOSHEE DITCH,0.0,39.578333,-106.429378,1.8
3700604,FROST DITCH,8.26,39.5848,-106.762647,5.279999999999999
3700605,FROST CREEK DITCH,9.1,39.576291999999995,-106.778254,4.8100000000000005
3700606,E J FULFORD DITCH,11.69,39.539770000000004,-106.753723,0.375
3700607,E J FULFORD NO 1 DITCH,11.69,39.538725,-106.748926,1.3399999999999999
3700610,JOE GOODE NO 1 DITCH,0.94,39.521415999999995,-106.679354,0.0
3700612,GOULD DITCH,10.3,39.537721000000005,-106.93220600000001,0.47
3700613,GRACE PARK DITCH,42.26,39.612829,-106.456547,18.5
3700614,GRAHAM DITCH,4.95,39.598872,-106.651794,3.7
3700616,GRAHAM NO 1 DITCH,41.43,39.619225,-106.46607900000001,14.8
3700617,GRAHAM NO 2 DITCH,0.17,39.62202,-106.490505,5.8100000000000005
3700618,GROFF DITCH,0.49,39.65852,-106.63046000000001,6.3999999999999995
3700619,GRUNDELL A F DITCH,2.39,39.625239,-106.95864499999999,2.69
3700620,GRUNDELL BROS DITCH,2.54,39.62321,-106.958809,4.57
3700622,GYPSUM GRAV SYS TOWN OF,11.05,39.529103000000006,-106.92666799999999,2.5599999999999996
3700625,HAMMER DITCH,2.21,39.600331,-106.51976599999999,10.0
3700628,HASHBERGER DITCH,4.84,39.585409000000006,-106.703115,3.14
3700632,HAWLEY AND REESE DITCH,4.89,39.563909,-106.60717199999999,6.3
3700633,HAYDEN DITCH,4.11,39.606053,-106.96800400000001,1.56
3700634,HENDERSON DITCH,1.6,39.641224,-106.652556,0.9
3700635,HERNAGE DITCH,2.77,39.634702000000004,-106.80619899999999,4.5198
3700637,HIGHLINE DITCH,3.13,39.564809000000004,-106.474802,7.63
3700638,HIGHLINE DITCH (TALMAGE),0.0,39.576413,-106.425008,3.0
3700640,LAURA A HOCKETT DITCH,0.68,39.644816,-106.83516599999999,1.6
3700641,HOLLAND DITCH,0.41,39.696071999999994,-106.68290400000001,4.7
3700642,HOLLINGSWORTH DITCH,21.6,39.689741999999995,-106.746049,51.620000000000005
3700643,HOLLINGSWORTH POTTER D,6.13,39.611323,-106.76156100000001,9.34
3700644,HOLLINGSWORTH POTTER NO2,7.48,39.594949,-106.76239199999999,12.85
3700647,FORD PARK DIVERSION,5.98,39.63927,-106.363905,0.0
3700648,DONOVAN PARK DIVERSION,2.88,39.633803,-106.410524,0.0
3700649,BANK-WILDER PUMP STATION,14.43,39.647927,-106.853173,0.0
3700650,WENNINGER HYDROPOWER DIVERSION,18.1,39.482514,-106.84049499999999,2.0
3700654,LUI HOPPER DITCH,2.12,39.614796999999996,-106.6227,4.598
3700655,H O R DITCH,7.01,39.574188,-106.959442,18.19
3700657,HOSMER NO 2 DITCH,60.55,39.419334,-106.290576,2.72
3700658,HOWARD DITCH,36.6,39.637147,-106.546989,17.16
3700659,HOWARD AND WINSLOW DITCH,1.2,39.659643,-106.58251899999999,11.23
3700661,HURD DITCH,0.99,39.643712,-106.517173,2.0
3700662,BERT HYDE DITCH,1.06,39.638639000000005,-106.611476,4.3
3700663,IDE DITCH,,39.559758,-106.96936000000001,0.7
3700664,JOHNSON DITCH,3.09,39.615411,-106.912122,0.2
3700666,JOHNSON & HOWARD DITCH,1.85,39.60631,-106.51805700000001,3.0
3700667,J P O NO 1 DITCH,5.67,39.568936,-106.85059,5.7
3700668,J P O NO 2 DITCH,5.2,39.586865,-106.860173,4.3
3700669,JUNE CREEK DITCH,2.03,39.667149,-106.55373200000001,11.43
3700670,KALABAUGH DITCH,4.2,39.594609000000005,-106.80445900000001,3.8499999999999996
3700671,KATSOS DITCH,0.2,39.648408,-106.322406,2.8
3700672,KATSOS NO 2 DITCH,8.43,39.64275,-106.32083,3.3
3700674,KIAHTIPES NO 1 DITCH,11.38,39.620387,-106.27979199999999,1.5
3700675,KIAHTIPES NO 2 DITCH,11.07,39.627266,-106.285103,1.0
3700676,KIAHTIPES NO 3 DITCH,10.47,39.629484000000005,-106.296377,3.4
3700677,KIAHTIPES NO 6 DITCH,9.65,39.637403000000006,-106.30525300000001,1.0
3700680,LARZALERE DITCH,4.73,39.645855,-106.38230800000001,8.5
3700681,FRANK LARZALERE DITCH,0.43,39.635507000000004,-106.370496,2.2
3700682,L E D E DITCH,3.96,39.448943,-106.777973,15.23
3700683,LEONARD HORN DITCH NO 1,6.46,39.758328999999996,-106.777652,33.25
3700684,LEONARD HORN DITCH NO 2,6.46,39.758328999999996,-106.777652,15.5
3700685,LOVE FROST DITCH,7.17,39.598931,-106.76178300000001,5.68
3700686,LOVE AND WHITE DITCH,5.78,39.616161,-106.765143,20.4
3700688,LOWER RULE DITCH,0.23,39.646330999999996,-106.841325,0.8
3700690,MAHONEY DITCH,1.13,39.611308,-106.490475,2.76
3700691,MAIN GORE DITCH,11.74,39.627497,-106.27476100000001,1.0
3700692,MANN DITCH,0.3,39.649636,-106.322208,6.2
3700694,MATHEWS DITCH,4.06,39.62678,-106.78771299999998,19.34
3700695,MAXON DITCH,5.56,39.589674,-106.968629,4.0
3700696,MAYBERRY DITCH,2.12,39.609481,-106.613001,4.11
3700697,MAYER DITCH,5.0,39.585322,-106.81016799999999,3.8499999999999996
3700698,MCBRAYER DITCH,3.72,39.610548,-106.965382,8.98
3700699,MCBRAYER & FENNER DITCH,3.93,39.608447,-106.967629,8.16
3700700,MCCOY DITCH,0.71,39.629353,-106.563131,0.3
3700701,MCCOY AND TAYLOR DITCH,0.66,39.631112,-106.562329,12.83
3700702,MCHATTON DITCH,2.71,39.617535,-106.88746100000002,0.67
3700704,MCKENZIE DITCH,6.35,39.608901,-106.763806,6.25
3700705,MCMONAGLE DITCH,3.94,39.645444,-106.39631999999999,2.5
3700707,MESA DITCH,1.54,39.738053,-106.637794,2.5
3700708,METCALF DITCH,38.99,39.626482,-106.50701000000001,29.387000000000004
3700710,MIKE DITCH,4.04,39.646808,-106.396045,2.0
3700711,MILES DITCH,9.71,39.566358,-106.763775,17.83
3700712,MILLER DITCH,8.47,39.558129,-106.94898,6.87
3700713,MILLER CORRALL DITCH,10.37,39.536163,-106.93550800000001,1.31
3700714,MINNIE V DITCH,3.17,39.619893,-106.648496,1.5
3700715,MINTURN WATER SYSTEM DITCH,1.27,39.561634999999995,-106.420014,8.187000000000001
3700716,MINTURN PUMPING PLANT,0.1,39.575688,-106.41165500000001,0.4452
3700718,MOSHER DITCH,10.96,39.529598,-106.92613500000002,1.45
3700719,MOSES DITCH,2.12,39.608365,-106.620686,3.8125
3700720,MUCKEY DITCH,15.75,39.490268,-106.865549,6.28
3700721,MUDDY DITCH,4.4,39.750541,-106.64599199999999,3.46
3700723,NEILSON SOUTH DITCH,1.27,39.642215,-106.82698700000002,9.454
3700724,NEILSON PUMP LINE DITCH,15.97,39.656903,-106.830823,5.859999999999999
3700725,NELSON DITCH,0.55,39.572144,-106.94648600000001,1.0
3700726,BEN NELSON DITCH,1.65,39.5771,-106.448168,8.83
3700727,PETER NELSON DITCH,0.5,39.591259,-106.44052099999999,11.71
3700728,NEUBAUER DITCH,4.51,39.6011,-106.970542,1.22
3700729,NOLAN DITCH,0.04,39.526401,-106.693482,5.52
3700731,NORGAARD DITCH,0.93,39.637837,-106.95156599999999,4.6507
3700732,NOTTINGHAM DITCH (76),0.68,39.63221,-106.49181200000001,2.0
3700733,NOTTINGHAM DITCH (93),0.68,39.63221,-106.49181200000001,2.0
3700734,NOTTINGHAM DITCH (354),2.7,39.596722,-106.524454,4.0
3700736,NOTTINGHAM & PUDER DITCH,40.29,39.623256,-106.483953,24.644999999999996
3700739,O I F DITCH,9.84,39.564208,-106.76536200000001,4.4
3700740,OLE CREEK DITCH,1.73,39.633068,-106.68286699999999,1.0
3700741,OLESON DITCH,4.17,39.625122999999995,-106.78653999999999,1.94
3700742,OLESON DITCH PUMP AND PL,14.32,39.647676000000004,-106.85525700000001,5.2
3700743,ONEILL AND HOLLAND DITCH,30.35,39.664024,-106.64461299999999,29.76
3700745,OXFORD DITCH,2.3,39.600331,-106.51976599999999,8.86
3700750,PARK DITCH,4.37,39.637723,-106.3888,0.8
3700751,MRS PAYE DITCH,1.68,39.621695,-106.819864,3.0
3700752,P C DITCH,19.2,39.47919,-106.81526000000001,1.0
3700754,PETERSON DITCH,35.09,39.639513,-106.571374,1.0
3700758,PETERSON NO 3 DITCH,3.1,39.518946,-106.75086100000001,1.42
3700760,PETES DITCH,0.84,39.586225,-106.459094,4.4
3700761,PHILLIPS DITCH,5.83,39.585504,-106.966898,5.03
3700764,POTTS DITCH,2.02,39.580871,-106.461404,2.0
3700766,RED CLIFF TOWN OF WATER WORKS SYSTEM,1.7,39.521162,-106.34348899999999,5.5
3700767,LOWER CROSS CREEK DIVERSION,0.52,39.567029,-106.41289499999999,0.0
3700768,RED CLIFF PIPELINE,54.77,39.488809,-106.354925,2.5
3700769,RED CLIFF PROJ PANDO,58.09,39.45559,-106.32790700000001,0.0
3700776,BOB REID DITCH,5.05,39.480652,-106.739075,4.68
3700777,ROBERT EMMETT DITCH,0.37,39.626763000000004,-106.52349099999999,2.0
3700778,ROBERTSON DITCH,1.81,39.576437,-106.74189799999999,2.9
3700779,ROOT DITCH,0.55,39.65784,-106.601653,1.6
3700780,ROSE DITCH,3.61,39.638184,-106.40136000000001,2.51
3700781,ROSS DITCH,1.75,39.677529,-106.834621,1.05
3700782,RUBY DITCH,3.11,39.619865000000004,-106.65873500000001,1.0
3700783,RUDER NO 1 DITCH,1.52,39.620917999999996,-106.426771,1.18
3700784,RUDER NO 2 DITCH,1.55,39.621547,-106.426984,0.76
3700785,RUSSELL DITCH,3.07,39.594302,-106.72870900000001,1.72
3700786,SALT CREEK DITCH,7.08,39.598993,-106.75652,1.7799999999999998
3700787,SANDSTONE DITCH,4.04,39.646115,-106.395926,3.2
3700788,SARAH M DITCH,0.34,39.654992,-106.641065,0.4
3700789,SAWMILL DITCH,5.81,39.636635999999996,-106.37106599999998,4.2
3700790,S B AND A H DITCH,3.56,39.583975,-106.52626799999999,16.32
3700791,SCHLIFF DITCH,8.94,39.6518,-106.938217,3.5999999999999996
3700792,SCHLUTTER DITCH,8.83,39.57793,-106.764173,2.24
3700793,SCHUMM NO 1 DITCH,15.15,39.649056,-106.839928,6.67
3700794,SCHUMM NO 2 DITCH,14.19,39.648778,-106.85741399999999,5.0
3700795,CASPER SCHUMM DITCH,12.47,39.650409,-106.885348,2.8649999999999998
3700797,SCOVILLE DITCH,4.92,39.646813,-106.380509,2.4
3700798,SCOTTY DITCH,5.66,39.452308,-106.38631699999999,5.0
3700800,SHERMAN PIPELINE DITCH,0.4,39.675959000000006,-106.75253400000001,0.139
3700801,SHERWOOD DITCH,0.0,39.703536,-106.707894,4.62
3700802,SHIVELY DITCH,7.28,39.643451,-106.340655,1.2
3700803,BERT SIDDELL DITCH,2.46,39.597623,-106.59940300000001,7.23
3700804,SKIFF F M DITCH,,39.632088,-106.954282,4.13
3700805,SKIFF NO 1 DITCH,12.55,39.519290000000005,-106.90428200000001,0.39
3700806,SKIFF NO 2 DITCH,11.8,39.522933,-106.913474,0.72
3700807,SKIFF AND SCHLIFF DITCH,0.58,39.642051,-106.95116000000002,2.75
3700809,SMITH & PALLISTER DITCH,2.74,39.591120000000004,-106.612948,2.1
3700810,SOAP SPRINGS DITCH,11.69,39.48395,-106.728076,1.113
3700814,SPRADDLE DITCH,0.48,39.645508,-106.37356100000001,0.5
3700815,SPRADDLE NO 2 DITCH,0.37,39.644791999999995,-106.37541100000001,2.0
3700816,SPRING BRANCH DITCH,0.79,39.587634,-106.46240700000001,1.2
3700817,SQUAW CREEK DITCH,2.54,39.628572999999996,-106.64953999999999,1.75
3700818,SQUIRES DITCH NO 1,8.42,39.582189,-106.74401,1.98
3700819,SQUIRES DITCH NO 2,8.42,39.582626,-106.74434699999999,0.2
3700820,SQUIRE & HAMMOND DITCH,3.37,39.630386,-106.7975,10.17
3700822,STATON AND CISSNA DITCH,10.79,39.551445,-106.763944,4.77
3700823,STRATTON AND CO DITCH,8.34,39.559057,-106.95111299999999,54.4
3700824,SUNDELL DITCH NO 1,8.64,39.556681,-106.946647,0.97
3700825,SUNDELL DITCH NO 2,18.62,39.484272999999995,-106.824398,0.48000000000000004
3700826,SUNDELL DITCH NO 3,18.92,39.482634999999995,-106.823651,2.17
3700828,SUTTON DITCH,3.04,39.633107,-106.80215,5.03
3700829,TAYLOR DITCH,0.9,39.5776,-106.69556599999999,3.56
3700830,TERRELL AND FORD DITCH,37.26,39.635467999999996,-106.53564899999999,23.75
3700833,TOURVILLE NO 1 DITCH,3.72,39.586420000000004,-106.585195,3.2
3700834,TOURVILLE NO 2 DITCH,3.49,39.587374,-106.588559,9.01
3700835,TOWNSEND DITCH,1.4,39.61233,-106.52063500000001,19.514
3700836,TRAER NO 1 DITCH,0.24,39.62543,-106.470972,0.556
3700837,TRAER NO 2 DITCH,0.24,39.62543,-106.470972,0.485
3700839,TRAVIS DITCH,1.43,39.672618,-106.67616699999999,3.5199999999999996
3700841,ULIN AND CO DITCH,1.57,39.632378,-106.95418500000001,6.39
3700843,UPPER FROST DITCH,9.07,39.574723,-106.76473200000001,12.25
3700844,VAN HORN NO 1 DITCH,13.96,39.504375,-106.89131499999999,1.45
3700845,VAN HORN NO 2 DITCH,14.09,39.505101,-106.890371,0.97
3700848,WARREN DITCH,21.44,39.688499,-106.74843200000001,35.466
3700849,WARREN GULCH DITCH,0.81,39.668624,-106.759169,1.0
