stationNum,siteId,stationName,dataSource,division,waterDistrict,county,state,utmX,utmY,latitude,longitude,locationAccuracy,startDate,endDate,modified,lines,moreInformation,startDate_mod,endDate_mod
35,USC00051741,COLLBRAN,NOAA,5,72,MESA ,CO,244278.6,4347872.7,39.242509,-107.963066,User supplied,1893-01-01,12/31/99,10/11/13,165836,http://cdss.state.co.us/onlineTools/Pages/ClimateStation.aspx,1900-01-01,1999-12-31
36,USC00051745,COLLBRAN 3 ENE,NOAA,5,72,MESA ,CO,246871.8,4348621.6,39.25001,-107.933339,User supplied,1/10/68,1/31/70,3/29/13,3006,http://cdss.state.co.us/onlineTools/Pages/ClimateStation.aspx,1968-01-10,1970-01-31
37,USC00051772,COLORADO NATL MONUMENT,NOAA,5,72,MESA ,CO,177098.1,4334659,39.101306,-108.733812,User supplied,3/1/40,11/13/20,11/15/20,119242,http://cdss.state.co.us/onlineTools/Pages/ClimateStation.aspx,1940-03-01,2020-11-13
56,USC00052121,DE BEQUE,NOAA,5,70,MESA ,CO,222745.6,4358703.4,39.333332,-108.216676,User supplied,12/1/51,6/30/54,3/29/13,4553,http://cdss.state.co.us/onlineTools/Pages/ClimateStation.aspx,1951-12-01,1954-06-30
57,USC00050214,ALTENBERN,NOAA,5,70,GARFIELD ,CO,209278,4377635,39.499206,-108.380907,User supplied,7/1/47,11/12/20,11/15/20,100320,http://cdss.state.co.us/onlineTools/Pages/ClimateStation.aspx,1947-07-01,2020-11-12
66,USC00052281,DILLON 1 E,NOAA,5,36,SUMMIT ,CO,411146,4386771.3,39.626103,-106.035311,,1893-01-01,11/12/20,11/15/20,176413,http://cdss.state.co.us/onlineTools/Pages/ClimateStation.aspx,1893-01-01,2020-11-12
74,USW00023063,EAGLE COUNTY AP,NOAA,5,37,EAGLE ,CO,335555.6,4390667.3,39.650004,-106.916676,User supplied,7/1/04,8/31/17,5/14/18,161450,http://cdss.state.co.us/onlineTools/Pages/ClimateStation.aspx,2004-07-01,2017-08-31
115,USC00053113,FRASER,NOAA,5,51,GRAND ,CO,428814.9,4422540.2,39.950005,-105.833339,User supplied,6/20/08,6/18/74,3/29/13,95328,http://cdss.state.co.us/onlineTools/Pages/ClimateStation.aspx,2008-06-20,1974-06-18
116,USC00053116,FRASER,NOAA,5,51,GRAND ,CO,430185.2,4421695,39.942507,-105.817212,User supplied,5/1/89,11/12/20,11/15/20,47450,http://cdss.state.co.us/onlineTools/Pages/ClimateStation.aspx,1989-05-01,2020-11-12
118,USC00053146,FRUITA 1 W,NOAA,5,72,MESA ,CO,177797,4339433,39.144493,-108.72801,User supplied,1893-01-01,11/8/20,11/15/20,187810,http://cdss.state.co.us/onlineTools/Pages/ClimateStation.aspx,1893-01-01,2020-11-08
126,USC00053345,GLEN MAR,NOAA,5,51,GRAND ,CO,412942.9,4404203.7,39.783339,-106.016679,User supplied,7/1/47,5/31/51,3/29/13,2860,http://cdss.state.co.us/onlineTools/Pages/ClimateStation.aspx,1947-07-01,1951-05-31
127,USC00053359,GLENWOOD SPGS #2,NOAA,5,38,GARFIELD ,CO,300810.4,4376826,39.518006,-107.317215,User supplied,1893-09-01,8/31/20,11/15/20,188982,http://cdss.state.co.us/onlineTools/Pages/ClimateStation.aspx,1893-09-01,2020-08-31
128,USC00053423,GORE PASS RANCH,NOAA,5,50,GRAND ,CO,375077.5,4445437,40.150006,-106.466675,User supplied,6/1/57,12/31/63,3/29/13,9602,http://cdss.state.co.us/onlineTools/Pages/ClimateStation.aspx,1957-06-01,1963-12-31
133,USW00023066,GRAND JUNCTION WALKER FIELD,NOAA,5,72,MESA ,CO,194005.1,4337639.4,39.134203,-108.540012,User supplied,1/1/00,11/12/20,11/16/20,182437,http://cdss.state.co.us/onlineTools/Pages/ClimateStation.aspx,2000-01-01,2020-11-12
134,USC00053489,GRAND JUNCTION 6 ESE,NOAA,5,72,MESA ,CO,199987.2,4327179.8,39.042208,-108.466314,User supplied,3/26/62,11/13/20,11/15/20,108372,http://cdss.state.co.us/onlineTools/Pages/ClimateStation.aspx,1962-03-26,2020-11-13
135,USC00053496,GRAND LAKE 1 NW,NOAA,5,51,GRAND ,CO,429240.6,4457713.3,40.266903,-105.832205,User supplied,10/1/07,11/10/20,11/15/20,143259,http://cdss.state.co.us/onlineTools/Pages/ClimateStation.aspx,2007-10-01,2020-11-10
136,USC00053500,GRAND LAKE 6 SSW,NOAA,5,51,GRAND ,CO,426226.7,4448639.6,40.18491,-105.866607,User supplied,8/1/48,11/12/20,11/15/20,127990,http://cdss.state.co.us/onlineTools/Pages/ClimateStation.aspx,1948-08-01,2020-11-12
137,USC00053508,GRAND VALLEY,NOAA,5,39,GARFIELD ,CO,237552.1,4371156.4,39.450003,-108.050012,User supplied,10/1/04,5/31/81,8/8/13,111941,http://cdss.state.co.us/onlineTools/Pages/ClimateStation.aspx,2004-10-01,1981-05-31
147,USC00053592,GREEN MT DAM,NOAA,5,36,SUMMIT ,CO,385987.3,4415167.1,39.878906,-106.333314,User supplied,7/1/39,8/10/20,10/15/20,122427,http://cdss.state.co.us/onlineTools/Pages/ClimateStation.aspx,1939-07-01,2020-08-10
155,USC00050370,ASPEN,NOAA,5,38,PITKIN ,CO,341653.7,4338722.1,39.183335,-106.833337,User supplied,1899-08-01,11/30/79,8/8/13,141528,http://cdss.state.co.us/onlineTools/Pages/ClimateStation.aspx,1899-08-01,1979-11-30
156,USC00050372,ASPEN 1 SW,NOAA,5,38,PITKIN ,CO,341254.5,4338937.8,39.185208,-106.838017,User supplied,7/1/80,9/30/20,11/15/20,60142,http://cdss.state.co.us/onlineTools/Pages/ClimateStation.aspx,1980-07-01,2020-09-30
167,USC00050405,AVON,NOAA,5,37,EAGLE ,CO,369844.8,4388160.7,39.633339,-106.516679,User supplied,8/1/81,10/31/89,8/8/13,12052,http://cdss.state.co.us/onlineTools/Pages/ClimateStation.aspx,1981-08-01,1989-10-31
171,USC00054129,HOT SULPHUR SPRINGS,NOAA,5,51,GRAND ,CO,401906.8,4433940.2,40.050004,-106.150008,User supplied,12/1/41,6/30/81,8/8/13,57824,http://cdss.state.co.us/onlineTools/Pages/ClimateStation.aspx,1941-12-01,1981-06-30
178,USC00054270,INDEPENDENCE PASS,NOAA,5,38,PITKIN ,CO,360170.2,4327267.8,39.083338,-106.616683,User supplied,7/1/47,1/31/80,8/8/13,47608,http://cdss.state.co.us/onlineTools/Pages/ClimateStation.aspx,1947-07-01,1980-01-31
189,USC00054512,KEYSTONE 5 E,NOAA,5,36,SUMMIT ,CO,425080.5,4382708.5,39.590832,-105.872516,User supplied,11/1/94,10/31/97,8/8/13,2190,http://cdss.state.co.us/onlineTools/Pages/ClimateStation.aspx,1994-11-01,1997-10-31
199,USC00054664,KREMMLING,NOAA,5,50,GRAND ,CO,383324.2,4435046.8,40.057608,-106.368013,User supplied,1/1/08,10/6/20,11/15/20,166125,http://cdss.state.co.us/onlineTools/Pages/ClimateStation.aspx,2008-01-01,2020-10-06
230,USC00050514,BASALT,NOAA,5,38,EAGLE ,CO,324835.5,4359439.5,39.366681,-107.033335,User supplied,7/1/65,5/31/72,3/29/13,10049,http://cdss.state.co.us/onlineTools/Pages/ClimateStation.aspx,1965-07-01,1972-05-31
244,USC00055507,MEREDITH,NOAA,5,38,PITKIN ,CO,349906.8,4358385.8,39.361908,-106.742208,User supplied,8/1/63,8/2/07,2/10/15,78529,http://cdss.state.co.us/onlineTools/Pages/ClimateStation.aspx,1963-08-01,2007-08-02
245,USC00055513,MEREDITH 4NE,NOAA,5,38,EAGLE ,CO,354988.7,4358819,39.366676,-106.683337,User supplied,11/22/49,6/30/53,3/29/13,2632,http://cdss.state.co.us/onlineTools/Pages/ClimateStation.aspx,1949-11-22,1953-06-30
246,USC00055520,MESA LAKES RESORT,NOAA,5,72,MESA ,CO,233170.2,4326850.7,39.050008,-108.083344,User supplied,9/22/71,3/31/79,8/8/13,10988,http://cdss.state.co.us/onlineTools/Pages/ClimateStation.aspx,1971-09-22,1979-03-31
269,USC00056073,OIL SHALE MINE,NOAA,5,39,GARFIELD ,CO,247954.9,4381923.8,39.550008,-107.93334,User supplied,2/1/47,11/30/51,3/29/13,7038,http://cdss.state.co.us/onlineTools/Pages/ClimateStation.aspx,1947-02-01,1951-11-30
279,USC00056266,PALISADE,NOAA,5,72,MESA ,CO,210304.8,4334730,39.113606,-108.350509,User supplied,5/1/11,11/13/20,11/16/20,161245,http://cdss.state.co.us/onlineTools/Pages/ClimateStation.aspx,2011-05-01,2020-11-13
285,USC00056311,PARACHUTE,NOAA,5,39,GARFIELD ,CO,237552.1,4371156.4,39.450003,-108.050012,User supplied,6/1/81,5/31/92,8/8/13,16062,http://cdss.state.co.us/onlineTools/Pages/ClimateStation.aspx,1981-06-01,1992-05-31
289,USC00056342,PARSHALL 10 SSE,NOAA,5,51,GRAND ,CO,404564.5,4419105.3,39.916674,-106.116687,User supplied,6/1/51,6/30/73,3/29/13,16130,http://cdss.state.co.us/onlineTools/Pages/ClimateStation.aspx,1951-06-01,1973-06-30
317,USC00056917,REDCLIFF,NOAA,5,37,EAGLE ,CO,382521,4375006.2,39.516675,-106.36668,User supplied,1893-01-01,8/31/51,3/29/13,96296,http://cdss.state.co.us/onlineTools/Pages/ClimateStation.aspx,1893-01-01,1951-08-31
321,USC00056966,REDSTONE,NOAA,5,38,PITKIN ,CO,307102.1,4339497.2,39.183335,-107.233342,User supplied,8/2/63,8/31/64,3/29/13,1543,http://cdss.state.co.us/onlineTools/Pages/ClimateStation.aspx,1963-08-02,1964-08-31
322,USC00056970,REDSTONE 4 W,NOAA,5,38,PITKIN ,CO,301390,4341491.4,39.200002,-107.300011,User supplied,6/1/79,6/30/94,8/8/13,22019,http://cdss.state.co.us/onlineTools/Pages/ClimateStation.aspx,1979-06-01,1994-06-30
326,USC00057031,RIFLE,NOAA,5,39,GARFIELD ,CO,260659.9,4380933,39.544726,-107.785289,User supplied,9/9/10,1/6/09,1/28/15,143634,http://cdss.state.co.us/onlineTools/Pages/ClimateStation.aspx,2010-09-09,2009-01-06
352,USC00057618,SHOSHONE,NOAA,5,53,GARFIELD ,CO,308734.4,4382434.7,39.570309,-107.226715,User supplied,1/1/10,11/10/20,11/16/20,163198,http://cdss.state.co.us/onlineTools/Pages/ClimateStation.aspx,2010-01-01,2020-11-10
376,USC00050810,BOND,NOAA,5,53,EAGLE ,CO,356063.5,4416164.1,39.883335,-106.683334,User supplied,11/1/58,3/31/75,3/29/13,23844,http://cdss.state.co.us/onlineTools/Pages/ClimateStation.aspx,1958-11-01,1975-03-31
378,USC00058148,TABERNASH,NOAA,5,51,GRAND ,CO,427443.8,4428103.2,40.000005,-105.850008,User supplied,10/1/50,9/30/51,3/29/13,1456,http://cdss.state.co.us/onlineTools/Pages/ClimateStation.aspx,1950-10-01,1951-09-30
385,USC00050825,BONHAM RESERVOIR,NOAA,5,72,MESA ,CO,249328.3,4332152.6,39.10251,-107.898814,User supplied,7/1/63,8/31/20,10/15/20,84790,http://cdss.state.co.us/onlineTools/Pages/ClimateStation.aspx,1963-07-01,2020-08-31
404,USC00058575,VAIL,NOAA,5,37,EAGLE ,CO,383832.4,4388611,39.639406,-106.353816,User supplied,2/1/85,9/30/20,11/16/20,53376,http://cdss.state.co.us/onlineTools/Pages/ClimateStation.aspx,1985-02-01,2020-09-30
430,USC00050909,BRECKENRIDGE,NOAA,5,36,SUMMIT ,CO,410293,4371271,39.486375,-106.043155,User supplied,1893-01-01,9/30/20,11/15/20,189012,http://cdss.state.co.us/onlineTools/Pages/ClimateStation.aspx,1893-01-01,2020-09-30
431,USC00059096,WILLIAMS FORK DAM,NOAA,5,51,GRAND ,CO,397298.9,4432613.5,40.037511,-106.203809,User supplied,6/1/82,11/13/20,11/16/20,57558,http://cdss.state.co.us/onlineTools/Pages/ClimateStation.aspx,1982-06-01,2020-11-13
434,USC00059175,WINTER PARK,NOAA,5,51,GRAND ,CO,434846,4415804,39.889806,-105.76207,User supplied,3/1/42,11/13/20,11/16/20,112565,http://cdss.state.co.us/onlineTools/Pages/ClimateStation.aspx,1942-03-01,2020-11-13
1757,05K06S,ARROW,SCS,5,51,Grand,CO,435902,4418781,39.916706,-105.750012,User supplied,1/1/09,12/31/12,1/27/15,4380,http://cdss.state.co.us/onlineTools/Pages/ClimateStation.aspx,2009-01-01,2012-12-31
1758,05K03,BERTHOUD PASS,SCS,5,51,GRAND,CO,435775.6,4409526.7,39.833325,-105.750577,User supplied,1/31/36,4/27/20,5/16/20,61536,http://cdss.state.co.us/onlineTools/Pages/ClimateStation.aspx,1936-01-31,2020-04-27
1760,07K12S,BISON LAKE,SCS,5,53,Garfield,CO,298713,4404505,39.766706,-107.350015,User supplied,1/1/09,11/15/20,11/16/20,17567,http://cdss.state.co.us/onlineTools/Pages/ClimateStation.aspx,2009-01-01,2020-11-15
1761,06K21,BLUE RIVER,SCS,5,36,SUMMIT,CO,409519.9,4359842,39.383328,-106.050594,User supplied,2/1/57,3/1/20,3/16/20,46078,http://cdss.state.co.us/onlineTools/Pages/ClimateStation.aspx,1957-02-01,2020-03-01
1762,06K24S,COPPER MOUNTAIN,SCS,5,36,Summit,CO,399663,4371061,39.483309,-106.16671,User supplied,1/1/09,11/15/20,11/16/20,17564,http://cdss.state.co.us/onlineTools/Pages/ClimateStation.aspx,2009-01-01,2020-11-15
1763,06K08,FREMONT PASS,SCS,5,36,SUMMIT,CO,396601.9,4360003.1,39.383328,-106.200584,User supplied,2/1/39,4/29/13,6/16/17,54232,http://cdss.state.co.us/onlineTools/Pages/ClimateStation.aspx,1939-02-01,2013-04-29
1764,06K08S,FREMONT PASS,SCS,5,36,Summit,CO,396651,4360000,39.383307,-106.200015,User supplied,1/1/09,11/15/20,11/16/20,17567,http://cdss.state.co.us/onlineTools/Pages/ClimateStation.aspx,2009-01-01,2020-11-15
1765,06K20,GLEN MAR RANCH,SCS,5,51,GRAND,CO,410082.2,4407935.6,39.816662,-106.050596,User supplied,2/6/47,4/26/00,6/16/17,38876,http://cdss.state.co.us/onlineTools/Pages/ClimateStation.aspx,1947-02-06,2000-04-26
1766,06J11,GORE PASS,SCS,5,50,GRAND,CO,367799,4438156.3,40.083317,-106.550616,User supplied,1/27/51,2/26/20,3/16/20,50464,http://cdss.state.co.us/onlineTools/Pages/ClimateStation.aspx,1951-01-27,2020-02-26
1767,05J16,GRANBY,SCS,5,51,GRAND,CO,414777.4,4444884.3,40.14999,-106.000593,User supplied,1/28/49,2/28/20,3/16/20,51926,http://cdss.state.co.us/onlineTools/Pages/ClimateStation.aspx,1949-01-28,2020-02-28
1770,05K09S,GRIZZLY PEAK,SCS,5,36,Summit,CO,425642,4389271,39.650009,-105.866709,User supplied,1/1/09,11/15/20,11/16/20,17567,http://cdss.state.co.us/onlineTools/Pages/ClimateStation.aspx,2009-01-01,2020-11-15
1771,06K42,HAGERMAN TUNNEL,SCS,5,38,LAKE,CO,370516.9,4345591,39.249989,-106.500598,User supplied,2/25/81,4/26/19,8/15/19,27878,http://cdss.state.co.us/onlineTools/Pages/ClimateStation.aspx,1981-02-25,2019-04-26
1773,06K04,INDEPENDENCE PASS,SCS,5,38,PITKIN,CO,360085.8,4325417.9,39.066661,-106.617273,User supplied,1/31/36,4/29/20,5/16/20,61540,http://cdss.state.co.us/onlineTools/Pages/ClimateStation.aspx,1936-01-31,2020-04-29
1774,06K04S,INDEPENDENCE PASS,SCS,5,38,Pitkin,CO,360135,4325422,39.066705,-106.616708,User supplied,1/1/09,11/15/20,11/16/20,17566,http://cdss.state.co.us/onlineTools/Pages/ClimateStation.aspx,2009-01-01,2020-11-15
1776,05K21,JONES PASS,SCS,5,51,GRAND,CO,422865.4,4402245.5,39.766657,-105.900592,User supplied,2/1/57,4/29/20,5/16/20,46196,http://cdss.state.co.us/onlineTools/Pages/ClimateStation.aspx,1957-02-01,2020-04-29
1778,06K30S,KILN,SCS,5,38,Pitkin,CO,360630,4353168,39.316705,-106.616706,User supplied,1/1/09,11/15/20,11/16/20,17567,http://cdss.state.co.us/onlineTools/Pages/ClimateStation.aspx,2009-01-01,2020-11-15
1779,05J10,LAKE IRENE,SCS,5,51,GRAND,CO,430666.9,4474323.4,40.416651,-105.81724,User supplied,1/30/38,2/26/20,3/16/20,59954,http://cdss.state.co.us/onlineTools/Pages/ClimateStation.aspx,1938-01-30,2020-02-26
1780,05J10S,LAKE IRENE,SCS,5,51,Grand,CO,430712,4474329,40.416709,-105.81671,User supplied,1/1/09,11/15/20,11/16/20,17567,http://cdss.state.co.us/onlineTools/Pages/ClimateStation.aspx,2009-01-01,2020-11-15
1781,05K07,LAPLAND,SCS,5,51,GRAND,CO,424421.5,4415180.7,39.883328,-105.883908,User supplied,4/1/38,4/28/20,5/16/20,59956,http://cdss.state.co.us/onlineTools/Pages/ClimateStation.aspx,1938-04-01,2020-04-28
1784,06J06S,LYNX PASS,SCS,5,53,Routt,CO,357901,4438334,40.083308,-106.666705,User supplied,1/1/09,11/15/20,11/16/20,17566,http://cdss.state.co.us/onlineTools/Pages/ClimateStation.aspx,2009-01-01,2020-11-15
1785,06K28,MC KENZIE GULCH,SCS,5,37,EAGLE,CO,349481,4373725.2,39.499985,-106.750605,User supplied,2/1/61,2/28/20,3/16/20,43152,http://cdss.state.co.us/onlineTools/Pages/ClimateStation.aspx,1961-02-01,2020-02-28
1786,08K04,MESA LAKES,SCS,5,72,MESA,CO,233114.4,4326849.6,39.049982,-108.083989,User supplied,1/28/37,2/27/20,3/16/20,60690,http://cdss.state.co.us/onlineTools/Pages/ClimateStation.aspx,1937-01-28,2020-02-27
1787,08K04S,MESA LAKES,SCS,5,72,Mesa,CO,233173,4326851,39.050009,-108.083309,User supplied,1/1/09,11/15/20,11/16/20,17567,http://cdss.state.co.us/onlineTools/Pages/ClimateStation.aspx,2009-01-01,2020-11-15
1788,06K12,MIDDLE FORK CAMPGROUND,SCS,5,51,GRAND,CO,412893.3,4404202.6,39.783325,-106.017262,User supplied,1/30/36,4/30/20,5/16/20,61544,http://cdss.state.co.us/onlineTools/Pages/ClimateStation.aspx,1936-01-30,2020-04-30
1789,05J24,MILNER PASS,SCS,5,51,LARIMER,CO,429234.8,4472486.4,40.399983,-105.833913,User supplied,1/31/52,2/26/20,3/16/20,49726,http://cdss.state.co.us/onlineTools/Pages/ClimateStation.aspx,1952-01-31,2020-02-26
1790,06K06,NAST LAKE,SCS,5,38,PITKIN,CO,361985.9,4351287.9,39.299989,-106.600597,User supplied,2/5/36,2/28/20,3/16/20,61408,http://cdss.state.co.us/onlineTools/Pages/ClimateStation.aspx,1936-02-05,2020-02-28
1792,05J09,NORTH INLET GRAND LAKE,SCS,5,51,GRAND,CO,434779.8,4459485.3,40.283317,-105.767248,User supplied,1/29/38,2/25/20,3/16/20,59954,http://cdss.state.co.us/onlineTools/Pages/ClimateStation.aspx,1938-01-29,2020-02-25
1794,07K01S,NORTH LOST TRAIL,SCS,5,38,Gunnison,CO,313994,4326378,39.066703,-107.150005,User supplied,1/1/09,11/15/20,11/16/20,17566,http://cdss.state.co.us/onlineTools/Pages/ClimateStation.aspx,2009-01-01,2020-11-15
1797,05J04S,PHANTOM VALLEY,SCS,5,51,Grand,CO,427869,4472502,40.40001,-105.85001,User supplied,1/1/09,11/16/20,11/16/20,17569,http://cdss.state.co.us/onlineTools/Pages/ClimateStation.aspx,2009-01-01,2020-11-16
1798,05K18,RANCH CREEK,SCS,5,51,GRAND,CO,437293.7,4420613.8,39.933324,-105.733902,User supplied,2/1/57,4/27/20,5/16/20,46192,http://cdss.state.co.us/onlineTools/Pages/ClimateStation.aspx,1957-02-01,2020-04-27
1799,06K09,SHRINE PASS,SCS,5,37,SUMMIT,CO,395389.9,4376669.2,39.533319,-106.217266,User supplied,1/30/42,3/2/20,3/16/20,57042,http://cdss.state.co.us/onlineTools/Pages/ClimateStation.aspx,1942-01-30,2020-03-02
1800,05K16,SNAKE RIVER,SCS,5,36,SUMMIT,CO,422717.2,4387448.3,39.633326,-105.900585,User supplied,1/26/51,2/26/20,3/16/20,50466,http://cdss.state.co.us/onlineTools/Pages/ClimateStation.aspx,1951-01-26,2020-02-26
1801,05J12S,STILLWATER CREEK,SCS,5,51,Grand,CO,422017,4454055,40.233309,-105.916712,User supplied,1/1/09,11/15/20,11/16/20,17567,http://cdss.state.co.us/onlineTools/Pages/ClimateStation.aspx,2009-01-01,2020-11-15
1803,06K14S,SUMMIT RANCH,SCS,5,36,Summit,CO,399999,4396965,39.716705,-106.166713,User supplied,1/1/09,11/15/20,11/16/20,17567,http://cdss.state.co.us/onlineTools/Pages/ClimateStation.aspx,2009-01-01,2020-11-15
1806,06K39S,VAIL MOUNTAIN,SCS,5,37,Eagle,CO,381262,4386130,39.616705,-106.383313,User supplied,1/1/09,11/15/20,11/16/20,17566,http://cdss.state.co.us/onlineTools/Pages/ClimateStation.aspx,2009-01-01,2020-11-15
1807,05K19,VASQUEZ,SCS,5,51,GRAND,CO,430088.6,4411426.6,39.849994,-105.817236,User supplied,2/1/57,4/27/20,5/16/20,46192,http://cdss.state.co.us/onlineTools/Pages/ClimateStation.aspx,1957-02-01,2020-04-27
1808,06J05,WILLOW CREEK PASS,SCS,5,51,GRAND,CO,406535.5,4467183.4,40.349978,-106.100582,User supplied,1/31/38,2/27/20,3/16/20,59954,http://cdss.state.co.us/onlineTools/Pages/ClimateStation.aspx,1938-01-31,2020-02-27
1809,06J05S,WILLOW CREEK PASS,SCS,5,51,Grand,CO,406585,4467186,40.35001,-106.100005,User supplied,1/1/09,11/15/20,11/16/20,17566,http://cdss.state.co.us/onlineTools/Pages/ClimateStation.aspx,2009-01-01,2020-11-15
1872,07K09S,MC CLURE PASS,SCS,5,38,Gunnison,CO,302646,4334052,39.133308,-107.283309,User supplied,1/1/09,11/15/20,11/16/20,17566,http://cdss.state.co.us/onlineTools/Pages/ClimateStation.aspx,2009-01-01,2020-11-15
1879,07K11S,SCHOFIELD PASS,SCS,5,38,Gunnison,CO,322521,4320629,39.016705,-107.050007,User supplied,1/1/09,11/15/20,11/16/20,17550,http://cdss.state.co.us/onlineTools/Pages/ClimateStation.aspx,2009-01-01,2020-11-15
1883,06K06S,NAST LAKE,SCS,5,38,Pitkin,CO,362037,4351289,39.300006,-106.600005,User supplied,1/1/09,11/15/20,11/16/20,17566,http://cdss.state.co.us/onlineTools/Pages/ClimateStation.aspx,2009-01-01,2020-11-15
1890,FRT02,"CSU FRUITA EXPT STATION, 2 MI ENE FRUITA",CoAgMet,5,72,MESA,CO,180380.2,4343310,39.180307,-108.700011,,6/16/92,1/5/20,11/15/20,61142,http://cdss.state.co.us/onlineTools/Pages/ClimateStation.aspx,1992-06-16,2020-01-05
1891,GJC01,"GRAND JUNCTION, 3 MI NW GRAND JUNCTION",CoAgMet,5,72,MESA,CO,186232.6,4342505.9,39.175208,-108.632011,,10/1/93,5/10/09,5/22/17,34200,http://cdss.state.co.us/onlineTools/Pages/ClimateStation.aspx,1993-10-01,2009-05-10
2685,USC00051743,COLLBRAN 2 SW,NOAA,5,72,MESA ,CO,242820.7,4347264.9,39.236607,-107.979707,User supplied,2/1/00,11/12/20,11/15/20,31739,http://cdss.state.co.us/onlineTools/Pages/ClimateStation.aspx,2000-02-01,2020-11-12
2906,WFD01,"WOLFORD MTN RESERVOIR, 5 MI NNW KREMMLING",CoAgMet,5,50,GRAND,CO,379458.5,4444111.2,40.138703,-106.415018,,11/30/04,11/14/20,11/15/20,35726,http://cdss.state.co.us/onlineTools/Pages/ClimateStation.aspx,2004-11-30,2020-11-14
2928,ORM01,"ORCHARD MESA, ORCHARD MESA",CoAgMet,5,72,MESA,CO,200531.8,4327136.8,39.042008,-108.460009,,1/2/06,9/24/19,9/15/20,30836,http://cdss.state.co.us/onlineTools/Pages/ClimateStation.aspx,2006-01-02,2019-09-24
2937,06J08S,ARAPAHO RIDGE,NRCS,5,50,Grand,CO,382686.8,4467629.8,40.350991,-106.381425,,8/1/14,11/15/20,11/16/20,8893,http://cdss.state.co.us/onlineTools/Pages/ClimateStation.aspx,2014-08-01,2020-11-15
2939,07J03S,BEAR RIVER,NRCS,5,53,Routt,CO,329399,4435223,40.050005,-107.000012,,1/1/09,11/15/20,11/16/20,17567,http://cdss.state.co.us/onlineTools/Pages/ClimateStation.aspx,2009-01-01,2020-11-15
2941,06K45S,BEAVER CK VILLAGE,NRCS,5,37,Eagle,CO,369780,4384461,39.600002,-106.516708,,1/1/09,11/15/20,11/16/20,17567,http://cdss.state.co.us/onlineTools/Pages/ClimateStation.aspx,2009-01-01,2020-11-15
2944,06J18S,BUFFALO PARK,NRCS,5,50,Grand,CO,365275,4453011,40.216703,-106.583314,,1/1/09,11/15/20,11/16/20,17565,http://cdss.state.co.us/onlineTools/Pages/ClimateStation.aspx,2009-01-01,2020-11-15
2956,06K01S,HOOSIER PASS,NRCS,5,36,Summit,CO,408110,4358014,39.36671,-106.066713,,1/1/09,11/15/20,11/16/20,17567,http://cdss.state.co.us/onlineTools/Pages/ClimateStation.aspx,2009-01-01,2020-11-15
2957,06K10S,IVANHOE,NRCS,5,38,Pitkin,CO,366316,4349361,39.283311,-106.550015,,1/1/09,11/15/20,11/16/20,17566,http://cdss.state.co.us/onlineTools/Pages/ClimateStation.aspx,2009-01-01,2020-11-15
2960,05K21S,JONES PASS,NRCS,5,51,Grand,CO,422915,4402251,39.766706,-105.900009,,1/1/09,11/15/20,11/16/20,17567,http://cdss.state.co.us/onlineTools/Pages/ClimateStation.aspx,2009-01-01,2020-11-15
2966,06K44S,MCCOY PARK,NRCS,5,37,Eagle,CO,368355,4384486,39.60001,-106.533305,,1/1/09,11/15/20,11/16/20,17567,http://cdss.state.co.us/onlineTools/Pages/ClimateStation.aspx,2009-01-01,2020-11-15
2970,06K12S,MIDDLE FORK CAMP,NRCS,5,51,Grand,CO,412940,4404200,39.783303,-106.016713,,1/1/09,11/16/20,11/16/20,17569,http://cdss.state.co.us/onlineTools/Pages/ClimateStation.aspx,2009-01-01,2020-11-16
3488,06K46S,CHAPMAN TUNNEL,NRCS,5,38,PITKIN,CO,360500,4345765.3,39.250003,-106.61668,,8/1/14,11/15/20,11/16/20,8892,http://cdss.state.co.us/onlineTools/Pages/ClimateStation.aspx,2014-08-01,2020-11-15
3513,06K29S,ELLIOT RIDGE,NRCS,5,36,SUMMIT,CO,378807.5,4412068.8,39.850006,-106.416669,,8/1/14,11/15/20,11/16/20,8892,http://cdss.state.co.us/onlineTools/Pages/ClimateStation.aspx,2014-08-01,2020-11-15
3521,USC00057033,RIFLE 3ENE,NOAA,5,39,GARFIELD ,CO,265788,4382162.5,39.557202,-107.72611,,1/1/09,11/12/20,11/16/20,18150,http://cdss.state.co.us/onlineTools/Pages/ClimateStation.aspx,2009-01-01,2020-11-12
3762,05K30S,FOOL CREEK,NRCS,5,51,GRAND,CO,425877.2,4413317.9,39.866673,-105.866682,,8/1/14,11/15/20,11/16/20,8893,http://cdss.state.co.us/onlineTools/Pages/ClimateStation.aspx,2014-08-01,2020-11-15
3958,USC00053147,FRUITA 2 W,NOAA,5,72,MESA ,CO,173752.9,4342348.9,39.169207,-108.77611,,6/1/12,10/31/14,8/14/19,3589,http://cdss.state.co.us/onlineTools/Pages/ClimateStation.aspx,2012-06-01,2014-10-31
3959,USC00053486,GRAND JUNCTION WEATHER FORECAST OFFICE,NOAA,5,72,MESA ,CO,195265.8,4335989.2,39.119804,-108.524709,,11/1/11,11/12/20,11/15/20,14575,http://cdss.state.co.us/onlineTools/Pages/ClimateStation.aspx,2011-11-01,2020-11-12
3994,USW00003076,GRAND JUNCTION 9 W,NOAA,5,72,MESA ,CO,176970.6,4334719.8,39.101808,-108.735306,,6/17/09,8/30/17,5/14/18,6614,http://cdss.state.co.us/onlineTools/Pages/ClimateStation.aspx,2009-06-17,2017-08-30
3998,USW00093073,ASPEN PITKIN CO AIRPORT SARDY FIELD,NOAA,5,38,PITKIN ,CO,338544.8,4343967.6,39.23001,-106.870569,,5/21/98,11/12/20,11/16/20,24633,http://cdss.state.co.us/onlineTools/Pages/ClimateStation.aspx,1998-05-21,2020-11-12
4000,USW00003098,EAGLE 13 SSE,NOAA,5,37,EAGLE ,CO,350896.8,4371779.2,39.482705,-106.733708,,7/19/10,8/30/17,5/14/18,5423,http://cdss.state.co.us/onlineTools/Pages/ClimateStation.aspx,2010-07-19,2017-08-30
4001,USW00003016,RIFLE GARFIELD CO AIRPORT,NOAA,5,45,GARFIELD ,CO,266237.4,4378880.1,39.527785,-107.719736,,6/1/97,11/12/20,11/16/20,25391,http://cdss.state.co.us/onlineTools/Pages/ClimateStation.aspx,1997-06-01,2020-11-12
4593,US1COME0021,GRAND JUNCTION 2.8 SSE,CoCoRaHS,5,72,MESA ,CO,192670.3,4326317.2,39.031904,-108.550314,,4/5/04,10/2/07,8/8/13,2550,http://cdss.state.co.us/onlineTools/Pages/ClimateStation.aspx,2004-04-05,2007-10-02
4595,US1COME0059,GRAND JUNCTION 3.8 SSE,CoCoRaHS,5,72,MESA ,CO,195107.2,4326767.1,39.036805,-108.522413,,8/10/06,7/2/16,1/14/18,6286,http://cdss.state.co.us/onlineTools/Pages/ClimateStation.aspx,2006-08-10,2016-07-02
4596,US1COME0064,GRAND JUNCTION 5.5 SW,CoCoRaHS,5,72,MESA ,CO,185377.8,4327428.4,39.039303,-108.634909,,10/1/07,11/5/20,11/15/20,10947,http://cdss.state.co.us/onlineTools/Pages/ClimateStation.aspx,2007-10-01,2020-11-05
4601,US1COME0013,GRAND JUNCTION 2.7 SSE,CoCoRaHS,5,72,MESA ,CO,193920.9,4328369.8,39.050808,-108.53681,,7/7/03,9/2/16,8/14/19,10365,http://cdss.state.co.us/onlineTools/Pages/ClimateStation.aspx,2003-07-07,2016-09-02
4602,US1COME0014,GRAND JUNCTION 4.3 WSW,CoCoRaHS,5,72,MESA ,CO,185090.7,4328918.8,39.052608,-108.638907,,7/18/03,10/2/06,8/8/13,2344,http://cdss.state.co.us/onlineTools/Pages/ClimateStation.aspx,2003-07-18,2006-10-02
4604,US1COME0077,GRAND JUNCTION 4.2 ESE,CoCoRaHS,5,72,MESA ,CO,198884.8,4329634.5,39.063902,-108.480109,,3/11/11,4/13/12,1/28/15,798,http://cdss.state.co.us/onlineTools/Pages/ClimateStation.aspx,2011-03-11,2012-04-13
4607,US1COME0049,GRAND JUNCTION 1.0 ESE,CoCoRaHS,5,72,MESA ,CO,193377.4,4330436.8,39.069208,-108.544016,,11/16/04,10/26/20,11/15/20,13015,http://cdss.state.co.us/onlineTools/Pages/ClimateStation.aspx,2004-11-16,2020-10-26
4609,US1COME0025,GRAND JUNCTION .1 E,CoCoRaHS,5,72,MESA ,CO,192037.4,4330745,39.071506,-108.559615,,7/1/03,9/15/11,1/28/15,5850,http://cdss.state.co.us/onlineTools/Pages/ClimateStation.aspx,2003-07-01,2011-09-15
4610,US1COME0047,GRAND JUNCTION 2.4 W,CoCoRaHS,5,72,MESA ,CO,187972.6,4330972.1,39.072105,-108.606607,,11/23/04,12/9/13,1/28/15,6606,http://cdss.state.co.us/onlineTools/Pages/ClimateStation.aspx,2004-11-23,2013-12-09
4611,US1COME0075,GRAND JUNCTION 1.1 SSW,CoCoRaHS,5,72,MESA ,CO,192239.9,4330826,39.072306,-108.557309,,2/1/11,10/20/16,8/14/19,4984,http://cdss.state.co.us/onlineTools/Pages/ClimateStation.aspx,2011-02-01,2016-10-20
4612,US1COME0008,CLIFTON 1.4 SSE,CoCoRaHS,5,72,MESA ,CO,202088.2,4330457.4,39.072403,-108.443513,,2/15/03,5/10/08,8/8/13,3822,http://cdss.state.co.us/onlineTools/Pages/ClimateStation.aspx,2003-02-15,2008-05-10
4613,US1COME0028,GRAND JUNCTION .61 E,CoCoRaHS,5,72,MESA ,CO,192755.7,4330939.2,39.073504,-108.551407,,2/17/04,10/22/04,8/8/13,495,http://cdss.state.co.us/onlineTools/Pages/ClimateStation.aspx,2004-02-17,2004-10-22
4614,US1COME0078,GRAND JUNCTION 1.0 SSW,CoCoRaHS,5,72,MESA ,CO,192031.8,4331045.4,39.074203,-108.559808,,7/19/11,10/4/16,8/14/19,4533,http://cdss.state.co.us/onlineTools/Pages/ClimateStation.aspx,2011-07-19,2016-10-04
4615,US1COME0057,GRAND JUNCTION 1.2 SE,CoCoRaHS,5,72,MESA ,CO,193983.2,4331080.3,39.075203,-108.537313,,6/13/06,7/30/13,1/28/15,5181,http://cdss.state.co.us/onlineTools/Pages/ClimateStation.aspx,2006-06-13,2013-07-30
4616,US1COGN0050,MARBLE 0.5 NNW,CoCoRaHS,5,38,GUNNISON ,CO,310513.9,4327838.6,39.07911,-107.19061,,1/1/10,10/7/20,10/15/20,9217,http://cdss.state.co.us/onlineTools/Pages/ClimateStation.aspx,2010-01-01,2020-10-07
4617,US1COGN0002,MARBLE .9 N,CoCoRaHS,5,38,GUNNISON ,CO,310663.9,4327957.1,39.080205,-107.18891,,9/30/03,11/19/15,8/13/19,9308,http://cdss.state.co.us/onlineTools/Pages/ClimateStation.aspx,2003-09-30,2015-11-19
4621,US1COME0045,GRAND JUNCTION 4.4 ENE,CoCoRaHS,5,72,MESA ,CO,198900,4332291.1,39.087805,-108.481111,,5/19/04,12/15/08,8/8/13,3342,http://cdss.state.co.us/onlineTools/Pages/ClimateStation.aspx,2004-05-19,2008-12-15
4623,US1COME0061,MESA 5.7 SSE,CoCoRaHS,5,72,MESA ,CO,231513.3,4331285.9,39.089407,-108.104214,,6/30/07,2/17/15,8/14/19,5776,http://cdss.state.co.us/onlineTools/Pages/ClimateStation.aspx,2007-06-30,2015-02-17
4624,US1COME0067,GRAND JUNCTION 1.0 E,CoCoRaHS,5,72,MESA ,CO,194235.8,4332671.5,39.089611,-108.535109,,10/7/07,11/6/20,11/15/20,10938,http://cdss.state.co.us/onlineTools/Pages/ClimateStation.aspx,2007-10-07,2020-11-06
4626,US1COME0068,GRAND JUNCTION 3.3 E,CoCoRaHS,5,72,MESA ,CO,197942,4332839.3,39.092403,-108.492411,,5/13/08,11/4/08,8/8/13,350,http://cdss.state.co.us/onlineTools/Pages/ClimateStation.aspx,2008-05-13,2008-11-04
4627,US1COME0012,GRAND JUNCTION 4 ENE,CoCoRaHS,5,72,MESA ,CO,198004.3,4332881.4,39.092802,-108.491714,,7/26/03,11/12/06,8/8/13,2410,http://cdss.state.co.us/onlineTools/Pages/ClimateStation.aspx,2003-07-26,2006-11-12
4628,US1COME0015,GRAND JUNCTION 4.5 WNW,CoCoRaHS,5,72,MESA ,CO,185072.8,4333445.2,39.093304,-108.641208,,7/9/03,6/14/07,8/8/13,2872,http://cdss.state.co.us/onlineTools/Pages/ClimateStation.aspx,2003-07-09,2007-06-14
4632,US1COME0011,GRAND JUNCTION 7.7 WNW,CoCoRaHS,5,72,MESA ,CO,180072,4334704,39.102807,-108.699511,,7/9/03,7/13/05,8/8/13,1470,http://cdss.state.co.us/onlineTools/Pages/ClimateStation.aspx,2003-07-09,2005-07-13
4635,US1COME0052,GRAND JUNCTION 3.4 N,CoCoRaHS,5,72,MESA ,CO,192334.3,4336326.1,39.121805,-108.558714,,6/4/05,6/6/20,6/15/20,10990,http://cdss.state.co.us/onlineTools/Pages/ClimateStation.aspx,2005-06-04,2020-06-06
4643,US1COME0042,COLLBRAN 6.4 S,CoCoRaHS,5,72,MESA ,CO,246368,4337525.8,39.150008,-107.93501,,4/23/04,2/22/07,8/8/13,2070,http://cdss.state.co.us/onlineTools/Pages/ClimateStation.aspx,2004-04-23,2007-02-22
4648,US1COME0018,FRUITA .3 NW,CoCoRaHS,5,72,MESA ,CO,177486.6,4341360.1,39.161706,-108.732506,,8/1/03,12/27/10,1/28/15,5409,http://cdss.state.co.us/onlineTools/Pages/ClimateStation.aspx,2003-08-01,2010-12-27
4652,US1COME0003,GRAND JUNCTION 8 NNW,CoCoRaHS,5,72,MESA ,CO,187394.3,4342759.6,39.17791,-108.618714,,3/8/03,11/4/20,11/15/20,14282,http://cdss.state.co.us/onlineTools/Pages/ClimateStation.aspx,2003-03-08,2020-11-04
4653,US1COME0010,FRUITA 4.1 ENE,CoCoRaHS,5,72,MESA ,CO,184098.8,4343025.4,39.179103,-108.656908,,7/10/03,6/20/08,8/8/13,3614,http://cdss.state.co.us/onlineTools/Pages/ClimateStation.aspx,2003-07-10,2008-06-20
4655,US1COPT0005,ASPEN 1.7 WSW,CoCoRaHS,5,38,PITKIN ,CO,339809.8,4338856.2,39.184204,-106.854708,,4/11/05,12/28/15,8/14/19,8327,http://cdss.state.co.us/onlineTools/Pages/ClimateStation.aspx,2005-04-11,2015-12-28
4668,US1COME0007,FRUITA 4.5 NNE,CoCoRaHS,5,72,MESA ,CO,180026.1,4347983.9,39.222207,-108.706312,,9/8/03,5/16/20,6/15/20,13570,http://cdss.state.co.us/onlineTools/Pages/ClimateStation.aspx,2003-09-08,2020-05-16
4673,US1COME0044,LOMA 4.4 ENE,CoCoRaHS,5,72,MESA ,CO,195223,4336002,39.119906,-108.525211,,4/22/04,4/25/05,8/8/13,736,http://cdss.state.co.us/onlineTools/Pages/ClimateStation.aspx,2004-04-22,2005-04-25
4680,US1COME0053,COLLBRAN 0.2 ESE,CoCoRaHS,5,72,MESA ,CO,244748,4347535.1,39.239606,-107.95751,,5/26/05,11/6/20,11/15/20,12613,http://cdss.state.co.us/onlineTools/Pages/ClimateStation.aspx,2005-05-26,2020-11-06
4693,US1COPT0001,REDSTONE 5 N,CoCoRaHS,5,38,PITKIN ,CO,306615,4347302.3,39.253504,-107.241211,,11/1/03,3/31/04,8/8/13,302,http://cdss.state.co.us/onlineTools/Pages/ClimateStation.aspx,2003-11-01,2004-03-31
4699,USR0000CPNR,PINE RIDGE COLORADO,NOAA,5,72,MESA ,CO,206013.8,4351198.4,39.260302,-108.407209,,9/2/88,11/13/20,11/16/20,23520,http://cdss.state.co.us/onlineTools/Pages/ClimateStation.aspx,1988-09-02,2020-11-13
4705,US1COME0024,MACK 5 NW,CoCoRaHS,5,72,MESA ,CO,160740,4353336,39.263003,-108.931916,,7/25/03,11/6/20,11/15/20,13996,http://cdss.state.co.us/onlineTools/Pages/ClimateStation.aspx,2003-07-25,2020-11-06
4715,US1COPT0007,CARBONDALE 8.2 S,CoCoRaHS,5,38,PITKIN ,CO,308118.5,4350152.7,39.279508,-107.224616,,11/30/09,8/12/13,1/28/15,2700,http://cdss.state.co.us/onlineTools/Pages/ClimateStation.aspx,2009-11-30,2013-08-12
4724,US1COME0023,MACK 5 N,CoCoRaHS,5,72,MESA ,CO,166377,4356941.7,39.297609,-108.868511,,7/10/03,6/3/09,1/28/15,2425,http://cdss.state.co.us/onlineTools/Pages/ClimateStation.aspx,2003-07-10,2009-06-03
4734,US1COPT0004,SNOWMASS 7.0 W,CoCoRaHS,5,38,PITKIN ,CO,318067.9,4355233.8,39.327408,-107.110709,,4/2/05,10/12/20,10/15/20,12651,http://cdss.state.co.us/onlineTools/Pages/ClimateStation.aspx,2005-04-02,2020-10-12
4747,USR0000CCRO,THE CROWN COLORADO,NOAA,5,38,PITKIN ,CO,319650.4,4358017.7,39.352809,-107.093115,,5/28/91,11/13/20,11/16/20,21524,http://cdss.state.co.us/onlineTools/Pages/ClimateStation.aspx,1991-05-28,2020-11-13
4758,US1COEG0006,BASALT 5.8 E,CoCoRaHS,5,38,EAGLE ,CO,334207,4360636.6,39.37931,-106.92491,,10/4/03,11/5/20,11/15/20,13857,http://cdss.state.co.us/onlineTools/Pages/ClimateStation.aspx,2003-10-04,2020-11-05
4766,US1COSU0029,BRECKENRIDGE 6.2 S,CoCoRaHS,5,36,SUMMIT ,CO,409541.7,4360349.9,39.387907,-106.050407,,11/4/04,9/21/06,8/8/13,1372,http://cdss.state.co.us/onlineTools/Pages/ClimateStation.aspx,2004-11-04,2006-09-21
4773,US1COGF0047,CARBONDALE 0.5 W,CoCoRaHS,5,38,GARFIELD ,CO,308605.4,4363279.3,39.397803,-107.222716,,9/27/07,11/4/20,11/15/20,10946,http://cdss.state.co.us/onlineTools/Pages/ClimateStation.aspx,2007-09-27,2020-11-04
4774,US1COSU0012,BRECKENRIDGE 5.6 S,CoCoRaHS,5,36,SUMMIT ,CO,409933.8,4361477.5,39.398111,-106.046008,,1/1/03,6/13/05,8/8/13,1786,http://cdss.state.co.us/onlineTools/Pages/ClimateStation.aspx,2003-01-01,2005-06-13
4776,US1COGF0050,CARBONDALE 5.0 E,CoCoRaHS,5,38,GARFIELD ,CO,317390.1,4363467.7,39.401409,-107.120812,,12/30/09,12/22/14,8/13/19,3493,http://cdss.state.co.us/onlineTools/Pages/ClimateStation.aspx,2009-12-30,2014-12-22
4785,US1COGF0045,SILT 9.6 S,CoCoRaHS,5,45,GARFIELD ,CO,272220.6,4365760.8,39.411308,-107.645706,,1/7/07,10/26/20,11/15/20,9128,http://cdss.state.co.us/onlineTools/Pages/ClimateStation.aspx,2007-01-07,2020-10-26
4787,US1COGF0051,CARBONDALE 1.4 NNE,CoCoRaHS,5,38,GARFIELD ,CO,310393.2,4365212.4,39.415603,-107.202513,,7/10/10,11/21/10,1/28/15,264,http://cdss.state.co.us/onlineTools/Pages/ClimateStation.aspx,2010-07-10,2010-11-21
4795,US1COSU0019,BRECKENRIDGE 3.4 SSE,CoCoRaHS,5,36,SUMMIT ,CO,411092.9,4364938.4,39.429403,-106.03301,,10/4/03,1/26/10,1/28/15,4612,http://cdss.state.co.us/onlineTools/Pages/ClimateStation.aspx,2003-10-04,2010-01-26
4797,US1COGF0003,GLENWOOD SPRINGS 8 S,CoCoRaHS,5,38,GARFIELD ,CO,300218.2,4367533.4,39.434202,-107.321313,,9/12/03,12/3/05,8/8/13,1626,http://cdss.state.co.us/onlineTools/Pages/ClimateStation.aspx,2003-09-12,2005-12-03
4809,US1COGF0026,PARACHUTE 3.5 E,CoCoRaHS,5,45,GARFIELD ,CO,242996.3,4371385.1,39.453705,-107.986915,,8/23/04,10/13/12,1/28/15,5946,http://cdss.state.co.us/onlineTools/Pages/ClimateStation.aspx,2004-08-23,2012-10-13
4810,US1COGF0049,CARBONDALE 4.6 NNE,CoCoRaHS,5,38,GARFIELD ,CO,312109.2,4369901.8,39.458208,-107.183913,,6/24/09,11/4/20,11/15/20,9676,http://cdss.state.co.us/onlineTools/Pages/ClimateStation.aspx,2009-06-24,2020-11-04
4811,USR0000CDEM,DEMAREE COLORADO,NOAA,5,72,GARFIELD ,CO,166160.8,4375015.2,39.460004,-108.880008,,11/7/95,11/13/20,11/16/20,18276,http://cdss.state.co.us/onlineTools/Pages/ClimateStation.aspx,1995-11-07,2020-11-13
4820,US1COSU0040,BRECKENRIDGE 3.3 SE,CoCoRaHS,5,36,SUMMIT ,CO,413044.1,4369289.6,39.46881,-106.010911,,9/21/06,1/20/16,8/14/19,7336,http://cdss.state.co.us/onlineTools/Pages/ClimateStation.aspx,2006-09-21,2016-01-20
4828,US1COSU0011,BRECKENRIDGE 1.7 W,CoCoRaHS,5,36,SUMMIT ,CO,407244.1,4369889.6,39.47361,-106.078412,,2/1/03,4/25/04,8/8/13,898,http://cdss.state.co.us/onlineTools/Pages/ClimateStation.aspx,2003-02-01,2004-04-25
4830,US1COGF0033,GLENWOOD SPRINGS 5.3 SSE,CoCoRaHS,5,38,GARFIELD ,CO,302837.7,4372320.1,39.477905,-107.292307,,5/13/04,11/6/20,11/15/20,13422,http://cdss.state.co.us/onlineTools/Pages/ClimateStation.aspx,2004-05-13,2020-11-06
4834,US1COSU0037,BRECKENRIDGE 1.12 E,CoCoRaHS,5,36,SUMMIT ,CO,411840.4,4370868.2,39.482904,-106.025115,,1/18/06,12/3/06,8/8/13,638,http://cdss.state.co.us/onlineTools/Pages/ClimateStation.aspx,2006-01-18,2006-12-03
4842,US1COGF0017,SILT 7.2 ESE,CoCoRaHS,5,45,GARFIELD ,CO,271145.9,4374602.6,39.49061,-107.66121,,10/4/03,6/5/05,8/8/13,1220,http://cdss.state.co.us/onlineTools/Pages/ClimateStation.aspx,2003-10-04,2005-06-05
4851,US1COSU0001,BRECKENRIDGE 1.8 NNW,CoCoRaHS,5,36,SUMMIT ,CO,409045.6,4373120.5,39.502902,-106.057905,,12/10/02,4/5/04,8/8/13,964,http://cdss.state.co.us/onlineTools/Pages/ClimateStation.aspx,2002-12-10,2004-04-05
4852,US1COSU0045,BRECKENRIDGE 2.0 NW,CoCoRaHS,5,36,SUMMIT ,CO,408633.3,4373158.7,39.503209,-106.062714,,12/8/09,1/14/11,1/28/15,804,http://cdss.state.co.us/onlineTools/Pages/ClimateStation.aspx,2009-12-08,2011-01-14
4853,US1COSU0023,BRECKENRIDGE 1.9 NNW,CoCoRaHS,5,36,SUMMIT ,CO,408711.1,4373191.1,39.503506,-106.061811,,6/11/04,2/19/05,8/8/13,506,http://cdss.state.co.us/onlineTools/Pages/ClimateStation.aspx,2004-06-11,2005-02-19
4854,US1COGF0035,CATTLE CREEK 5.1 NE,CoCoRaHS,5,38,GARFIELD ,CO,311992.7,4375035.7,39.504409,-107.186708,,7/15/04,6/17/13,1/28/15,6500,http://cdss.state.co.us/onlineTools/Pages/ClimateStation.aspx,2004-07-15,2013-06-17
4862,USR0000CRIF,RIFLE COLORADO,NOAA,5,45,GARFIELD ,CO,263650.4,4377227.7,39.512209,-107.749215,,7/11/84,11/13/20,11/16/20,26548,http://cdss.state.co.us/onlineTools/Pages/ClimateStation.aspx,1984-07-11,2020-11-13
4870,US1COSU0039,BRECKENRIDGE 0.9 NNE,CoCoRaHS,5,36,SUMMIT ,CO,410503.4,4375001.6,39.52001,-106.041215,,9/21/06,1/2/19,8/14/19,10330,http://cdss.state.co.us/onlineTools/Pages/ClimateStation.aspx,2006-09-21,2019-01-02
4874,US1COGF0036,RIFLE 0.8 S,CoCoRaHS,5,45,GARFIELD ,CO,261028.5,4378441.6,39.52241,-107.780116,,10/15/04,11/29/05,8/8/13,820,http://cdss.state.co.us/onlineTools/Pages/ClimateStation.aspx,2004-10-15,2005-11-29
4876,US1COSU0031,BRECKENRIDGE 3.1 N,CoCoRaHS,5,36,SUMMIT ,CO,410619.9,4375411,39.523707,-106.039909,,2/13/05,2/18/10,1/28/15,3662,http://cdss.state.co.us/onlineTools/Pages/ClimateStation.aspx,2005-02-13,2010-02-18
4882,US1COGF0004,GLENWOOD SPRINGS 1.4 S,CoCoRaHS,5,38,GARFIELD ,CO,300400,4378258.3,39.530804,-107.322411,,9/19/03,12/6/15,8/13/19,9414,http://cdss.state.co.us/onlineTools/Pages/ClimateStation.aspx,2003-09-19,2015-12-06
4884,US1COGF0007,RIFLE 0.8 SW,CoCoRaHS,5,39,GARFIELD ,CO,260302.6,4379453,39.531307,-107.788906,,9/15/03,6/6/11,1/28/15,5642,http://cdss.state.co.us/onlineTools/Pages/ClimateStation.aspx,2003-09-15,2011-06-06
4885,US1COGF0019,SILT 1.2 SSW,CoCoRaHS,5,45,GARFIELD ,CO,270699.6,4379293.1,39.532705,-107.668006,,10/3/03,1/14/11,1/28/15,5320,http://cdss.state.co.us/onlineTools/Pages/ClimateStation.aspx,2003-10-03,2011-01-14
4894,US1COGF0001,GLENWOOD SPRINGS .64 S,CoCoRaHS,5,38,GARFIELD ,CO,300043.4,4379433.8,39.541308,-107.326915,,9/12/03,11/6/20,11/15/20,13910,http://cdss.state.co.us/onlineTools/Pages/ClimateStation.aspx,2003-09-12,2020-11-06
4896,US1COGF0018,GLENWOOD SPRINGS .47 SSE,CoCoRaHS,5,52,GARFIELD ,CO,300411.5,4379701.9,39.543807,-107.322705,,10/6/03,7/19/04,8/8/13,574,http://cdss.state.co.us/onlineTools/Pages/ClimateStation.aspx,2003-10-06,2004-07-19
4897,US1COGF0009,GLENWOOD SPRINGS .48 SSE,CoCoRaHS,5,52,GARFIELD ,CO,300506,4379699.5,39.543811,-107.321611,,9/17/03,10/4/05,8/8/13,1496,http://cdss.state.co.us/onlineTools/Pages/ClimateStation.aspx,2003-09-17,2005-10-04
4901,US1COGF0005,GLENWOOD SPRINGS .31 SSE,CoCoRaHS,5,52,GARFIELD ,CO,300444.4,4379978.8,39.546308,-107.322416,,9/14/03,11/29/04,8/8/13,884,http://cdss.state.co.us/onlineTools/Pages/ClimateStation.aspx,2003-09-14,2004-11-29
4904,US1COGF0006,RIFLE .96 NNW,CoCoRaHS,5,39,GARFIELD ,CO,260498.6,4381335.8,39.548308,-107.787306,,10/9/03,1/19/18,8/13/19,11699,http://cdss.state.co.us/onlineTools/Pages/ClimateStation.aspx,2003-10-09,2018-01-19
4907,US1COGF0002,RIFLE 0.9 NE,CoCoRaHS,5,39,GARFIELD ,CO,262163.7,4381495.5,39.550211,-107.768007,,9/12/03,11/13/18,8/13/19,12462,http://cdss.state.co.us/onlineTools/Pages/ClimateStation.aspx,2003-09-12,2018-11-13
4910,US1COGF0008,SILT .56 ENE,CoCoRaHS,5,39,GARFIELD ,CO,272650.4,4381268.7,39.551009,-107.646016,,9/29/03,2/23/04,8/8/13,294,http://cdss.state.co.us/onlineTools/Pages/ClimateStation.aspx,2003-09-29,2004-02-23
4913,US1COGF0028,RIFLE 3.2 ENE,CoCoRaHS,5,39,GARFIELD ,CO,265549.2,4381947.5,39.55521,-107.728814,,1/31/04,11/13/19,11/15/19,10600,http://cdss.state.co.us/onlineTools/Pages/ClimateStation.aspx,2004-01-31,2019-11-13
4918,USR0000CSOD,SODA CREEK COLORADO,NOAA,5,36,SUMMIT ,CO,415262.5,4379388,39.560007,-105.986416,,9/19/86,11/13/20,11/16/20,24948,http://cdss.state.co.us/onlineTools/Pages/ClimateStation.aspx,1986-09-19,2020-11-13
4919,US1COGF0013,GLENWOOD SPRINGS 1.4 WNW,CoCoRaHS,5,39,GARFIELD ,CO,298320.9,4381644.5,39.560802,-107.347609,,9/29/03,6/16/04,8/8/13,522,http://cdss.state.co.us/onlineTools/Pages/ClimateStation.aspx,2003-09-29,2004-06-16
4922,USR0000CSKU,STORM KING MOUNTAIN COLORADO,NOAA,5,45,GARFIELD ,CO,292105.5,4381998.1,39.562506,-107.420004,,3/22/95,11/13/20,11/16/20,18736,http://cdss.state.co.us/onlineTools/Pages/ClimateStation.aspx,1995-03-22,2020-11-13
4923,US1COGF0012,RIFLE 4.3 ENE,CoCoRaHS,5,39,GARFIELD ,CO,267225.2,4382763.5,39.563011,-107.709613,,9/29/03,5/1/06,8/8/13,1890,http://cdss.state.co.us/onlineTools/Pages/ClimateStation.aspx,2003-09-29,2006-05-01
4924,US1COGF0040,GLENWOOD SPRINGS 1.7 NW,CoCoRaHS,5,39,GARFIELD ,CO,298088,4382272.6,39.56641,-107.35051,,3/26/05,11/6/20,11/15/20,12788,http://cdss.state.co.us/onlineTools/Pages/ClimateStation.aspx,2005-03-26,2020-11-06
4925,US1COGF0014,NEW CASTLE 3.4 E,CoCoRaHS,5,45,GARFIELD ,CO,287521.7,4382589.4,39.566703,-107.473508,,3/7/04,12/2/13,1/28/15,7114,http://cdss.state.co.us/onlineTools/Pages/ClimateStation.aspx,2004-03-07,2013-12-02
4929,US1COGF0046,GLENWOOD SPRINGS 2.1 NW,CoCoRaHS,5,39,GARFIELD ,CO,297654.8,4382472.7,39.568109,-107.355608,,1/23/07,11/5/20,11/15/20,11448,http://cdss.state.co.us/onlineTools/Pages/ClimateStation.aspx,2007-01-23,2020-11-05
4935,US1COGF0052,NEW CASTLE 1.0 SW,CoCoRaHS,5,39,GARFIELD ,CO,281657.5,4383486.2,39.573305,-107.542004,,11/18/10,6/1/12,1/28/15,1122,http://cdss.state.co.us/onlineTools/Pages/ClimateStation.aspx,2010-11-18,2012-06-01
4940,US1COEG0022,MINTURN 0.9 SE,CoCoRaHS,5,37,EAGLE ,CO,378607,4381630.9,39.575807,-106.413411,,7/1/08,10/30/08,8/8/13,242,http://cdss.state.co.us/onlineTools/Pages/ClimateStation.aspx,2008-07-01,2008-10-30
4946,US1COSU0004,FRISCO 0.5 N,CoCoRaHS,5,36,SUMMIT ,CO,405885.7,4381971.8,39.582308,-106.095907,,12/13/98,11/5/20,11/15/20,17373,http://cdss.state.co.us/onlineTools/Pages/ClimateStation.aspx,1998-12-13,2020-11-05
4949,US1COSU0033,FRISCO .5 WNW,CoCoRaHS,5,36,SUMMIT ,CO,405391.3,4382277.6,39.58501,-106.101714,,5/15/05,10/16/06,8/8/13,1038,http://cdss.state.co.us/onlineTools/Pages/ClimateStation.aspx,2005-05-15,2006-10-16
4951,US1COGF0011,GLENWOOD SPRINGS 7.1 WNW,CoCoRaHS,5,39,GARFIELD ,CO,289615.3,4384642.7,39.585709,-107.449815,,9/15/03,6/19/07,8/8/13,2746,http://cdss.state.co.us/onlineTools/Pages/ClimateStation.aspx,2003-09-15,2007-06-19
4953,US1COGF0025,GLENWOOD SPRINGS 7.1 WNW,CoCoRaHS,5,39,GARFIELD ,CO,289673.5,4384885.5,39.587911,-107.449205,,12/9/03,12/3/09,1/28/15,4371,http://cdss.state.co.us/onlineTools/Pages/ClimateStation.aspx,2003-12-09,2009-12-03
4958,US1COSU0046,KEYSTONE 1.8 SW,CoCoRaHS,5,36,SUMMIT ,CO,414716.2,4382823.8,39.590908,-105.993212,,3/24/10,12/1/14,8/13/19,3546,http://cdss.state.co.us/onlineTools/Pages/ClimateStation.aspx,2010-03-24,2014-12-01
4959,US1COGF0032,RIFLE 4.0 NNE,CoCoRaHS,5,39,GARFIELD ,CO,262427.9,4386165.2,39.592305,-107.766609,,5/30/04,12/8/06,8/8/13,1844,http://cdss.state.co.us/onlineTools/Pages/ClimateStation.aspx,2004-05-30,2006-12-08
4960,US1COSU0025,DILLON 3.3 SE,CoCoRaHS,5,36,SUMMIT ,CO,413747.7,4383001.1,39.592406,-106.004507,,11/19/04,5/29/06,8/8/13,1112,http://cdss.state.co.us/onlineTools/Pages/ClimateStation.aspx,2004-11-19,2006-05-29
4963,US1COSU0016,DILLON 2.3 SE,CoCoRaHS,5,36,SUMMIT ,CO,413530.2,4383514.1,39.597005,-106.007112,,3/12/03,10/23/20,11/15/20,14240,http://cdss.state.co.us/onlineTools/Pages/ClimateStation.aspx,2003-03-12,2020-10-23
4967,US1COSU0013,KEYSTONE 0.1 W,CoCoRaHS,5,36,SUMMIT ,CO,415173.3,4383784.5,39.599602,-105.988014,,1/1/03,1/16/07,8/8/13,2952,http://cdss.state.co.us/onlineTools/Pages/ClimateStation.aspx,2003-01-01,2007-01-16
4972,US1COEG0017,EAGLE 4.9 SE,CoCoRaHS,5,37,EAGLE ,CO,348572.8,4385337.1,39.604406,-106.763808,,1/26/05,12/2/06,8/8/13,1350,http://cdss.state.co.us/onlineTools/Pages/ClimateStation.aspx,2005-01-26,2006-12-02
4978,US1COEG0001,GYPSUM 3.0 SE,CoCoRaHS,5,37,EAGLE ,CO,335948.1,4386239.3,39.610203,-106.911012,,4/16/03,6/10/15,8/13/19,9019,http://cdss.state.co.us/onlineTools/Pages/ClimateStation.aspx,2003-04-16,2015-06-10
4985,US1COEG0029,GYPSUM 1.9 SSW,CoCoRaHS,5,37,EAGLE ,CO,332074.5,4387033.4,39.616603,-106.956316,,7/12/11,11/6/20,11/15/20,8182,http://cdss.state.co.us/onlineTools/Pages/ClimateStation.aspx,2011-07-12,2020-11-06
4987,US1COEG0009,VAIL 4.1 WSW,CoCoRaHS,5,37,EAGLE ,CO,377298.7,4386336.5,39.618002,-106.429507,,11/11/03,4/19/06,8/8/13,1780,http://cdss.state.co.us/onlineTools/Pages/ClimateStation.aspx,2003-11-11,2006-04-19
4994,US1COSU0006,SILVERTHORNE 2.1 WSW,CoCoRaHS,5,36,SUMMIT ,CO,405435.6,4386595.1,39.623906,-106.101806,,12/10/02,11/6/20,11/15/20,14436,http://cdss.state.co.us/onlineTools/Pages/ClimateStation.aspx,2002-12-10,2020-11-06
5000,USR0000CDOW,DOWD JUNCTION COLORADO,NOAA,5,37,EAGLE ,CO,375409,4387354.9,39.626907,-106.451711,,7/2/85,11/13/20,11/16/20,25836,http://cdss.state.co.us/onlineTools/Pages/ClimateStation.aspx,1985-07-02,2020-11-13
5003,US1COSU0007,DILLON 0.6 WNW,CoCoRaHS,5,36,SUMMIT ,CO,409955.2,4386962.8,39.627709,-106.049212,,12/10/02,3/10/13,1/28/15,7485,http://cdss.state.co.us/onlineTools/Pages/ClimateStation.aspx,2002-12-10,2013-03-10
5006,US1COSU0020,DILLON .75 SE,CoCoRaHS,5,36,SUMMIT ,CO,410464.8,4387234.3,39.630203,-106.043307,,12/28/03,11/1/20,11/15/20,13389,http://cdss.state.co.us/onlineTools/Pages/ClimateStation.aspx,2003-12-28,2020-11-01
5011,US1COSU0009,SILVERTHORNE 1.8 SE,CoCoRaHS,5,36,SUMMIT ,CO,409202.8,4387948.4,39.636503,-106.058108,,1/29/03,5/9/04,8/8/13,932,http://cdss.state.co.us/onlineTools/Pages/ClimateStation.aspx,2003-01-29,2004-05-09
5013,US1COSU0049,SILVERTHORNE 1.4 SE,CoCoRaHS,5,36,SUMMIT ,CO,408887.2,4388107.5,39.637911,-106.061812,,10/31/10,1/27/13,1/28/15,1638,http://cdss.state.co.us/onlineTools/Pages/ClimateStation.aspx,2010-10-31,2013-01-27
5015,US1COSU0024,DILLON 0.7 NNE,CoCoRaHS,5,36,SUMMIT ,CO,410880.1,4388261.8,39.639508,-106.038611,,7/13/04,7/30/05,8/8/13,764,http://cdss.state.co.us/onlineTools/Pages/ClimateStation.aspx,2004-07-13,2005-07-30
5023,US1COSU0002,SILVERTHORNE 3.2 WNW,CoCoRaHS,5,36,SUMMIT ,CO,407999.4,4388506.6,39.64141,-106.072215,,1/15/03,4/29/05,8/8/13,1670,http://cdss.state.co.us/onlineTools/Pages/ClimateStation.aspx,2003-01-15,2005-04-29
5024,US1COEG0025,EAGLE 1.0 SSE,CoCoRaHS,5,37,EAGLE ,CO,343865.4,4389550.5,39.641502,-106.819614,,10/31/08,12/4/13,1/28/15,3720,http://cdss.state.co.us/onlineTools/Pages/ClimateStation.aspx,2008-10-31,2013-12-04
5026,US1COEG0030,GYPSUM 0.5 E,CoCoRaHS,5,37,EAGLE ,CO,333668.4,4390052.6,39.64411,-106.938515,,11/7/11,5/17/16,8/13/19,3905,http://cdss.state.co.us/onlineTools/Pages/ClimateStation.aspx,2011-11-07,2016-05-17
5028,US1COEG0021,VAIL 0.9 WNW,CoCoRaHS,5,37,EAGLE ,CO,380280.9,4389287.1,39.645006,-106.395309,,7/5/08,11/6/20,11/15/20,10388,http://cdss.state.co.us/onlineTools/Pages/ClimateStation.aspx,2008-07-05,2020-11-06
5035,US1COEG0019,VAIL 2.6 E,CoCoRaHS,5,37,EAGLE ,CO,386249.3,4389529.7,39.648009,-106.325813,,5/1/05,11/6/20,11/15/20,12714,http://cdss.state.co.us/onlineTools/Pages/ClimateStation.aspx,2005-05-01,2020-11-06
5036,US1COEG0003,EDWARDS 1.3 WNW,CoCoRaHS,5,37,EAGLE ,CO,361019.2,4390176.8,39.650108,-106.619913,,9/13/03,10/31/20,11/15/20,13893,http://cdss.state.co.us/onlineTools/Pages/ClimateStation.aspx,2003-09-13,2020-10-31
5037,US1COSU0034,SILVERTHORNE 0.5 W,CoCoRaHS,5,36,SUMMIT ,CO,406449.9,4389535.4,39.650503,-106.09041,,8/3/05,1/23/08,8/8/13,1806,http://cdss.state.co.us/onlineTools/Pages/ClimateStation.aspx,2005-08-03,2008-01-23
5046,US1COEG0018,EAGLE 0.4 ENE,CoCoRaHS,5,37,EAGLE ,CO,343961.2,4391314.1,39.657406,-106.818913,,1/30/05,10/31/10,1/28/15,4199,http://cdss.state.co.us/onlineTools/Pages/ClimateStation.aspx,2005-01-30,2010-10-31
5052,US1COSU0044,SILVERTHORNE 1.2 NW,CoCoRaHS,5,36,SUMMIT ,CO,405693.1,4390798.9,39.661807,-106.099412,,12/11/09,3/20/12,1/28/15,1660,http://cdss.state.co.us/onlineTools/Pages/ClimateStation.aspx,2009-12-11,2012-03-20
5054,US1COSU0005,SILVERTHORNE 2.1 NNW,CoCoRaHS,5,36,SUMMIT ,CO,407446.7,4391077.4,39.664503,-106.079007,,1/7/03,11/4/09,1/28/15,4986,http://cdss.state.co.us/onlineTools/Pages/ClimateStation.aspx,2003-01-07,2009-11-04
5098,USR0000CHMT,HORSE MOUNTAIN COLORADO,NOAA,5,39,GARFIELD ,CO,262314.2,4397235.6,39.69191,-107.771913,,5/28/91,6/3/97,8/8/13,4396,http://cdss.state.co.us/onlineTools/Pages/ClimateStation.aspx,1991-05-28,1997-06-03
5101,USR0000CGYP,GYPSUM COLORADO,NOAA,5,52,EAGLE ,CO,330824.3,4395800.3,39.695303,-106.973114,,5/28/91,11/13/20,11/16/20,21524,http://cdss.state.co.us/onlineTools/Pages/ClimateStation.aspx,1991-05-28,2020-11-13
5131,US1COSU0008,SILVERTHORNE 7.4 NW,CoCoRaHS,5,36,SUMMIT ,CO,402552.4,4397520.6,39.72201,-106.137015,,1/1/03,10/27/20,11/15/20,14297,http://cdss.state.co.us/onlineTools/Pages/ClimateStation.aspx,2003-01-01,2020-10-27
5146,US1COEG0008,WOLCOTT 2.3 N,CoCoRaHS,5,37,EAGLE ,CO,355983.9,4399496,39.733206,-106.68061,,9/27/03,11/6/20,11/15/20,13878,http://cdss.state.co.us/onlineTools/Pages/ClimateStation.aspx,2003-09-27,2020-11-06
5153,US1COSU0027,SILVERTHORNE 7.3 NW,CoCoRaHS,5,36,SUMMIT ,CO,400502.1,4399389.6,39.73861,-106.161212,,9/22/04,11/2/20,11/15/20,13087,http://cdss.state.co.us/onlineTools/Pages/ClimateStation.aspx,2004-09-22,2020-11-02
5169,US1COSU0010,SILVERTHORNE 7.6 NNW,CoCoRaHS,5,36,SUMMIT ,CO,404780.2,4401588.8,39.758908,-106.111613,,12/18/02,12/29/08,8/8/13,4406,http://cdss.state.co.us/onlineTools/Pages/ClimateStation.aspx,2002-12-18,2008-12-29
5243,US1COSU0018,HEENEY 1.6 SE,CoCoRaHS,5,36,SUMMIT ,CO,388305,4414566.7,39.873809,-106.30611,,7/18/03,2/16/05,8/8/13,1158,http://cdss.state.co.us/onlineTools/Pages/ClimateStation.aspx,2003-07-18,2005-02-16
5259,US1COSU0035,SILVERTHORNE 21 NW,CoCoRaHS,5,36,SUMMIT ,CO,388445.4,4417739.7,39.902409,-106.305016,,8/11/05,11/6/20,11/15/20,12504,http://cdss.state.co.us/onlineTools/Pages/ClimateStation.aspx,2005-08-11,2020-11-06
5260,US1COGR0051,FRASER 5.2 WSW,CoCoRaHS,5,51,GRAND ,CO,424436.7,4417553.9,39.904707,-105.884007,,11/19/09,2/5/15,8/13/19,3894,http://cdss.state.co.us/onlineTools/Pages/ClimateStation.aspx,2009-11-19,2015-02-05
5285,US1COGR0002,FRASER 1.6 WSW,CoCoRaHS,5,51,GRAND ,CO,427602.2,4421419.4,39.939803,-105.847413,,1/24/03,8/8/04,8/8/13,1124,http://cdss.state.co.us/onlineTools/Pages/ClimateStation.aspx,2003-01-24,2004-08-08
5289,US1COGR0004,FRASER 1.6 E,CoCoRaHS,5,51,GRAND ,CO,432662.5,4421650.5,39.942302,-105.788216,,1/31/03,11/14/07,8/8/13,3496,http://cdss.state.co.us/onlineTools/Pages/ClimateStation.aspx,2003-01-31,2007-11-14
5294,US1COGR0033,FRASER 0.5 ENE,CoCoRaHS,5,51,GRAND ,CO,430942.5,4422298.6,39.94801,-105.808416,,1/1/05,3/6/06,8/8/13,858,http://cdss.state.co.us/onlineTools/Pages/ClimateStation.aspx,2005-01-01,2006-03-06
5295,US1COGR0018,FRASER 1.4 E,CoCoRaHS,5,51,GRAND ,CO,432557,4422284.1,39.948005,-105.789511,,5/16/04,9/15/07,8/8/13,2434,http://cdss.state.co.us/onlineTools/Pages/ClimateStation.aspx,2004-05-16,2007-09-15
5299,US1COGR0023,FRASER .87 NE,CoCoRaHS,5,51,GRAND ,CO,431230,4422917.6,39.95361,-105.805111,,4/16/04,3/21/06,8/8/13,1408,http://cdss.state.co.us/onlineTools/Pages/ClimateStation.aspx,2004-04-16,2006-03-21
5303,US1COGR0035,FRASER 1.8 NNE,CoCoRaHS,5,51,GRAND ,CO,431399.5,4424658.8,39.969309,-105.803304,,12/22/04,10/24/12,1/28/15,5726,http://cdss.state.co.us/onlineTools/Pages/ClimateStation.aspx,2004-12-22,2012-10-24
5319,US1COGR0030,TABERNASH 3.2 W,CoCoRaHS,5,51,GRAND ,CO,422920.2,4426515.9,39.985307,-105.902812,,9/21/04,12/14/05,8/8/13,876,http://cdss.state.co.us/onlineTools/Pages/ClimateStation.aspx,2004-09-21,2005-12-14
5335,US1COGR0028,TABERNASH .68 E,CoCoRaHS,5,51,GRAND ,CO,429120.1,4427521.3,39.994904,-105.830312,,6/1/04,12/14/04,8/8/13,392,http://cdss.state.co.us/onlineTools/Pages/ClimateStation.aspx,2004-06-01,2004-12-14
5343,US1COGR0053,TABERNASH 1.9 NW,CoCoRaHS,5,51,GRAND ,CO,425524.8,4428288.2,40.001504,-105.872508,,1/1/10,10/28/20,11/15/20,9274,http://cdss.state.co.us/onlineTools/Pages/ClimateStation.aspx,2010-01-01,2020-10-28
5344,US1COGR0009,TABERNASH 1.2 NW,CoCoRaHS,5,51,GRAND ,CO,426526.7,4428611.5,40.004511,-105.860807,,11/3/03,12/7/05,8/8/13,1530,http://cdss.state.co.us/onlineTools/Pages/ClimateStation.aspx,2003-11-03,2005-12-07
5346,US1COGR0016,TABERNASH 1.9 W,CoCoRaHS,5,51,GRAND ,CO,426518.3,4428622.7,40.004609,-105.860914,,4/19/04,10/31/14,8/13/19,7783,http://cdss.state.co.us/onlineTools/Pages/ClimateStation.aspx,2004-04-19,2014-10-31
5352,US1COGR0005,TABERNASH 2.5 ENE,CoCoRaHS,5,51,GRAND ,CO,431820.6,4428762,40.006306,-105.798805,,2/15/03,11/6/20,11/15/20,14302,http://cdss.state.co.us/onlineTools/Pages/ClimateStation.aspx,2003-02-15,2020-11-06
5356,US1COGR0049,TABERNASH 5.9 WNW,CoCoRaHS,5,51,GRAND ,CO,418631.2,4429480,40.011606,-105.953412,,12/5/09,5/17/10,1/28/15,326,http://cdss.state.co.us/onlineTools/Pages/ClimateStation.aspx,2009-12-05,2010-05-17
5392,US1COGR0021,KREMMLING .27 WSW,CoCoRaHS,5,50,GRAND ,CO,381148,4435002.8,40.056908,-106.393511,,5/17/04,8/2/07,8/8/13,2344,http://cdss.state.co.us/onlineTools/Pages/ClimateStation.aspx,2004-05-17,2007-08-02
5397,US1COGR0045,KREMMLING 1.1 WNW,CoCoRaHS,5,50,GRAND ,CO,380923.3,4435361.6,40.06011,-106.396214,,8/3/07,12/26/18,8/13/19,9695,http://cdss.state.co.us/onlineTools/Pages/ClimateStation.aspx,2007-08-03,2018-12-26
5423,US1COGR0024,GRANBY .33 WNW,CoCoRaHS,5,51,GRAND ,CO,419412.4,4437941.5,40.087911,-105.945315,,4/21/04,5/25/14,1/16/16,7372,http://cdss.state.co.us/onlineTools/Pages/ClimateStation.aspx,2004-04-21,2014-05-25
5424,US1COGR0025,GRANBY .5 NW,CoCoRaHS,5,51,GRAND ,CO,419253,4438187.4,40.090103,-105.947211,,4/18/04,5/7/12,1/28/15,5881,http://cdss.state.co.us/onlineTools/Pages/ClimateStation.aspx,2004-04-18,2012-05-07
5426,US1COGR0052,PARSHALL 3.0 NNW,CoCoRaHS,5,51,GRAND ,CO,397703.3,4438558.5,40.091102,-106.200014,,11/19/09,11/5/20,11/15/20,9386,http://cdss.state.co.us/onlineTools/Pages/ClimateStation.aspx,2009-11-19,2020-11-05
5427,US1COGR0032,GRANBY 0.4 NNE,CoCoRaHS,5,51,GRAND ,CO,420074.6,4438478.4,40.092803,-105.937605,,8/29/04,11/30/05,8/8/13,916,http://cdss.state.co.us/onlineTools/Pages/ClimateStation.aspx,2004-08-29,2005-11-30
5430,USR0000CPOR,PORCUPINE CREEK COLORADO,NOAA,5,53,ROUTT ,CO,359661.2,4439911.1,40.097806,-106.646412,,6/12/85,11/13/20,11/16/20,25876,http://cdss.state.co.us/onlineTools/Pages/ClimateStation.aspx,1985-06-12,2020-11-13
5438,US1COGR0029,KREMMLING 7.8 WNW,CoCoRaHS,5,50,GRAND ,CO,370718.5,4441790.7,40.116509,-106.517117,,6/11/04,10/26/20,11/15/20,13271,http://cdss.state.co.us/onlineTools/Pages/ClimateStation.aspx,2004-06-11,2020-10-26
5444,US1COGR0050,GRANBY 3.6 NE,CoCoRaHS,5,51,GRAND ,CO,424152.1,4442121.9,40.126007,-105.890212,,11/21/09,2/8/11,1/28/15,888,http://cdss.state.co.us/onlineTools/Pages/ClimateStation.aspx,2009-11-21,2011-02-08
5447,US1COGR0046,KREMMLING 10.0 NW,CoCoRaHS,5,50,GRAND ,CO,369493.7,4444421,40.140007,-106.532007,,10/11/09,10/26/20,11/15/20,9358,http://cdss.state.co.us/onlineTools/Pages/ClimateStation.aspx,2009-10-11,2020-10-26
5454,US1COGR0031,KREMMLING 12.5 NW,CoCoRaHS,5,50,GRAND ,CO,365210.6,4446994.3,40.162504,-106.582805,,9/20/04,11/28/05,8/8/13,868,http://cdss.state.co.us/onlineTools/Pages/ClimateStation.aspx,2004-09-20,2005-11-28
5455,US1COGR0003,KREMMLING 10.9 NW,CoCoRaHS,5,50,GRAND ,CO,368506.3,4446936.3,40.162504,-106.544114,,1/14/03,12/23/17,8/13/19,12152,http://cdss.state.co.us/onlineTools/Pages/ClimateStation.aspx,2003-01-14,2017-12-23
5461,US1COGR0039,GRANBY 6.3 NNE,CoCoRaHS,5,51,GRAND ,CO,423674.8,4447177.5,40.171511,-105.896408,,1/20/05,4/26/17,8/13/19,9953,http://cdss.state.co.us/onlineTools/Pages/ClimateStation.aspx,2005-01-20,2017-04-26
5468,US1COGR0026,GRANBY 8.2 N,CoCoRaHS,5,51,GRAND ,CO,419175.6,4450887.5,40.204511,-105.949706,,5/5/04,11/6/04,8/8/13,370,http://cdss.state.co.us/onlineTools/Pages/ClimateStation.aspx,2004-05-05,2004-11-06
5469,US1COGR0020,GRAND LAKE 4.1 SW,CoCoRaHS,5,51,GRAND ,CO,425993,4450851,40.204807,-105.86961,,4/19/04,1/9/05,8/8/13,530,http://cdss.state.co.us/onlineTools/Pages/ClimateStation.aspx,2004-04-19,2005-01-09
5471,USR0000CGUN,GUNSIGHT COLORADO,NOAA,5,50,GRAND ,CO,386885.2,4451823.9,40.209207,-106.329213,,10/16/87,11/13/20,11/16/20,24164,http://cdss.state.co.us/onlineTools/Pages/ClimateStation.aspx,1987-10-16,2020-11-13
5474,US1COGR0041,GRAND LAKE 3.1 SW,CoCoRaHS,5,51,GRAND ,CO,426956.8,4451940.6,40.21471,-105.858408,,9/1/05,3/20/06,8/8/13,400,http://cdss.state.co.us/onlineTools/Pages/ClimateStation.aspx,2005-09-01,2006-03-20
5475,US1COGR0006,GRAND LAKE 2.9 SW,CoCoRaHS,5,51,GRAND ,CO,426799.9,4452441.6,40.21921,-105.86031,,2/22/03,4/16/06,8/8/13,2297,http://cdss.state.co.us/onlineTools/Pages/ClimateStation.aspx,2003-02-22,2006-04-16
5501,USR0000CSLP,HARBISON MEADOW COLORADO,NOAA,5,51,GRAND ,CO,429193.6,4458146.7,40.270809,-105.832806,,2/20/03,11/13/20,11/16/20,12952,http://cdss.state.co.us/onlineTools/Pages/ClimateStation.aspx,2003-02-20,2020-11-13
5810,350,NATIVE GRASSES                ,NCWCD,5,51,GRAND,CO,417671.1,4440149.1,40.107624,-105.966016,,9/12/98,11/14/20,11/15/20,41857,http://cdss.state.co.us/onlineTools/Pages/ClimateStation.aspx,1998-09-12,2020-11-14
5811,352,SHADOW MOUNTAIN               ,NCWCD,5,51,GRAND,CO,428386.3,4451112.1,40.207366,-105.841524,,9/16/11,11/14/20,11/15/20,15839,http://cdss.state.co.us/onlineTools/Pages/ClimateStation.aspx,2011-09-16,2020-11-14
5850,US1COEG0031,AVON 1.1 SE,CoCoRaHS,5,37,EAGLE ,CO,369756.8,4389202.4,39.642702,-106.517909,,12/27/11,11/30/19,12/15/19,7140,http://cdss.state.co.us/onlineTools/Pages/ClimateStation.aspx,2011-12-27,2019-11-30
5851,US1COEG0032,GYPSUM 1.5 SSW,CoCoRaHS,5,37,EAGLE ,CO,332353.8,4387638,39.622106,-106.953209,,1/5/12,4/9/15,4/14/15,2380,http://cdss.state.co.us/onlineTools/Pages/ClimateStation.aspx,2012-01-05,2015-04-09
5860,US1COGF0056,GLENWOOD SPRINGS 7.8 ESE,CoCoRaHS,5,38,GARFIELD ,CO,312091.5,4376976.8,39.521908,-107.186105,,10/30/12,10/31/14,8/13/19,1550,http://cdss.state.co.us/onlineTools/Pages/ClimateStation.aspx,2012-10-30,2014-10-31
5862,US1COGN0055,MARBLE 1.5 W,CoCoRaHS,5,38,GUNNISON ,CO,308211.6,4327139.2,39.072304,-107.217007,,5/13/08,5/20/13,1/28/15,3664,http://cdss.state.co.us/onlineTools/Pages/ClimateStation.aspx,2008-05-13,2013-05-20
5880,US1COME0097,GRAND JUNCTION 0.6 WSW,CoCoRaHS,5,72,MESA ,CO,191745.2,4332135.1,39.083905,-108.563614,,12/1/12,5/11/17,8/14/19,4224,http://cdss.state.co.us/onlineTools/Pages/ClimateStation.aspx,2012-12-01,2017-05-11
5881,US1COME0086,GRAND JUNCTION 1.5 NW,CoCoRaHS,5,72,MESA ,CO,190725.9,4333976.5,39.100102,-108.57621,,8/1/12,7/25/17,5/14/18,2278,http://cdss.state.co.us/onlineTools/Pages/ClimateStation.aspx,2012-08-01,2017-07-25
5882,US1COME0079,GRAND JUNCTION 3.9 WSW,CoCoRaHS,5,72,MESA ,CO,186515.2,4331374.8,39.075207,-108.623613,,12/4/11,11/6/20,11/15/20,7900,http://cdss.state.co.us/onlineTools/Pages/ClimateStation.aspx,2011-12-04,2020-11-06
5883,US1COME0069,GRAND JUNCTION 4.0 W,CoCoRaHS,5,72,MESA ,CO,186177,4332889.4,39.088702,-108.628211,,1/1/12,11/5/20,11/15/20,7840,http://cdss.state.co.us/onlineTools/Pages/ClimateStation.aspx,2012-01-01,2020-11-05
5884,US1COME0081,GRAND JUNCTION 4.2 W,CoCoRaHS,5,72,MESA ,CO,185919.7,4332521.7,39.085309,-108.631008,,3/19/12,6/4/14,1/16/16,1612,http://cdss.state.co.us/onlineTools/Pages/ClimateStation.aspx,2012-03-19,2014-06-04
5891,US1COPT0010,WOODY CREEK 1.3 SE,CoCoRaHS,5,38,PITKIN ,CO,339387.5,4348158.4,39.267902,-106.861805,,8/1/12,4/23/13,1/27/15,530,http://cdss.state.co.us/onlineTools/Pages/ClimateStation.aspx,2012-08-01,2013-04-23
5907,US1COSU0052,KEYSTONE 0.7 SW,CoCoRaHS,5,36,SUMMIT ,CO,416093.8,4383940.9,39.601107,-105.977308,,5/19/12,6/17/16,8/14/19,3666,http://cdss.state.co.us/onlineTools/Pages/ClimateStation.aspx,2012-05-19,2016-06-17
6391,US1COPT0006,GHCND:US1COPT0006,CoCoRaHS,5,38,PITKIN ,CO,342726.8,4339962.9,39.194707,-106.821208,,10/11/11,4/17/15,8/14/19,2576,http://cdss.state.co.us/onlineTools/Pages/ClimateStation.aspx,2011-10-11,2015-04-17
6412,US1COGF0054,GHCND:US1COGF0054,CoCoRaHS,5,39,GARFIELD ,CO,299359.8,4381261.9,39.557607,-107.335409,,9/8/12,8/6/13,1/27/15,664,http://cdss.state.co.us/onlineTools/Pages/ClimateStation.aspx,2012-09-08,2013-08-06
6413,US1COGF0061,GHCND:US1COGF0061,CoCoRaHS,5,39,GARFIELD ,CO,296754.5,4382240.9,39.565807,-107.366017,,12/15/12,5/26/14,1/16/16,1040,http://cdss.state.co.us/onlineTools/Pages/ClimateStation.aspx,2012-12-15,2014-05-26
6414,US1COGF0060,GHCND:US1COGF0060,CoCoRaHS,5,38,GARFIELD ,CO,300865.5,4375624.9,39.507207,-107.316205,,1/1/13,11/6/20,11/15/20,7110,http://cdss.state.co.us/onlineTools/Pages/ClimateStation.aspx,2013-01-01,2020-11-06
6415,US1COME0099,GHCND:US1COME0099,CoCoRaHS,5,72,MESA ,CO,187912.2,4331196.8,39.074107,-108.607414,,12/9/12,4/26/13,1/27/15,276,http://cdss.state.co.us/onlineTools/Pages/ClimateStation.aspx,2012-12-09,2013-04-26
6416,US1COME0088,GHCND:US1COME0088,CoCoRaHS,5,72,MESA ,CO,187635.5,4329250.8,39.056507,-108.609705,,11/11/12,10/23/18,8/14/19,5703,http://cdss.state.co.us/onlineTools/Pages/ClimateStation.aspx,2012-11-11,2018-10-23
6417,US1COME0096,GHCND:US1COME0096,CoCoRaHS,5,72,MESA ,CO,185312.3,4329043.3,39.053803,-108.636415,,12/7/12,1/2/14,1/16/16,782,http://cdss.state.co.us/onlineTools/Pages/ClimateStation.aspx,2012-12-07,2014-01-02
6418,US1COME0091,GHCND:US1COME0091,CoCoRaHS,5,72,MESA ,CO,200375.9,4329644.2,39.064504,-108.46291,,12/6/12,9/9/20,9/15/20,6873,http://cdss.state.co.us/onlineTools/Pages/ClimateStation.aspx,2012-12-06,2020-09-09
6419,US1COME0101,GHCND:US1COME0101,CoCoRaHS,5,72,MESA ,CO,182644.2,4334677.3,39.103503,-108.669814,,1/16/13,12/26/15,8/14/19,2660,http://cdss.state.co.us/onlineTools/Pages/ClimateStation.aspx,2013-01-16,2015-12-26
6477,US1COEG0034,GHCND:US1COEG0034,CoCoRaHS,5,37,EAGLE ,CO,349307,4378072,39.539105,-106.753613,,4/6/13,11/13/14,8/13/19,1269,http://cdss.state.co.us/onlineTools/Pages/ClimateStation.aspx,2013-04-06,2014-11-13
6481,US1COME0100,GHCND:US1COME0100,CoCoRaHS,5,72,MESA ,CO,195242,4327118,39.040009,-108.521013,,3/28/13,10/30/20,11/15/20,6921,http://cdss.state.co.us/onlineTools/Pages/ClimateStation.aspx,2013-03-28,2020-10-30
6482,US1COME0102,GHCND:US1COME0102,CoCoRaHS,5,72,MESA ,CO,193839,4326261,39.031811,-108.536809,,4/19/13,7/24/20,8/15/20,6530,http://cdss.state.co.us/onlineTools/Pages/ClimateStation.aspx,2013-04-19,2020-07-24
6483,US1COME0103,GHCND:US1COME0103,CoCoRaHS,5,72,MESA ,CO,186043,4332795,39.087808,-108.629714,,5/1/13,12/30/18,8/14/19,5506,http://cdss.state.co.us/onlineTools/Pages/ClimateStation.aspx,2013-05-01,2018-12-30
6484,US1COME0104,GHCND:US1COME0104,CoCoRaHS,5,72,MESA ,CO,184378,4328870,39.05191,-108.647108,,5/14/13,10/18/15,8/14/19,2217,http://cdss.state.co.us/onlineTools/Pages/ClimateStation.aspx,2013-05-14,2015-10-18
6509,US1COGR0060,GHCND:US1COGR0060,CoCoRaHS,5,51,GRAND ,CO,428139,4427586,39.995407,-105.84181,,1/21/13,3/2/14,1/16/16,810,http://cdss.state.co.us/onlineTools/Pages/ClimateStation.aspx,2013-01-21,2014-03-02
6553,US1COGF0053,GHCND:US1COGF0053,CoCoRaHS,5,45,GARFIELD ,CO,299377,4380262,39.548608,-107.334909,,9/13/12,12/19/13,1/27/15,924,http://cdss.state.co.us/onlineTools/Pages/ClimateStation.aspx,2012-09-13,2013-12-19
6554,US1COME0105,GHCND:US1COME0105,CoCoRaHS,5,72,MESA ,CO,183583,4333683,39.094905,-108.658514,,6/26/13,10/8/17,8/14/19,4294,http://cdss.state.co.us/onlineTools/Pages/ClimateStation.aspx,2013-06-26,2017-10-08
6671,US1COME0106,GHCND:US1COME0106,CoCoRaHS,5,72,MESA ,CO,214212,4336688,39.13251,-108.306217,,7/23/13,11/6/20,11/15/20,6703,http://cdss.state.co.us/onlineTools/Pages/ClimateStation.aspx,2013-07-23,2020-11-06
6692,US1COEG0037,GHCND:US1COEG0037,CoCoRaHS,5,38,EAGLE ,CO,318618,4363661,39.403406,-107.106612,,10/6/13,10/26/20,11/15/20,6530,http://cdss.state.co.us/onlineTools/Pages/ClimateStation.aspx,2013-10-06,2020-10-26
6706,US1COME0111,GHCND:US1COME0111,CoCoRaHS,5,72,MESA ,CO,179346,4342151,39.169505,-108.711408,,9/14/13,11/2/14,8/13/19,918,http://cdss.state.co.us/onlineTools/Pages/ClimateStation.aspx,2013-09-14,2014-11-02
6708,US1COME0108,GHCND:US1COME0108,CoCoRaHS,5,72,MESA ,CO,192265,4336118,39.11991,-108.559416,,8/14/13,5/4/15,8/14/19,1525,http://cdss.state.co.us/onlineTools/Pages/ClimateStation.aspx,2013-08-14,2015-05-04
6709,US1COME0109,GHCND:US1COME0109,CoCoRaHS,5,72,MESA ,CO,200163,4332232,39.087709,-108.466508,,8/24/13,9/22/17,8/14/19,4125,http://cdss.state.co.us/onlineTools/Pages/ClimateStation.aspx,2013-08-24,2017-09-22
6713,US1COSU0058,GHCND:US1COSU0058,CoCoRaHS,5,36,SUMMIT ,CO,388153,4414680,39.874807,-106.307907,,8/23/13,11/6/20,11/15/20,6635,http://cdss.state.co.us/onlineTools/Pages/ClimateStation.aspx,2013-08-23,2020-11-06
6732,US1COSU0062,GHCND:US1COSU0062,CoCoRaHS,5,36,SUMMIT ,CO,407157,4389838,39.65331,-106.082213,,9/8/13,11/5/20,11/15/20,6594,http://cdss.state.co.us/onlineTools/Pages/ClimateStation.aspx,2013-09-08,2020-11-05
6791,06K47,COLUMBINE DITCH,NRCS,5,37,EAGLE,CO,392340,4359692,39.380005,-106.25001,,2/3/04,4/25/19,8/15/19,11120,http://cdss.state.co.us/onlineTools/Pages/ClimateStation.aspx,2004-02-03,2019-04-25
6795,06J17,CORRAL CREEK,NRCS,5,51,GRAND,CO,402050,4445040,40.150008,-106.150015,,1/27/95,2/25/20,3/16/20,18320,http://cdss.state.co.us/onlineTools/Pages/ClimateStation.aspx,1995-01-27,2020-02-25
6802,06K48,EWING UPPER,NRCS,5,37,EAGLE,CO,389740,4358618,39.370002,-106.280014,,1/27/06,4/25/19,8/15/19,9672,http://cdss.state.co.us/onlineTools/Pages/ClimateStation.aspx,2006-01-27,2019-04-25
6806,05J45S,Sawtooth,NRCS,5,51,GRAND,CO,436017,4432466,40.040004,-105.750014,,9/25/14,11/15/20,11/16/20,8750,http://cdss.state.co.us/onlineTools/Pages/ClimateStation.aspx,2014-09-25,2020-11-15
6813,06K49,LOSTMAN,NRCS,5,38,PITKIN,CO,359955,4331343,39.12001,-106.620008,,4/25/06,3/31/20,4/16/20,10178,http://cdss.state.co.us/onlineTools/Pages/ClimateStation.aspx,2006-04-25,2020-03-31
6838,06K51,WURTZ LOWER,NRCS,5,37,EAGLE,CO,382882,4360939,39.390007,-106.360014,,1/29/04,4/28/19,8/15/19,11136,http://cdss.state.co.us/onlineTools/Pages/ClimateStation.aspx,2004-01-29,2019-04-28
6839,06K52,WURTZ MIDDLE,NRCS,5,37,EAGLE,CO,382055,4363172,39.41001,-106.370008,,1/29/04,4/28/19,8/15/19,11136,http://cdss.state.co.us/onlineTools/Pages/ClimateStation.aspx,2004-01-29,2019-04-28
6876,US1COME0113,GHCND:US1COME0113,CoCoRaHS,5,72,MESA ,CO,192802,4336764,39.12591,-108.553508,,11/8/13,7/12/17,8/14/19,3581,http://cdss.state.co.us/onlineTools/Pages/ClimateStation.aspx,2013-11-08,2017-07-12
6877,US1COME0112,GHCND:US1COME0112,CoCoRaHS,5,72,MESA ,CO,186930,4328734,39.051605,-108.617611,,10/14/13,11/5/20,11/15/20,6518,http://cdss.state.co.us/onlineTools/Pages/ClimateStation.aspx,2013-10-14,2020-11-05
6890,US1COSU0061,GHCND:US1COSU0061,CoCoRaHS,5,36,SUMMIT ,CO,404791,4385826,39.616907,-106.109209,,5/26/13,10/16/20,11/15/20,6720,http://cdss.state.co.us/onlineTools/Pages/ClimateStation.aspx,2013-05-26,2020-10-16
6945,US1COME0093,GRAND JUNCTION 4.9 W,CoCoRaHS,5,72,MESA,CO,184883,4331740,39.077902,-108.642611,,12/6/12,5/8/17,8/14/19,4042,http://cdss.state.co.us/onlineTools/Pages/ClimateStation.aspx,2012-12-06,2017-05-08
7228,US1COPT0013,ASPEN 5.9 W,NRCS,5,49,PITKIN,CO,332804,4339369,39.1875,-106.9359,,6/1/14,9/14/14,8/13/19,252,http://cdss.state.co.us/onlineTools/Pages/ClimateStation.aspx,2014-06-01,2014-09-14
7233,US1COSU0066,SILVERTHORNE 1.2 NE,NRCS,5,59,SUMMIT,CO,408688,4390841,39.6625,-106.0645,,5/20/14,5/20/19,8/14/19,4846,http://cdss.state.co.us/onlineTools/Pages/ClimateStation.aspx,2014-05-20,2019-05-20
7234,US1COSU0067,BRECKENRIDGE 1.9 SSE,NRCS,5,59,SUMMIT,CO,411203,4370765,39.4819,-106.0325,,6/19/14,10/30/20,11/15/20,5985,http://cdss.state.co.us/onlineTools/Pages/ClimateStation.aspx,2014-06-19,2020-10-30
7317,US1COGF0067,GLENWOOD SPRINGS 7.0 NW,NRCS,5,23,GARFIELD,CO,292327,4388313,39.6194,-107.4194,,1/4/14,10/12/20,10/15/20,5692,http://cdss.state.co.us/onlineTools/Pages/ClimateStation.aspx,2014-01-04,2020-10-12
7323,US1COME0098,GRAND JUNCTION 2.4 SE,NRCS,5,39,MESA,CO,195310,4329539,39.0618,-108.5213,,10/10/14,12/23/14,8/13/19,216,http://cdss.state.co.us/onlineTools/Pages/ClimateStation.aspx,2014-10-10,2014-12-23
7324,US1COME0117,LOMA 0.9 E,NRCS,5,39,MESA,CO,171606,4346053,39.2017,-108.8027,,8/24/14,11/6/20,11/15/20,5885,http://cdss.state.co.us/onlineTools/Pages/ClimateStation.aspx,2014-08-24,2020-11-06
7358,US1COGF0069,CARBONDALE 0.3 WNW,NRCS,5,23,GARFIELD,CO,308891,4363328,39.3983,-107.2194,,11/1/14,6/28/16,8/13/19,1815,http://cdss.state.co.us/onlineTools/Pages/ClimateStation.aspx,2014-11-01,2016-06-28
7364,CBL01,"CARBONDALE, CARBONDALE",CoAgMet,5,49,PITKIN,CO,309775,4359308,39.362301,-107.208,,5/8/15,11/14/20,11/15/20,12764,http://cdss.state.co.us/onlineTools/Pages/ClimateStation.aspx,2015-05-08,2020-11-14
7367,SLT01,"SILT, SILT MESA",CoAgMet,5,23,GARFIELD,CO,268664,4383131,39.5667,-107.693001,,5/8/15,11/14/20,11/15/20,12764,http://cdss.state.co.us/onlineTools/Pages/ClimateStation.aspx,2015-05-08,2020-11-14
7605,US1COGR0067,GRAND LAKE 1.5 WNW,NRCS,5,25,GRAND,CO,427985,4457081,40.2611,-105.8469,,4/18/15,8/10/16,8/13/19,1350,http://cdss.state.co.us/onlineTools/Pages/ClimateStation.aspx,2015-04-18,2016-08-10
7622,US1COME0124,PALISADE 1.4 SE,NRCS,5,39,MESA,CO,211228,4332506,39.0939,-108.3389,,1/22/15,8/23/17,8/14/19,2830,http://cdss.state.co.us/onlineTools/Pages/ClimateStation.aspx,2015-01-22,2017-08-23
7632,US1COPT0012,ASPEN 5.8 NW,NRCS,5,49,PITKIN,CO,335791,4346645,39.2536,-106.9031,,6/5/14,6/7/16,8/14/19,2140,http://cdss.state.co.us/onlineTools/Pages/ClimateStation.aspx,2014-06-05,2016-06-07
7760,US1COGF0071,SILT 2.9 NNW,NRCS,5,23,GARFIELD,CO,270368,4385503,39.5885,-107.674,,7/4/15,10/26/20,11/15/20,4438,http://cdss.state.co.us/onlineTools/Pages/ClimateStation.aspx,2015-07-04,2020-10-26
7761,US1COGF0072,GLENWOOD SPRINGS 7.0 S,NRCS,5,23,GARFIELD,CO,300650,4368589,39.4438,-107.3166,,2/20/15,3/4/19,8/13/19,4105,http://cdss.state.co.us/onlineTools/Pages/ClimateStation.aspx,2015-02-20,2019-03-04
7762,US1COGF0073,GLENWOOD SPRINGS 7.2 S,NRCS,5,23,GARFIELD,CO,300788,4368252,39.4408,-107.3149,,8/27/15,10/26/20,11/15/20,4716,http://cdss.state.co.us/onlineTools/Pages/ClimateStation.aspx,2015-08-27,2020-10-26
7764,US1COGR0068,TABERNASH 2.7 NW,NRCS,5,25,GRAND,CO,424362,4428921,40.0071,-105.8862,,7/4/15,11/6/20,11/15/20,4947,http://cdss.state.co.us/onlineTools/Pages/ClimateStation.aspx,2015-07-04,2020-11-06
7776,US1COME0118,GRAND JUNCTION 4.1 ENE,NRCS,5,39,MESA,CO,199143,4333872,39.1021,-108.479,,9/22/14,10/28/20,11/15/20,5623,http://cdss.state.co.us/onlineTools/Pages/ClimateStation.aspx,2014-09-22,2020-10-28
7777,US1COME0125,GRAND JUNCTION 2.3 E,NRCS,5,39,MESA,CO,196470,4332407,39.088,-108.5092,,7/22/15,11/6/20,11/15/20,4893,http://cdss.state.co.us/onlineTools/Pages/ClimateStation.aspx,2015-07-22,2020-11-06
7812,US1COGR0070,GRAND LAKE 4.8 SSW,NRCS,5,25,GRAND,CO,425979,4449408,40.1918,-105.8696,,10/19/15,4/7/16,8/13/19,509,http://cdss.state.co.us/onlineTools/Pages/ClimateStation.aspx,2015-10-19,2016-04-07
8109,US1COEG0044,GYPSUM 0.4 WNW,CoCoRaHS,5,37,,CO,332299,4390249,39.645607,-106.954511,,3/12/16,10/10/18,8/13/19,2326,http://cdss.state.co.us/onlineTools/Pages/ClimateStation.aspx,2016-03-12,2018-10-10
8110,US1COEG0045,EAGLE 5.8 SE,CoCoRaHS,5,37,,CO,349702,4384205,39.594409,-106.750407,,8/13/15,2/6/18,8/13/19,908,http://cdss.state.co.us/onlineTools/Pages/ClimateStation.aspx,2015-08-13,2018-02-06
8111,US1COEG0047,GYPSUM 2.5 ESE,CoCoRaHS,5,37,,CO,336721,4388655,39.632108,-106.902608,,5/29/16,11/4/20,11/15/20,3942,http://cdss.state.co.us/onlineTools/Pages/ClimateStation.aspx,2016-05-29,2020-11-04
8119,US1COGF0077,RIFLE 0.5 ENE,CoCoRaHS,5,39,,CO,262116,4380519,39.541405,-107.768216,,5/7/16,10/26/20,11/15/20,3981,http://cdss.state.co.us/onlineTools/Pages/ClimateStation.aspx,2016-05-07,2020-10-26
8120,US1COGF0078,NEW CASTLE 10.5 S,CoCoRaHS,5,45,,CO,283573,4368024,39.434603,-107.514705,,8/5/16,10/26/20,11/15/20,2910,http://cdss.state.co.us/onlineTools/Pages/ClimateStation.aspx,2016-08-05,2020-10-26
8121,US1COGF0079,RIFLE 0.5 WSW,CoCoRaHS,5,39,,CO,260419,4380149,39.537603,-107.787808,,5/27/16,12/18/18,8/13/19,1225,http://cdss.state.co.us/onlineTools/Pages/ClimateStation.aspx,2016-05-27,2018-12-18
8122,US1COGN0065,MARBLE 1.0 WNW,CoCoRaHS,5,38,,CO,309111,4327439,39.075203,-107.206706,,4/14/16,12/6/17,8/13/19,1797,http://cdss.state.co.us/onlineTools/Pages/ClimateStation.aspx,2016-04-14,2017-12-06
8123,US1COGR0073,GRANBY 7.7 N,CoCoRaHS,5,51,,CO,421204,4450333,40.199704,-105.925812,,10/5/16,10/19/20,11/15/20,3531,http://cdss.state.co.us/onlineTools/Pages/ClimateStation.aspx,2016-10-05,2020-10-19
8156,US1COME0127,GRAND JUNCTION 3.9 W,CoCoRaHS,5,72,,CO,186342,4332249,39.083005,-108.626012,,1/26/16,8/5/18,8/14/19,2550,http://cdss.state.co.us/onlineTools/Pages/ClimateStation.aspx,2016-01-26,2018-08-05
8157,US1COME0133,COLLBRAN 4.6 SSE,CoCoRaHS,5,72,,CO,247684,4340772,39.179602,-107.921009,,2/11/16,11/6/20,11/15/20,4281,http://cdss.state.co.us/onlineTools/Pages/ClimateStation.aspx,2016-02-11,2020-11-06
8158,US1COME0135,GLADE PARK 1.4 NW,CoCoRaHS,5,72,,CO,175663,4325299,39.016609,-108.745916,,4/22/16,9/24/20,10/15/20,3982,http://cdss.state.co.us/onlineTools/Pages/ClimateStation.aspx,2016-04-22,2020-09-24
8159,US1COME0136,DE BEQUE 7.1 SSE,CoCoRaHS,5,72,,CO,227807,4348240,39.240802,-108.153814,,5/7/16,11/6/20,11/15/20,3981,http://cdss.state.co.us/onlineTools/Pages/ClimateStation.aspx,2016-05-07,2020-11-06
8160,US1COME0137,GRAND JUNCTION 3.6 W,CoCoRaHS,5,72,,CO,186921,4331992,39.080902,-108.619213,,5/16/16,11/6/20,11/15/20,3996,http://cdss.state.co.us/onlineTools/Pages/ClimateStation.aspx,2016-05-16,2020-11-06
8161,US1COME0139,FRUITA 1.2 NW,CoCoRaHS,5,72,,CO,176863,4342409,39.170907,-108.740214,,6/17/16,5/1/19,8/14/19,2378,http://cdss.state.co.us/onlineTools/Pages/ClimateStation.aspx,2016-06-17,2019-05-01
8162,US1COME0140,FRUITA 1.1 NNW,CoCoRaHS,5,72,,CO,177067,4342323,39.170209,-108.737816,,8/10/16,11/5/20,11/15/20,3587,http://cdss.state.co.us/onlineTools/Pages/ClimateStation.aspx,2016-08-10,2020-11-05
8163,US1COME0142,FRUITA 0.8 N,CoCoRaHS,5,72,,CO,178087,4342069,39.168303,-108.725913,,10/5/16,3/9/19,8/14/19,2178,http://cdss.state.co.us/onlineTools/Pages/ClimateStation.aspx,2016-10-05,2019-03-09
8164,US1COME0143,GRAND JUNCTION 8.0 W,CoCoRaHS,5,72,,CO,180015,4334784,39.103505,-108.700206,,10/24/16,11/6/20,11/15/20,3510,http://cdss.state.co.us/onlineTools/Pages/ClimateStation.aspx,2016-10-24,2020-11-06
8165,US1COME0144,GRAND JUNCTION 0.6 E,CoCoRaHS,5,72,,CO,193625,4332562,39.088407,-108.542111,,11/27/16,4/4/19,8/14/19,1042,http://cdss.state.co.us/onlineTools/Pages/ClimateStation.aspx,2016-11-27,2019-04-04
8289,US1COGR0072,FRASER 2.3 NW,CoCoRaHS,5,51,,CO,429175,4423358,39.957405,-105.829214,,8/28/16,9/25/18,8/13/19,1801,http://cdss.state.co.us/onlineTools/Pages/ClimateStation.aspx,2016-08-28,2018-09-25
8300,US1COME0146,GRAND JUNCTION 0.9 W,CoCoRaHS,5,72,,CO,191281,4332676,39.088606,-108.569214,,5/13/17,10/26/20,11/15/20,2883,http://cdss.state.co.us/onlineTools/Pages/ClimateStation.aspx,2017-05-13,2020-10-26
8468,US1COME0148,GRAND JUNCTION 3.0 ESE,CoCoRaHS,5,72,,CO,197109,4330559,39.071607,-108.50101,,11/1/17,11/3/20,11/15/20,2376,http://cdss.state.co.us/onlineTools/Pages/ClimateStation.aspx,2017-11-01,2020-11-03
8607,US1COSU0069,SILVERTHORNE 1.0 NNE,CoCoRaHS,5,36,,CO,407774,4391151,39.665205,-106.075205,,12/4/17,10/30/20,11/15/20,2122,http://cdss.state.co.us/onlineTools/Pages/ClimateStation.aspx,2017-12-04,2020-10-30
8666,US1COGF0081,RIFLE 8.9 NE,CoCoRaHS,5,39,,CO,271719,4390173,39.630905,-107.659905,,4/7/18,10/13/20,10/15/20,1799,http://cdss.state.co.us/onlineTools/Pages/ClimateStation.aspx,2018-04-07,2020-10-13
8667,US1COGR0074,GRANBY 1.2 N,CoCoRaHS,5,51,,CO,419988,4439967,40.106208,-105.93881,,5/3/18,10/14/18,8/13/19,325,http://cdss.state.co.us/onlineTools/Pages/ClimateStation.aspx,2018-05-03,2018-10-14
8796,CBN01,COLLBRAN,COAGMET,5,72,,CO,241795.7,4343153,39.1993,-107.989996,User supplied,3/30/18,11/14/20,11/15/20,5760,http://cdss.state.co.us/onlineTools/Pages/ClimateStation.aspx,2018-03-30,2020-11-14
8798,GBY01,GRANBY,COAGMET,5,51,,CO,419629.1,4439803.4,40.104697,-105.943001,User supplied,4/23/18,11/14/20,11/15/20,5616,http://cdss.state.co.us/onlineTools/Pages/ClimateStation.aspx,2018-04-23,2020-11-14
8799,GYP01,GYPSUM,COAGMET,5,37,,CO,332916.6,4388991,39.6344,-106.946995,User supplied,10/11/17,11/14/20,11/15/20,6780,http://cdss.state.co.us/onlineTools/Pages/ClimateStation.aspx,2017-10-11,2020-11-14
8809,US1COME0153,"CLIFTON 1.2 E, CO US",NOAA,5,72,,CO,202258.8,4330817.1,39.075699,-108.441697,User supplied,7/22/18,10/26/20,11/15/20,1654,http://cdss.state.co.us/onlineTools/Pages/ClimateStation.aspx,2018-07-22,2020-10-26
8825,US1COGF0082,"GLENWOOD SPRINGS 5.9 SSE, CO US",NOAA,5,38,,CO,304079.8,4371366.1,39.469599,-107.277598,User supplied,5/14/17,11/5/20,11/15/20,2532,http://cdss.state.co.us/onlineTools/Pages/ClimateStation.aspx,2017-05-14,2020-11-05
8826,US1COME0131,"GRAND JUNCTION 0.9 NE, CO US",NOAA,5,72,,CO,193740.2,4333490.7,39.096803,-108.541202,User supplied,11/28/15,10/26/20,11/15/20,3588,http://cdss.state.co.us/onlineTools/Pages/ClimateStation.aspx,2015-11-28,2020-10-26
8827,US1COME0154,"GRAND JUNCTION 1.3 SSW, CO US",NOAA,5,72,,CO,192133.4,4330518.1,39.069499,-108.558405,User supplied,8/11/18,11/5/20,11/15/20,1634,http://cdss.state.co.us/onlineTools/Pages/ClimateStation.aspx,2018-08-11,2020-11-05
8828,US1COME0160,"GRAND JUNCTION 1.3 W, CO US",NOAA,5,72,,CO,190585.1,4332358,39.0855,-108.577101,User supplied,11/3/18,11/6/20,11/15/20,763,http://cdss.state.co.us/onlineTools/Pages/ClimateStation.aspx,2018-11-03,2020-11-06
8839,US1COME0155,"PALISADE 0.5 WSW, CO US",NOAA,5,72,,CO,208860.6,4333826.7,39.105002,-108.366796,User supplied,8/22/18,11/6/20,11/15/20,1612,http://cdss.state.co.us/onlineTools/Pages/ClimateStation.aspx,2018-08-22,2020-11-06
8991,US1COME0162,"REDLANDS 1.4 SSE, CO US",NOAA,5,72,,CO,184750.8,4330366.2,39.065498,-108.643498,User supplied,1/1/19,11/5/20,11/15/20,1348,http://cdss.state.co.us/onlineTools/Pages/ClimateStation.aspx,2019-01-01,2020-11-05
9225,US1COGF0083,"BATTLEMENT MESA 0.8 WSW, CO US",NOAA,5,45,,CO,238510.5,4369656.3,39.436797,-108.038306,User supplied,2/5/19,5/25/20,6/15/20,949,http://cdss.state.co.us/onlineTools/Pages/ClimateStation.aspx,2019-02-05,2020-05-25
9231,US1COEG0051,"CARBONDALE 5.9 ENE, CO US",NOAA,5,38,,CO,318175.4,4366791.3,39.431497,-107.112605,User supplied,2/1/19,11/6/20,11/15/20,1288,http://cdss.state.co.us/onlineTools/Pages/ClimateStation.aspx,2019-02-01,2020-11-06
9236,US1COEG0056,"EL JEBEL 0.2 ENE, CO US",NOAA,5,38,,CO,320361.4,4363375.5,39.401204,-107.086305,User supplied,4/4/19,8/25/20,9/15/20,1017,http://cdss.state.co.us/onlineTools/Pages/ClimateStation.aspx,2019-04-04,2020-08-25
9244,US1COME0161,"FRUITA 3.9 ESE, CO US",NOAA,5,72,,CO,183151.7,4337347.2,39.127698,-108.665196,User supplied,12/18/18,5/9/19,9/9/19,142,http://cdss.state.co.us/onlineTools/Pages/ClimateStation.aspx,2018-12-18,2019-05-09
9246,US1COME0163,"GRAND JUNCTION 4.4 E, CO US",NOAA,5,72,,CO,199847.9,4332810,39.0928,-108.470399,User supplied,2/1/19,11/6/20,11/15/20,1288,http://cdss.state.co.us/onlineTools/Pages/ClimateStation.aspx,2019-02-01,2020-11-06
9253,US1COME0159,"PALISADE 0.8 ESE, CO US",NOAA,5,72,,CO,210839.3,4333464.5,39.102395,-108.343804,User supplied,1/21/19,11/5/20,11/15/20,957,http://cdss.state.co.us/onlineTools/Pages/ClimateStation.aspx,2019-01-21,2020-11-05
9255,US1COPT0016,"REDSTONE 4.9 N, CO US",NOAA,5,38,,CO,307005.5,4346992.1,39.2508,-107.236594,User supplied,4/1/19,11/5/20,11/15/20,1168,http://cdss.state.co.us/onlineTools/Pages/ClimateStation.aspx,2019-04-01,2020-11-05
9263,USC00057033,"RIFLE 3 ENE, CO US",NOAA,5,39,,CO,265788.9,4382161.8,39.557202,-107.726099,User supplied,3/2/18,6/8/20,11/16/20,2327,http://cdss.state.co.us/onlineTools/Pages/ClimateStation.aspx,2018-03-02,2020-06-08
9277,ORM02,CSU ORCHARD MESA RESEARCH STA,COAGMET,5,72,,CO,199935.6,4327392.4,39.044097,-108.466995,User supplied,9/25/19,11/14/20,11/15/20,2496,http://cdss.state.co.us/onlineTools/Pages/ClimateStation.aspx,2019-09-25,2020-11-14
9283,FRT03,CSU FRUITA EXP STATION,COAGMET,5,72,,CO,180652.4,4343598.3,39.182997,-108.697004,User supplied,9/25/19,11/14/20,11/15/20,2496,http://cdss.state.co.us/onlineTools/Pages/ClimateStation.aspx,2019-09-25,2020-11-14
9291,EGL01,EAGLE,COAGMET,5,37,,CO,347069.2,4388297.4,39.630796,-106.782002,User supplied,11/19/19,11/14/20,11/15/20,2166,http://cdss.state.co.us/onlineTools/Pages/ClimateStation.aspx,2019-11-19,2020-11-14
9300,US1COEG0052,"EDWARDS 0.5 E, CO US",NOAA,5,37,,CO,363454.4,4389999.3,39.648898,-106.591505,User supplied,4/21/19,11/6/20,11/15/20,1130,http://cdss.state.co.us/onlineTools/Pages/ClimateStation.aspx,2019-04-21,2020-11-06
9306,US1COME0157,"FRUITA 1.6 SSE, CO US",NOAA,5,72,,CO,179188,4338473.3,39.136374,-108.711493,User supplied,10/8/18,10/31/20,11/15/20,1503,http://cdss.state.co.us/onlineTools/Pages/ClimateStation.aspx,2018-10-08,2020-10-31
9307,US1COGF0075,"GLENWOOD SPRINGS 5.0 SSE, CO US",NOAA,5,38,,CO,302344.1,4372277.3,39.477405,-107.298034,User supplied,5/23/19,11/5/20,11/15/20,1054,http://cdss.state.co.us/onlineTools/Pages/ClimateStation.aspx,2019-05-23,2020-11-05
9312,USC00055519,"MESA 5 SSE, CO US",NOAA,5,72,,CO,230295.7,4331290.3,39.089068,-108.118267,User supplied,6/1/19,9/30/20,11/16/20,1948,http://cdss.state.co.us/onlineTools/Pages/ClimateStation.aspx,2019-06-01,2020-09-30
9315,US1COME0169,"ORCHARD MESA 1.5 NW, CO US",NOAA,5,72,,CO,193395.9,4328113.4,39.048312,-108.54275,User supplied,5/21/19,9/11/20,9/15/20,479,http://cdss.state.co.us/onlineTools/Pages/ClimateStation.aspx,2019-05-21,2020-09-11
9321,US1COPT0017,"REDSTONE 1.2 SW, CO US",NOAA,5,38,,CO,306052.8,4337819.8,39.168001,-107.244998,User supplied,6/12/19,11/6/20,11/15/20,882,http://cdss.state.co.us/onlineTools/Pages/ClimateStation.aspx,2019-06-12,2020-11-06
9324,US1COGR0076,"TABERNASH 4.1 WNW, CO US",NOAA,5,51,,CO,420996.9,4427381.9,39.992931,-105.925438,User supplied,5/29/19,8/21/20,9/15/20,900,http://cdss.state.co.us/onlineTools/Pages/ClimateStation.aspx,2019-05-29,2020-08-21
9327,US1COEG0053,"VAIL 3.5 E, CO US",NOAA,5,37,,CO,389152.3,4387786,39.63268,-106.291694,User supplied,4/1/19,11/6/20,11/15/20,1170,http://cdss.state.co.us/onlineTools/Pages/ClimateStation.aspx,2019-04-01,2020-11-06