stationNum,siteId,stationName,dataSource,division,waterDistrict,county,state,utmX,utmY,latitude,longitude,locationAccuracy,measType,porStart,porEnd,porLastModified,measUnit,lines
56,USC00052121,DE BEQUE,NOAA,5,70,MESA ,CO,222745.6,4358703.4,39.333332,-108.216676,User supplied,Evap,5/6/52,6/30/54,2013-03-29T15:42:05.6630000,in,785
133,USW00023066,GRAND JUNCTION WALKER FIELD,NOAA,5,72,MESA ,CO,194005.1,4337639.4,39.134203,-108.540012,User supplied,Evap,8/1/48,10/31/60,2013-03-29T15:42:05.6630000,in,4474
134,USC00053489,GRAND JUNCTION 6 ESE,NOAA,5,72,MESA ,CO,199987.2,4327179.8,39.042208,-108.466314,User supplied,Evap,3/27/62,10/23/20,2020-12-16T01:06:07.9700000,in,21395
136,USC00053500,GRAND LAKE 6 SSW,NOAA,5,51,GRAND ,CO,426226.7,4448639.6,40.18491,-105.866607,User supplied,Evap,8/2/49,10/30/20,2020-12-16T01:06:47.0030000,in,26022
147,USC00053592,GREEN MT DAM,NOAA,5,36,SUMMIT ,CO,385987.3,4415167.1,39.878906,-106.333314,User supplied,Evap,7/1/48,9/30/78,2013-08-08T07:36:39.2700000,in,11048
244,USC00055507,MEREDITH,NOAA,5,38,PITKIN ,CO,349906.8,4358385.8,39.361908,-106.742208,User supplied,Evap,6/12/68,7/21/07,2015-02-10T11:36:20.1830000,in,14283
35,USC00051741,COLLBRAN,NOAA,5,72,MESA ,CO,244278.6,4347872.7,39.242509,-107.963066,User supplied,MaxTemp,10/23/00,12/31/99,2013-10-11T14:22:03.6930000,degF,36228
36,USC00051745,COLLBRAN 3 ENE,NOAA,5,72,MESA ,CO,246871.8,4348621.6,39.25001,-107.933339,User supplied,MaxTemp,1/10/68,1/31/70,2013-03-29T15:42:35.2400000,degF,752
37,USC00051772,COLORADO NATL MONUMENT,NOAA,5,72,MESA ,CO,177098.1,4334659,39.101306,-108.733812,User supplied,MaxTemp,3/1/40,11/17/20,2020-12-16T00:52:15.9000000,degF,29481
56,USC00052121,DE BEQUE,NOAA,5,70,MESA ,CO,222745.6,4358703.4,39.333332,-108.216676,User supplied,MaxTemp,12/1/51,6/30/54,2013-03-29T15:42:35.2400000,degF,942
57,USC00050214,ALTENBERN,NOAA,5,70,GARFIELD ,CO,209278,4377635,39.499206,-108.380907,User supplied,MaxTemp,9/9/58,11/12/20,2020-11-15T23:28:21.1470000,degF,22710
66,USC00052281,DILLON 1 E,NOAA,5,36,SUMMIT ,CO,411146,4386771.3,39.626103,-106.035311,,MaxTemp,5/5/10,12/13/20,2020-12-16T00:56:27.5270000,degF,40400
74,USW00023063,EAGLE COUNTY AP,NOAA,5,37,EAGLE ,CO,335555.6,4390667.3,39.650004,-106.916676,User supplied,MaxTemp,7/1/04,8/31/17,2018-05-14T03:18:02.7070000,degF,41334
115,USC00053113,FRASER,NOAA,5,51,GRAND ,CO,428814.9,4422540.2,39.950005,-105.833339,User supplied,MaxTemp,12/1/09,6/17/74,2013-03-29T15:42:35.2400000,degF,23574
116,USC00053116,FRASER,NOAA,5,51,GRAND ,CO,430185.2,4421695,39.942507,-105.817212,User supplied,MaxTemp,5/1/89,12/7/20,2020-12-16T01:02:40.2400000,degF,11543
118,USC00053146,FRUITA 1 W,NOAA,5,72,MESA ,CO,177797,4339433,39.144493,-108.72801,User supplied,MaxTemp,1893-01-01,11/8/20,2020-12-16T01:03:07.0700000,degF,46690
127,USC00053359,GLENWOOD SPGS #2,NOAA,5,38,GARFIELD ,CO,300810.4,4376826,39.518006,-107.317215,User supplied,MaxTemp,1893-09-01,8/31/20,2020-11-15T23:50:03.6530000,degF,46690
128,USC00053423,GORE PASS RANCH,NOAA,5,50,GRAND ,CO,375077.5,4445437,40.150006,-106.466675,User supplied,MaxTemp,6/7/57,12/30/63,2013-03-29T15:42:35.2400000,degF,2397
133,USW00023066,GRAND JUNCTION WALKER FIELD,NOAA,5,72,MESA ,CO,194005.1,4337639.4,39.134203,-108.540012,User supplied,MaxTemp,1/1/00,12/9/20,2020-12-16T02:30:31.2100000,degF,44173
134,USC00053489,GRAND JUNCTION 6 ESE,NOAA,5,72,MESA ,CO,199987.2,4327179.8,39.042208,-108.466314,User supplied,MaxTemp,3/27/62,12/11/20,2020-12-16T01:06:07.9700000,degF,21444
135,USC00053496,GRAND LAKE 1 NW,NOAA,5,51,GRAND ,CO,429240.6,4457713.3,40.266903,-105.832205,User supplied,MaxTemp,10/1/39,12/11/20,2020-12-16T01:06:27.5330000,degF,29657
136,USC00053500,GRAND LAKE 6 SSW,NOAA,5,51,GRAND ,CO,426226.7,4448639.6,40.18491,-105.866607,User supplied,MaxTemp,8/1/48,12/12/20,2020-12-16T01:06:47.0030000,degF,26431
137,USC00053508,GRAND VALLEY,NOAA,5,39,GARFIELD ,CO,237552.1,4371156.4,39.450003,-108.050012,User supplied,MaxTemp,10/1/04,5/31/81,2013-08-08T07:37:01.5370000,degF,28001
147,USC00053592,GREEN MT DAM,NOAA,5,36,SUMMIT ,CO,385987.3,4415167.1,39.878906,-106.333314,User supplied,MaxTemp,7/1/39,12/22/08,2013-10-11T14:22:03.6930000,degF,25377
155,USC00050370,ASPEN,NOAA,5,38,PITKIN ,CO,341653.7,4338722.1,39.183335,-106.833337,User supplied,MaxTemp,1/1/14,11/30/79,2013-08-08T07:37:01.5370000,degF,24074
156,USC00050372,ASPEN 1 SW,NOAA,5,38,PITKIN ,CO,341254.5,4338937.8,39.185208,-106.838017,User supplied,MaxTemp,7/1/80,10/31/20,2020-12-16T00:43:35.7470000,degF,14732
167,USC00050405,AVON,NOAA,5,37,EAGLE ,CO,369844.8,4388160.7,39.633339,-106.516679,User supplied,MaxTemp,8/1/81,10/31/89,2013-08-08T07:37:01.5370000,degF,3013
171,USC00054129,HOT SULPHUR SPRINGS,NOAA,5,51,GRAND ,CO,401906.8,4433940.2,40.050004,-106.150008,User supplied,MaxTemp,12/1/41,6/30/81,2013-08-08T07:37:01.5370000,degF,14456
178,USC00054270,INDEPENDENCE PASS,NOAA,5,38,PITKIN ,CO,360170.2,4327267.8,39.083338,-106.616683,User supplied,MaxTemp,7/1/47,1/31/80,2013-08-08T07:37:01.5370000,degF,11902
199,USC00054664,KREMMLING,NOAA,5,50,GRAND ,CO,383324.2,4435046.8,40.057608,-106.368013,User supplied,MaxTemp,1/1/08,11/30/20,2020-12-16T01:17:14.9570000,degF,41242
230,USC00050514,BASALT,NOAA,5,38,EAGLE ,CO,324835.5,4359439.5,39.366681,-107.033335,User supplied,MaxTemp,7/14/65,5/23/72,2013-03-29T15:42:35.2400000,degF,2505
244,USC00055507,MEREDITH,NOAA,5,38,PITKIN ,CO,349906.8,4358385.8,39.361908,-106.742208,User supplied,MaxTemp,8/15/63,8/2/07,2015-02-10T11:36:23.7000000,degF,16058
246,USC00055520,MESA LAKES RESORT,NOAA,5,72,MESA ,CO,233170.2,4326850.7,39.050008,-108.083344,User supplied,MaxTemp,9/22/71,3/31/79,2013-08-08T07:37:01.5370000,degF,2747
269,USC00056073,OIL SHALE MINE,NOAA,5,39,GARFIELD ,CO,247954.9,4381923.8,39.550008,-107.93334,User supplied,MaxTemp,2/1/47,11/23/51,2013-03-29T15:42:35.2400000,degF,1756
279,USC00056266,PALISADE,NOAA,5,72,MESA ,CO,210304.8,4334730,39.113606,-108.350509,User supplied,MaxTemp,5/1/11,12/11/20,2020-12-16T01:28:33.2500000,degF,40037
285,USC00056311,PARACHUTE,NOAA,5,39,GARFIELD ,CO,237552.1,4371156.4,39.450003,-108.050012,User supplied,MaxTemp,6/1/81,5/29/92,2013-08-08T07:37:01.5370000,degF,4015
317,USC00056917,REDCLIFF,NOAA,5,37,EAGLE ,CO,382521,4375006.2,39.516675,-106.36668,User supplied,MaxTemp,9/1/47,8/29/51,2013-03-29T15:42:35.2400000,degF,1458
321,USC00056966,REDSTONE,NOAA,5,38,PITKIN ,CO,307102.1,4339497.2,39.183335,-107.233342,User supplied,MaxTemp,8/14/63,8/31/64,2013-03-29T15:42:35.2400000,degF,383
322,USC00056970,REDSTONE 4 W,NOAA,5,38,PITKIN ,CO,301390,4341491.4,39.200002,-107.300011,User supplied,MaxTemp,6/1/79,6/23/94,2013-08-08T07:37:01.5370000,degF,5501
326,USC00057031,RIFLE,NOAA,5,39,GARFIELD ,CO,260659.9,4380933,39.544726,-107.785289,User supplied,MaxTemp,9/9/10,1/6/09,2015-01-28T14:14:32.5000000,degF,35914
352,USC00057618,SHOSHONE,NOAA,5,53,GARFIELD ,CO,308734.4,4382434.7,39.570309,-107.226715,User supplied,MaxTemp,1/1/10,12/11/20,2020-12-16T01:35:12.9430000,degF,40522
376,USC00050810,BOND,NOAA,5,53,EAGLE ,CO,356063.5,4416164.1,39.883335,-106.683334,User supplied,MaxTemp,11/15/58,3/31/75,2013-03-29T15:42:35.2400000,degF,5980
378,USC00058148,TABERNASH,NOAA,5,51,GRAND ,CO,427443.8,4428103.2,40.000005,-105.850008,User supplied,MaxTemp,10/1/50,9/30/51,2013-03-29T15:42:35.2400000,degF,364
385,USC00050825,BONHAM RESERVOIR,NOAA,5,72,MESA ,CO,249328.3,4332152.6,39.10251,-107.898814,User supplied,MaxTemp,8/1/63,10/31/20,2020-12-16T00:45:24.7130000,degF,20911
404,USC00058575,VAIL,NOAA,5,37,EAGLE ,CO,383832.4,4388611,39.639406,-106.353816,User supplied,MaxTemp,2/1/85,9/30/20,2020-11-16T00:20:37.3000000,degF,13025
430,USC00050909,BRECKENRIDGE,NOAA,5,36,SUMMIT ,CO,410293,4371271,39.486375,-106.043155,User supplied,MaxTemp,1893-01-01,7/31/78,2013-08-08T07:37:01.5370000,degF,40000
431,USC00059096,WILLIAMS FORK DAM,NOAA,5,51,GRAND ,CO,397298.9,4432613.5,40.037511,-106.203809,User supplied,MaxTemp,6/1/82,12/13/20,2020-12-16T01:42:39.5130000,degF,14075
434,USC00059175,WINTER PARK,NOAA,5,51,GRAND ,CO,434846,4415804,39.889806,-105.76207,User supplied,MaxTemp,3/1/42,9/2/15,2017-01-14T03:50:07.3330000,degF,26848
1757,05K06S,ARROW,SCS,5,51,Grand,CO,435902,4418781,39.916706,-105.750012,User supplied,MaxTemp,1/1/09,12/31/12,2015-01-27T07:10:26.0670000,degF,1460
1760,07K12S,BISON LAKE,SCS,5,53,Garfield,CO,298713,4404505,39.766706,-107.350015,User supplied,MaxTemp,1/1/09,12/12/20,2020-12-16T02:17:39.7000000,degF,4363
1762,06K24S,COPPER MOUNTAIN,SCS,5,36,Summit,CO,399663,4371061,39.483309,-106.16671,User supplied,MaxTemp,1/1/09,12/12/20,2020-12-16T02:08:05.8130000,degF,4363
1764,06K08S,FREMONT PASS,SCS,5,36,Summit,CO,396651,4360000,39.383307,-106.200015,User supplied,MaxTemp,1/1/09,12/12/20,2020-12-16T02:06:43.2330000,degF,4363
1770,05K09S,GRIZZLY PEAK,SCS,5,36,Summit,CO,425642,4389271,39.650009,-105.866709,User supplied,MaxTemp,1/1/09,12/12/20,2020-12-16T01:57:48.3000000,degF,4363
1774,06K04S,INDEPENDENCE PASS,SCS,5,38,Pitkin,CO,360135,4325422,39.066705,-106.616708,User supplied,MaxTemp,1/1/09,12/12/20,2020-12-16T02:06:08.8270000,degF,4363
1778,06K30S,KILN,SCS,5,38,Pitkin,CO,360630,4353168,39.316705,-106.616706,User supplied,MaxTemp,1/1/09,12/12/20,2020-12-16T02:09:26.1600000,degF,4363
1780,05J10S,LAKE IRENE,SCS,5,51,Grand,CO,430712,4474329,40.416709,-105.81671,User supplied,MaxTemp,1/1/09,12/12/20,2020-12-16T01:54:45.1170000,degF,4363
1784,06J06S,LYNX PASS,SCS,5,53,Routt,CO,357901,4438334,40.083308,-106.666705,User supplied,MaxTemp,1/1/09,12/12/20,2020-12-16T02:02:55.4630000,degF,4363
1787,08K04S,MESA LAKES,SCS,5,72,Mesa,CO,233173,4326851,39.050009,-108.083309,User supplied,MaxTemp,1/1/09,12/12/20,2020-12-16T02:24:55.8970000,degF,4363
1794,07K01S,NORTH LOST TRAIL,SCS,5,38,Gunnison,CO,313994,4326378,39.066703,-107.150005,User supplied,MaxTemp,1/1/09,12/12/20,2020-12-16T02:15:38.9500000,degF,4363
1797,05J04S,PHANTOM VALLEY,SCS,5,51,Grand,CO,427869,4472502,40.40001,-105.85001,User supplied,MaxTemp,1/1/09,12/12/20,2020-12-16T01:53:50.4230000,degF,4363
1801,05J12S,STILLWATER CREEK,SCS,5,51,Grand,CO,422017,4454055,40.233309,-105.916712,User supplied,MaxTemp,1/1/09,12/12/20,2020-12-16T01:55:07.8970000,degF,4363
1803,06K14S,SUMMIT RANCH,SCS,5,36,Summit,CO,399999,4396965,39.716705,-106.166713,User supplied,MaxTemp,1/1/09,12/12/20,2020-12-16T02:07:24.5000000,degF,4363
1806,06K39S,VAIL MOUNTAIN,SCS,5,37,Eagle,CO,381262,4386130,39.616705,-106.383313,User supplied,MaxTemp,1/1/09,12/12/20,2020-12-16T02:09:42.8170000,degF,4363
1809,06J05S,WILLOW CREEK PASS,SCS,5,51,Grand,CO,406585,4467186,40.35001,-106.100005,User supplied,MaxTemp,1/1/09,12/12/20,2020-12-16T02:02:41.0870000,degF,4363
1872,07K09S,MC CLURE PASS,SCS,5,38,Gunnison,CO,302646,4334052,39.133308,-107.283309,User supplied,MaxTemp,1/1/09,12/12/20,2020-12-16T02:17:01.0600000,degF,4363
1879,07K11S,SCHOFIELD PASS,SCS,5,38,Gunnison,CO,322521,4320629,39.016705,-107.050007,User supplied,MaxTemp,1/17/09,12/12/20,2020-12-16T02:17:21.8270000,degF,4347
1883,06K06S,NAST LAKE,SCS,5,38,Pitkin,CO,362037,4351289,39.300006,-106.600005,User supplied,MaxTemp,1/1/09,12/12/20,2020-12-16T02:06:25.9670000,degF,4363
1890,FRT02,"CSU FRUITA EXPT STATION, 2 MI ENE FRUITA",CoAgMet,5,72,MESA,CO,180380.2,4343310,39.180307,-108.700011,,MaxTemp,6/16/92,1/5/20,2020-11-15T20:22:37.1200000,degF,10064
1891,GJC01,"GRAND JUNCTION, 3 MI NW GRAND JUNCTION",CoAgMet,5,72,MESA,CO,186232.6,4342505.9,39.175208,-108.632011,,MaxTemp,10/1/93,5/10/09,2017-05-22T13:33:54.3670000,degF,5700
2685,USC00051743,COLLBRAN 2 SW,NOAA,5,72,MESA ,CO,242820.7,4347264.9,39.236607,-107.979707,User supplied,MaxTemp,2/1/00,12/12/20,2020-12-16T00:51:57.5300000,degF,7620
2906,WFD01,"WOLFORD MTN RESERVOIR, 5 MI NNW KREMMLING",CoAgMet,5,50,GRAND,CO,379458.5,4444111.2,40.138703,-106.415018,,MaxTemp,11/30/04,12/14/20,2020-12-15T21:02:47.7830000,degF,5858
2928,ORM01,"ORCHARD MESA, ORCHARD MESA",CoAgMet,5,72,MESA,CO,200531.8,4327136.8,39.042008,-108.460009,,MaxTemp,1/2/06,9/24/19,2020-09-15T20:43:20.9130000,degF,5013
2937,06J08S,ARAPAHO RIDGE,NRCS,5,50,Grand,CO,382686.8,4467629.8,40.350991,-106.381425,,MaxTemp,2/1/18,12/12/20,2020-12-16T02:03:12.2300000,degF,1045
2939,07J03S,BEAR RIVER,NRCS,5,53,Routt,CO,329399,4435223,40.050005,-107.000012,,MaxTemp,1/1/09,12/12/20,2020-12-16T02:14:40.0570000,degF,4363
2941,06K45S,BEAVER CK VILLAGE,NRCS,5,37,Eagle,CO,369780,4384461,39.600002,-106.516708,,MaxTemp,1/1/09,12/12/20,2020-12-16T02:10:51.1130000,degF,4363
2944,06J18S,BUFFALO PARK,NRCS,5,50,Grand,CO,365275,4453011,40.216703,-106.583314,,MaxTemp,1/1/09,12/12/20,2020-12-16T02:04:09.7470000,degF,4363
2956,06K01S,HOOSIER PASS,NRCS,5,36,Summit,CO,408110,4358014,39.36671,-106.066713,,MaxTemp,1/1/09,12/12/20,2020-12-16T02:05:42.6700000,degF,4363
2957,06K10S,IVANHOE,NRCS,5,38,Pitkin,CO,366316,4349361,39.283311,-106.550015,,MaxTemp,1/1/09,12/12/20,2020-12-16T02:06:55.9830000,degF,4363
2960,05K21S,JONES PASS,NRCS,5,51,Grand,CO,422915,4402251,39.766706,-105.900009,,MaxTemp,1/1/09,12/12/20,2020-12-16T01:58:07.1600000,degF,4363
2966,06K44S,MCCOY PARK,NRCS,5,37,Eagle,CO,368355,4384486,39.60001,-106.533305,,MaxTemp,1/1/09,12/12/20,2020-12-16T02:10:34.0070000,degF,4363
2970,06K12S,MIDDLE FORK CAMP,NRCS,5,51,Grand,CO,412940,4404200,39.783303,-106.016713,,MaxTemp,1/1/09,12/12/20,2020-12-16T02:07:13.7830000,degF,4363
3488,06K46S,CHAPMAN TUNNEL,NRCS,5,38,PITKIN,CO,360500,4345765.3,39.250003,-106.61668,,MaxTemp,2/1/18,12/12/20,2020-12-16T02:11:03.1770000,degF,1045
3513,06K29S,ELLIOT RIDGE,NRCS,5,36,SUMMIT,CO,378807.5,4412068.8,39.850006,-106.416669,,MaxTemp,2/1/18,12/12/20,2020-12-16T02:08:46.7530000,degF,1045
3521,USC00057033,RIFLE 3ENE,NOAA,5,39,GARFIELD ,CO,265788,4382162.5,39.557202,-107.72611,,MaxTemp,10/1/09,12/13/20,2020-12-16T01:31:07.3530000,degF,4091
3762,05K30S,FOOL CREEK,NRCS,5,51,GRAND,CO,425877.2,4413317.9,39.866673,-105.866682,,MaxTemp,2/1/18,12/12/20,2020-12-16T01:59:04.4930000,degF,1045
3958,USC00053147,FRUITA 2 W,NOAA,5,72,MESA ,CO,173752.9,4342348.9,39.169207,-108.77611,,MaxTemp,6/1/12,10/16/14,2016-01-16T01:39:23.3530000,degF,867
3959,USC00053486,GRAND JUNCTION WEATHER FORECAST OFFICE,NOAA,5,72,MESA ,CO,195265.8,4335989.2,39.119804,-108.524709,,MaxTemp,11/1/11,12/12/20,2020-12-16T01:05:47.1370000,degF,3329
3994,USW00003076,GRAND JUNCTION 9 W,NOAA,5,72,MESA ,CO,176970.6,4334719.8,39.101808,-108.735306,,MaxTemp,6/17/09,5/31/14,2016-01-16T01:39:23.3530000,degF,1809
3998,USW00093073,ASPEN PITKIN CO AIRPORT SARDY FIELD,NOAA,5,38,PITKIN ,CO,338544.8,4343967.6,39.23001,-106.870569,,MaxTemp,5/21/98,12/9/20,2020-12-16T02:35:13.5030000,degF,8238
4000,USW00003098,EAGLE 13 SSE,NOAA,5,37,EAGLE ,CO,350896.8,4371779.2,39.482705,-106.733708,,MaxTemp,7/19/10,5/31/14,2016-01-16T01:39:23.3530000,degF,1412
4001,USW00003016,RIFLE GARFIELD CO AIRPORT,NOAA,5,45,GARFIELD ,CO,266237.4,4378880.1,39.527785,-107.719736,,MaxTemp,6/1/97,12/10/20,2020-12-16T02:27:35.3430000,degF,8593
4699,USR0000CPNR,PINE RIDGE COLORADO,NOAA,5,72,MESA ,CO,206013.8,4351198.4,39.260302,-108.407209,,MaxTemp,9/2/88,12/13/20,2020-12-16T01:51:37.2400000,degF,11790
4747,USR0000CCRO,THE CROWN COLORADO,NOAA,5,38,PITKIN ,CO,319650.4,4358017.7,39.352809,-107.093115,,MaxTemp,5/28/91,12/13/20,2020-12-16T01:46:43.9370000,degF,10792
4811,USR0000CDEM,DEMAREE COLORADO,NOAA,5,72,GARFIELD ,CO,166160.8,4375015.2,39.460004,-108.880008,,MaxTemp,11/7/95,12/13/20,2020-12-16T01:47:16.1500000,degF,9168
4862,USR0000CRIF,RIFLE COLORADO,NOAA,5,45,GARFIELD ,CO,263650.4,4377227.7,39.512209,-107.749215,,MaxTemp,7/11/84,12/13/20,2020-12-16T01:52:22.7800000,degF,13304
4918,USR0000CSOD,SODA CREEK COLORADO,NOAA,5,36,SUMMIT ,CO,415262.5,4379388,39.560007,-105.986416,,MaxTemp,9/19/86,12/13/20,2020-12-16T01:53:05.9670000,degF,12504
4922,USR0000CSKU,STORM KING MOUNTAIN COLORADO,NOAA,5,45,GARFIELD ,CO,292105.5,4381998.1,39.562506,-107.420004,,MaxTemp,3/22/95,12/13/20,2020-12-16T01:52:49.3700000,degF,9398
5000,USR0000CDOW,DOWD JUNCTION COLORADO,NOAA,5,37,EAGLE ,CO,375409,4387354.9,39.626907,-106.451711,,MaxTemp,7/2/85,12/13/20,2020-12-16T01:47:49.5600000,degF,12948
5098,USR0000CHMT,HORSE MOUNTAIN COLORADO,NOAA,5,39,GARFIELD ,CO,262314.2,4397235.6,39.69191,-107.771913,,MaxTemp,5/28/91,6/3/97,2013-08-08T07:37:01.5370000,degF,2198
5101,USR0000CGYP,GYPSUM COLORADO,NOAA,5,52,EAGLE ,CO,330824.3,4395800.3,39.695303,-106.973114,,MaxTemp,5/28/91,12/13/20,2020-12-16T01:49:01.2900000,degF,10792
5430,USR0000CPOR,PORCUPINE CREEK COLORADO,NOAA,5,53,ROUTT ,CO,359661.2,4439911.1,40.097806,-106.646412,,MaxTemp,6/12/85,12/13/20,2020-12-16T01:51:48.3970000,degF,12968
5471,USR0000CGUN,GUNSIGHT COLORADO,NOAA,5,50,GRAND ,CO,386885.2,4451823.9,40.209207,-106.329213,,MaxTemp,10/16/87,12/13/20,2020-12-16T01:48:53.4770000,degF,12112
5501,USR0000CSLP,HARBISON MEADOW COLORADO,NOAA,5,51,GRAND ,CO,429193.6,4458146.7,40.270809,-105.832806,,MaxTemp,2/20/03,12/13/20,2020-12-16T01:52:58.5670000,degF,6506
5810,350,NATIVE GRASSES                ,NCWCD,5,51,GRAND,CO,417671.1,4440149.1,40.107624,-105.966016,,MaxTemp,9/12/98,12/14/20,2020-12-15T21:20:47.7030000,degF,8129
5811,352,SHADOW MOUNTAIN               ,NCWCD,5,51,GRAND,CO,428386.3,4451112.1,40.207366,-105.841524,,MaxTemp,9/16/11,12/14/20,2020-12-15T21:21:27.4700000,degF,3377
6806,05J45S,Sawtooth,NRCS,5,51,GRAND,CO,436017,4432466,40.040004,-105.750014,,MaxTemp,2/1/18,12/12/20,2020-12-16T01:57:07.6830000,degF,1045
7364,CBL01,"CARBONDALE, CARBONDALE",CoAgMet,5,49,PITKIN,CO,309775,4359308,39.362301,-107.208,,MaxTemp,5/8/15,12/14/20,2020-12-15T20:10:56.0530000,degF,2047
7367,SLT01,"SILT, SILT MESA",CoAgMet,5,23,GARFIELD,CO,268664,4383131,39.5667,-107.693001,,MaxTemp,5/8/15,12/14/20,2020-12-15T20:58:33.5570000,degF,2047
8796,CBN01,COLLBRAN,COAGMET,5,72,,CO,241795.7,4343153,39.1993,-107.989996,User supplied,MaxTemp,3/30/18,12/14/20,2020-12-15T20:11:20.1330000,degC,990
8798,GBY01,GRANBY,COAGMET,5,51,,CO,419629.1,4439803.4,40.104697,-105.943001,User supplied,MaxTemp,4/23/18,12/14/20,2020-12-15T20:25:43.4700000,degC,966
8799,GYP01,GYPSUM,COAGMET,5,37,,CO,332916.6,4388991,39.6344,-106.946995,User supplied,MaxTemp,10/11/17,12/12/20,2020-12-15T20:27:40.1000000,degC,1158
9263,USC00057033,"RIFLE 3 ENE, CO US",NOAA,5,39,,CO,265788.9,4382161.8,39.557202,-107.726099,User supplied,MaxTemp,1/19/19,2/27/20,2020-12-16T01:30:55.0930000,degF,404
9277,ORM02,CSU ORCHARD MESA RESEARCH STA,COAGMET,5,72,,CO,199935.6,4327392.4,39.044097,-108.466995,User supplied,MaxTemp,9/25/19,12/14/20,2020-12-15T20:49:59.2100000,degC,446
9283,FRT03,CSU FRUITA EXP STATION,COAGMET,5,72,,CO,180652.4,4343598.3,39.182997,-108.697004,User supplied,MaxTemp,9/25/19,12/14/20,2020-12-15T20:22:20.5070000,degC,446
9291,EGL01,EAGLE,COAGMET,5,37,,CO,347069.2,4388297.4,39.630796,-106.782002,User supplied,MaxTemp,11/19/19,12/14/20,2020-12-15T20:19:19.5430000,degC,391
9312,USC00055519,"MESA 5 SSE, CO US",NOAA,5,72,,CO,230295.7,4331290.3,39.089068,-108.118267,User supplied,MaxTemp,6/1/19,12/12/20,2020-12-16T01:23:30.5970000,degF,560
1890,FRT02,"CSU FRUITA EXPT STATION, 2 MI ENE FRUITA",CoAgMet,5,72,MESA,CO,180380.2,4343310,39.180307,-108.700011,,MeanTemp,2/1/15,1/5/20,2020-11-15T20:22:37.1030000,degF,1799
2906,WFD01,"WOLFORD MTN RESERVOIR, 5 MI NNW KREMMLING",CoAgMet,5,50,GRAND,CO,379458.5,4444111.2,40.138703,-106.415018,,MeanTemp,2/1/15,12/14/20,2020-12-15T21:02:47.7670000,degF,2143
2928,ORM01,"ORCHARD MESA, ORCHARD MESA",CoAgMet,5,72,MESA,CO,200531.8,4327136.8,39.042008,-108.460009,,MeanTemp,2/1/15,9/24/19,2020-09-15T20:43:20.9130000,degF,1696
5810,350,NATIVE GRASSES                ,NCWCD,5,51,GRAND,CO,417671.1,4440149.1,40.107624,-105.966016,,MeanTemp,12/31/18,12/14/20,2020-12-15T21:20:47.7030000,degF,714
5811,352,SHADOW MOUNTAIN               ,NCWCD,5,51,GRAND,CO,428386.3,4451112.1,40.207366,-105.841524,,MeanTemp,3/1/15,12/14/20,2020-12-15T21:21:27.4700000,degF,2115
7364,CBL01,"CARBONDALE, CARBONDALE",CoAgMet,5,49,PITKIN,CO,309775,4359308,39.362301,-107.208,,MeanTemp,5/8/15,12/14/20,2020-12-15T20:10:56.0530000,degF,2047
7367,SLT01,"SILT, SILT MESA",CoAgMet,5,23,GARFIELD,CO,268664,4383131,39.5667,-107.693001,,MeanTemp,5/8/15,12/14/20,2020-12-15T20:58:33.5570000,degF,2047
8796,CBN01,COLLBRAN,COAGMET,5,72,,CO,241795.7,4343153,39.1993,-107.989996,User supplied,MeanTemp,3/30/18,12/14/20,2020-12-15T20:11:20.1330000,degC,990
8798,GBY01,GRANBY,COAGMET,5,51,,CO,419629.1,4439803.4,40.104697,-105.943001,User supplied,MeanTemp,4/23/18,12/14/20,2020-12-15T20:25:43.4700000,degC,966
8799,GYP01,GYPSUM,COAGMET,5,37,,CO,332916.6,4388991,39.6344,-106.946995,User supplied,MeanTemp,10/11/17,12/12/20,2020-12-15T20:27:40.1000000,degC,1158
9277,ORM02,CSU ORCHARD MESA RESEARCH STA,COAGMET,5,72,,CO,199935.6,4327392.4,39.044097,-108.466995,User supplied,MeanTemp,9/25/19,12/14/20,2020-12-15T20:49:59.1970000,degC,446
9283,FRT03,CSU FRUITA EXP STATION,COAGMET,5,72,,CO,180652.4,4343598.3,39.182997,-108.697004,User supplied,MeanTemp,9/25/19,12/14/20,2020-12-15T20:22:20.5070000,degC,446
9291,EGL01,EAGLE,COAGMET,5,37,,CO,347069.2,4388297.4,39.630796,-106.782002,User supplied,MeanTemp,11/19/19,12/14/20,2020-12-15T20:19:19.5270000,degC,391
35,USC00051741,COLLBRAN,NOAA,5,72,MESA ,CO,244278.6,4347872.7,39.242509,-107.963066,User supplied,MinTemp,10/23/00,12/31/99,2013-10-11T14:22:03.7730000,degF,36228
36,USC00051745,COLLBRAN 3 ENE,NOAA,5,72,MESA ,CO,246871.8,4348621.6,39.25001,-107.933339,User supplied,MinTemp,1/10/68,1/31/70,2013-03-29T15:43:59.8170000,degF,752
37,USC00051772,COLORADO NATL MONUMENT,NOAA,5,72,MESA ,CO,177098.1,4334659,39.101306,-108.733812,User supplied,MinTemp,3/1/40,11/17/20,2020-12-16T00:52:15.9000000,degF,29481
56,USC00052121,DE BEQUE,NOAA,5,70,MESA ,CO,222745.6,4358703.4,39.333332,-108.216676,User supplied,MinTemp,12/1/51,6/30/54,2013-03-29T15:43:59.8170000,degF,942
57,USC00050214,ALTENBERN,NOAA,5,70,GARFIELD ,CO,209278,4377635,39.499206,-108.380907,User supplied,MinTemp,9/10/58,11/12/20,2020-11-15T23:28:21.1470000,degF,22709
66,USC00052281,DILLON 1 E,NOAA,5,36,SUMMIT ,CO,411146,4386771.3,39.626103,-106.035311,,MinTemp,5/5/10,12/13/20,2020-12-16T00:56:27.5270000,degF,40400
74,USW00023063,EAGLE COUNTY AP,NOAA,5,37,EAGLE ,CO,335555.6,4390667.3,39.650004,-106.916676,User supplied,MinTemp,7/4/04,8/31/17,2018-05-14T03:18:10.2200000,degF,41331
115,USC00053113,FRASER,NOAA,5,51,GRAND ,CO,428814.9,4422540.2,39.950005,-105.833339,User supplied,MinTemp,12/1/09,6/18/74,2013-03-29T15:43:59.8170000,degF,23575
116,USC00053116,FRASER,NOAA,5,51,GRAND ,CO,430185.2,4421695,39.942507,-105.817212,User supplied,MinTemp,5/1/89,12/7/20,2020-12-16T01:02:40.2400000,degF,11543
118,USC00053146,FRUITA 1 W,NOAA,5,72,MESA ,CO,177797,4339433,39.144493,-108.72801,User supplied,MinTemp,1893-01-01,11/8/20,2020-12-16T01:03:07.0700000,degF,46690
127,USC00053359,GLENWOOD SPGS #2,NOAA,5,38,GARFIELD ,CO,300810.4,4376826,39.518006,-107.317215,User supplied,MinTemp,1893-09-01,8/31/20,2020-11-15T23:50:03.6530000,degF,46690
128,USC00053423,GORE PASS RANCH,NOAA,5,50,GRAND ,CO,375077.5,4445437,40.150006,-106.466675,User supplied,MinTemp,6/7/57,12/30/63,2013-03-29T15:43:59.8170000,degF,2397
133,USW00023066,GRAND JUNCTION WALKER FIELD,NOAA,5,72,MESA ,CO,194005.1,4337639.4,39.134203,-108.540012,User supplied,MinTemp,1/1/00,12/9/20,2020-12-16T02:30:31.2100000,degF,44173
134,USC00053489,GRAND JUNCTION 6 ESE,NOAA,5,72,MESA ,CO,199987.2,4327179.8,39.042208,-108.466314,User supplied,MinTemp,3/27/62,12/11/20,2020-12-16T01:06:07.9700000,degF,21444
135,USC00053496,GRAND LAKE 1 NW,NOAA,5,51,GRAND ,CO,429240.6,4457713.3,40.266903,-105.832205,User supplied,MinTemp,10/1/39,12/11/20,2020-12-16T01:06:27.5330000,degF,29657
136,USC00053500,GRAND LAKE 6 SSW,NOAA,5,51,GRAND ,CO,426226.7,4448639.6,40.18491,-105.866607,User supplied,MinTemp,8/1/48,12/12/20,2020-12-16T01:06:47.0030000,degF,26431
137,USC00053508,GRAND VALLEY,NOAA,5,39,GARFIELD ,CO,237552.1,4371156.4,39.450003,-108.050012,User supplied,MinTemp,10/1/04,5/31/81,2013-08-08T07:37:42.3500000,degF,28001
147,USC00053592,GREEN MT DAM,NOAA,5,36,SUMMIT ,CO,385987.3,4415167.1,39.878906,-106.333314,User supplied,MinTemp,7/1/39,12/22/08,2013-10-11T14:22:03.7730000,degF,25377
155,USC00050370,ASPEN,NOAA,5,38,PITKIN ,CO,341653.7,4338722.1,39.183335,-106.833337,User supplied,MinTemp,1/1/14,11/30/79,2013-08-08T07:37:42.3500000,degF,24074
156,USC00050372,ASPEN 1 SW,NOAA,5,38,PITKIN ,CO,341254.5,4338937.8,39.185208,-106.838017,User supplied,MinTemp,7/1/80,10/31/20,2020-12-16T00:43:35.7470000,degF,14732
167,USC00050405,AVON,NOAA,5,37,EAGLE ,CO,369844.8,4388160.7,39.633339,-106.516679,User supplied,MinTemp,8/1/81,10/31/89,2013-08-08T07:37:42.3500000,degF,3013
171,USC00054129,HOT SULPHUR SPRINGS,NOAA,5,51,GRAND ,CO,401906.8,4433940.2,40.050004,-106.150008,User supplied,MinTemp,12/1/41,6/30/81,2013-08-08T07:37:42.3500000,degF,14456
178,USC00054270,INDEPENDENCE PASS,NOAA,5,38,PITKIN ,CO,360170.2,4327267.8,39.083338,-106.616683,User supplied,MinTemp,7/1/47,1/31/80,2013-08-08T07:37:42.3500000,degF,11902
199,USC00054664,KREMMLING,NOAA,5,50,GRAND ,CO,383324.2,4435046.8,40.057608,-106.368013,User supplied,MinTemp,1/1/08,11/30/20,2020-12-16T01:17:14.9570000,degF,41242
230,USC00050514,BASALT,NOAA,5,38,EAGLE ,CO,324835.5,4359439.5,39.366681,-107.033335,User supplied,MinTemp,7/14/65,5/23/72,2013-03-29T15:43:59.8170000,degF,2505
244,USC00055507,MEREDITH,NOAA,5,38,PITKIN ,CO,349906.8,4358385.8,39.361908,-106.742208,User supplied,MinTemp,8/15/63,8/2/07,2015-02-10T11:36:32.2770000,degF,16058
246,USC00055520,MESA LAKES RESORT,NOAA,5,72,MESA ,CO,233170.2,4326850.7,39.050008,-108.083344,User supplied,MinTemp,9/22/71,3/31/79,2013-08-08T07:37:42.3500000,degF,2747
269,USC00056073,OIL SHALE MINE,NOAA,5,39,GARFIELD ,CO,247954.9,4381923.8,39.550008,-107.93334,User supplied,MinTemp,2/1/47,11/23/51,2013-03-29T15:43:59.8170000,degF,1756
279,USC00056266,PALISADE,NOAA,5,72,MESA ,CO,210304.8,4334730,39.113606,-108.350509,User supplied,MinTemp,5/1/11,12/11/20,2020-12-16T01:28:33.2500000,degF,40037
285,USC00056311,PARACHUTE,NOAA,5,39,GARFIELD ,CO,237552.1,4371156.4,39.450003,-108.050012,User supplied,MinTemp,6/1/81,5/29/92,2013-08-08T07:37:42.3500000,degF,4015
317,USC00056917,REDCLIFF,NOAA,5,37,EAGLE ,CO,382521,4375006.2,39.516675,-106.36668,User supplied,MinTemp,9/1/47,8/29/51,2013-03-29T15:43:59.8170000,degF,1458
321,USC00056966,REDSTONE,NOAA,5,38,PITKIN ,CO,307102.1,4339497.2,39.183335,-107.233342,User supplied,MinTemp,8/14/63,8/31/64,2013-03-29T15:43:59.8170000,degF,383
322,USC00056970,REDSTONE 4 W,NOAA,5,38,PITKIN ,CO,301390,4341491.4,39.200002,-107.300011,User supplied,MinTemp,6/1/79,6/24/94,2013-08-08T07:37:42.3500000,degF,5502
326,USC00057031,RIFLE,NOAA,5,39,GARFIELD ,CO,260659.9,4380933,39.544726,-107.785289,User supplied,MinTemp,9/9/10,1/6/09,2015-01-28T14:14:43.9230000,degF,35914
352,USC00057618,SHOSHONE,NOAA,5,53,GARFIELD ,CO,308734.4,4382434.7,39.570309,-107.226715,User supplied,MinTemp,1/1/10,12/11/20,2020-12-16T01:35:12.9430000,degF,40522
376,USC00050810,BOND,NOAA,5,53,EAGLE ,CO,356063.5,4416164.1,39.883335,-106.683334,User supplied,MinTemp,11/15/58,3/31/75,2013-03-29T15:43:59.8170000,degF,5980
378,USC00058148,TABERNASH,NOAA,5,51,GRAND ,CO,427443.8,4428103.2,40.000005,-105.850008,User supplied,MinTemp,10/1/50,9/30/51,2013-03-29T15:43:59.8170000,degF,364
385,USC00050825,BONHAM RESERVOIR,NOAA,5,72,MESA ,CO,249328.3,4332152.6,39.10251,-107.898814,User supplied,MinTemp,8/1/63,10/31/20,2020-12-16T00:45:24.7130000,degF,20911
404,USC00058575,VAIL,NOAA,5,37,EAGLE ,CO,383832.4,4388611,39.639406,-106.353816,User supplied,MinTemp,2/1/85,9/30/20,2020-11-16T00:20:37.3000000,degF,13025
430,USC00050909,BRECKENRIDGE,NOAA,5,36,SUMMIT ,CO,410293,4371271,39.486375,-106.043155,User supplied,MinTemp,1893-01-01,7/31/78,2013-08-08T07:37:42.3500000,degF,40000
431,USC00059096,WILLIAMS FORK DAM,NOAA,5,51,GRAND ,CO,397298.9,4432613.5,40.037511,-106.203809,User supplied,MinTemp,6/1/82,12/13/20,2020-12-16T01:42:39.5130000,degF,14075
434,USC00059175,WINTER PARK,NOAA,5,51,GRAND ,CO,434846,4415804,39.889806,-105.76207,User supplied,MinTemp,3/1/42,9/2/15,2017-01-14T03:50:18.7570000,degF,26848
1757,05K06S,ARROW,SCS,5,51,Grand,CO,435902,4418781,39.916706,-105.750012,User supplied,MinTemp,1/1/09,12/31/12,2015-01-27T07:10:34.3630000,degF,1460
1760,07K12S,BISON LAKE,SCS,5,53,Garfield,CO,298713,4404505,39.766706,-107.350015,User supplied,MinTemp,1/1/09,12/12/20,2020-12-16T02:17:39.7000000,degF,4363
1762,06K24S,COPPER MOUNTAIN,SCS,5,36,Summit,CO,399663,4371061,39.483309,-106.16671,User supplied,MinTemp,1/1/09,12/12/20,2020-12-16T02:08:05.8130000,degF,4363
1764,06K08S,FREMONT PASS,SCS,5,36,Summit,CO,396651,4360000,39.383307,-106.200015,User supplied,MinTemp,1/1/09,12/12/20,2020-12-16T02:06:43.2330000,degF,4363
1770,05K09S,GRIZZLY PEAK,SCS,5,36,Summit,CO,425642,4389271,39.650009,-105.866709,User supplied,MinTemp,1/1/09,12/12/20,2020-12-16T01:57:48.3000000,degF,4363
1774,06K04S,INDEPENDENCE PASS,SCS,5,38,Pitkin,CO,360135,4325422,39.066705,-106.616708,User supplied,MinTemp,1/1/09,12/12/20,2020-12-16T02:06:08.8270000,degF,4363
1778,06K30S,KILN,SCS,5,38,Pitkin,CO,360630,4353168,39.316705,-106.616706,User supplied,MinTemp,1/1/09,12/12/20,2020-12-16T02:09:26.1600000,degF,4363
1780,05J10S,LAKE IRENE,SCS,5,51,Grand,CO,430712,4474329,40.416709,-105.81671,User supplied,MinTemp,1/1/09,12/12/20,2020-12-16T01:54:45.1170000,degF,4363
1784,06J06S,LYNX PASS,SCS,5,53,Routt,CO,357901,4438334,40.083308,-106.666705,User supplied,MinTemp,1/1/09,12/12/20,2020-12-16T02:02:55.4630000,degF,4363
1787,08K04S,MESA LAKES,SCS,5,72,Mesa,CO,233173,4326851,39.050009,-108.083309,User supplied,MinTemp,1/1/09,12/12/20,2020-12-16T02:24:55.8970000,degF,4363
1794,07K01S,NORTH LOST TRAIL,SCS,5,38,Gunnison,CO,313994,4326378,39.066703,-107.150005,User supplied,MinTemp,1/1/09,12/12/20,2020-12-16T02:15:38.9500000,degF,4363
1797,05J04S,PHANTOM VALLEY,SCS,5,51,Grand,CO,427869,4472502,40.40001,-105.85001,User supplied,MinTemp,1/1/09,12/12/20,2020-12-16T01:53:50.4230000,degF,4363
1801,05J12S,STILLWATER CREEK,SCS,5,51,Grand,CO,422017,4454055,40.233309,-105.916712,User supplied,MinTemp,1/1/09,12/12/20,2020-12-16T01:55:07.8970000,degF,4363
1803,06K14S,SUMMIT RANCH,SCS,5,36,Summit,CO,399999,4396965,39.716705,-106.166713,User supplied,MinTemp,1/1/09,12/12/20,2020-12-16T02:07:24.5000000,degF,4363
1806,06K39S,VAIL MOUNTAIN,SCS,5,37,Eagle,CO,381262,4386130,39.616705,-106.383313,User supplied,MinTemp,1/1/09,12/12/20,2020-12-16T02:09:42.8170000,degF,4363
1809,06J05S,WILLOW CREEK PASS,SCS,5,51,Grand,CO,406585,4467186,40.35001,-106.100005,User supplied,MinTemp,1/1/09,12/12/20,2020-12-16T02:02:41.0870000,degF,4363
1872,07K09S,MC CLURE PASS,SCS,5,38,Gunnison,CO,302646,4334052,39.133308,-107.283309,User supplied,MinTemp,1/1/09,12/12/20,2020-12-16T02:17:01.0600000,degF,4363
1879,07K11S,SCHOFIELD PASS,SCS,5,38,Gunnison,CO,322521,4320629,39.016705,-107.050007,User supplied,MinTemp,1/1/09,12/12/20,2020-12-16T02:17:21.8270000,degF,4363
1883,06K06S,NAST LAKE,SCS,5,38,Pitkin,CO,362037,4351289,39.300006,-106.600005,User supplied,MinTemp,1/1/09,12/12/20,2020-12-16T02:06:25.9670000,degF,4363
1890,FRT02,"CSU FRUITA EXPT STATION, 2 MI ENE FRUITA",CoAgMet,5,72,MESA,CO,180380.2,4343310,39.180307,-108.700011,,MinTemp,6/16/92,1/5/20,2020-11-15T20:22:37.1200000,degF,10064
1891,GJC01,"GRAND JUNCTION, 3 MI NW GRAND JUNCTION",CoAgMet,5,72,MESA,CO,186232.6,4342505.9,39.175208,-108.632011,,MinTemp,10/1/93,5/10/09,2017-05-22T13:34:07.1300000,degF,5700
2685,USC00051743,COLLBRAN 2 SW,NOAA,5,72,MESA ,CO,242820.7,4347264.9,39.236607,-107.979707,User supplied,MinTemp,2/1/00,12/12/20,2020-12-16T00:51:57.5300000,degF,7620
2906,WFD01,"WOLFORD MTN RESERVOIR, 5 MI NNW KREMMLING",CoAgMet,5,50,GRAND,CO,379458.5,4444111.2,40.138703,-106.415018,,MinTemp,11/30/04,12/14/20,2020-12-15T21:02:47.7830000,degF,5858
2928,ORM01,"ORCHARD MESA, ORCHARD MESA",CoAgMet,5,72,MESA,CO,200531.8,4327136.8,39.042008,-108.460009,,MinTemp,1/2/06,9/24/19,2020-09-15T20:43:20.9130000,degF,5013
2937,06J08S,ARAPAHO RIDGE,NRCS,5,50,Grand,CO,382686.8,4467629.8,40.350991,-106.381425,,MinTemp,2/1/18,12/12/20,2020-12-16T02:03:12.2300000,degF,1045
2939,07J03S,BEAR RIVER,NRCS,5,53,Routt,CO,329399,4435223,40.050005,-107.000012,,MinTemp,1/1/09,12/12/20,2020-12-16T02:14:40.0570000,degF,4363
2941,06K45S,BEAVER CK VILLAGE,NRCS,5,37,Eagle,CO,369780,4384461,39.600002,-106.516708,,MinTemp,1/1/09,12/12/20,2020-12-16T02:10:51.1130000,degF,4363
2944,06J18S,BUFFALO PARK,NRCS,5,50,Grand,CO,365275,4453011,40.216703,-106.583314,,MinTemp,1/1/09,12/12/20,2020-12-16T02:04:09.7470000,degF,4363
2956,06K01S,HOOSIER PASS,NRCS,5,36,Summit,CO,408110,4358014,39.36671,-106.066713,,MinTemp,1/1/09,12/12/20,2020-12-16T02:05:42.6700000,degF,4363
2957,06K10S,IVANHOE,NRCS,5,38,Pitkin,CO,366316,4349361,39.283311,-106.550015,,MinTemp,1/1/09,12/12/20,2020-12-16T02:06:55.9830000,degF,4363
2960,05K21S,JONES PASS,NRCS,5,51,Grand,CO,422915,4402251,39.766706,-105.900009,,MinTemp,1/1/09,12/12/20,2020-12-16T01:58:07.1600000,degF,4363
2966,06K44S,MCCOY PARK,NRCS,5,37,Eagle,CO,368355,4384486,39.60001,-106.533305,,MinTemp,1/1/09,12/12/20,2020-12-16T02:10:34.0070000,degF,4363
2970,06K12S,MIDDLE FORK CAMP,NRCS,5,51,Grand,CO,412940,4404200,39.783303,-106.016713,,MinTemp,1/1/09,12/12/20,2020-12-16T02:07:13.7830000,degF,4363
3488,06K46S,CHAPMAN TUNNEL,NRCS,5,38,PITKIN,CO,360500,4345765.3,39.250003,-106.61668,,MinTemp,2/1/18,12/12/20,2020-12-16T02:11:03.1770000,degF,1045
3513,06K29S,ELLIOT RIDGE,NRCS,5,36,SUMMIT,CO,378807.5,4412068.8,39.850006,-106.416669,,MinTemp,2/1/18,12/12/20,2020-12-16T02:08:46.7530000,degF,1045
3521,USC00057033,RIFLE 3ENE,NOAA,5,39,GARFIELD ,CO,265788,4382162.5,39.557202,-107.72611,,MinTemp,10/1/09,12/13/20,2020-12-16T01:31:07.3530000,degF,4091
3762,05K30S,FOOL CREEK,NRCS,5,51,GRAND,CO,425877.2,4413317.9,39.866673,-105.866682,,MinTemp,2/1/18,12/12/20,2020-12-16T01:59:04.4930000,degF,1045
3958,USC00053147,FRUITA 2 W,NOAA,5,72,MESA ,CO,173752.9,4342348.9,39.169207,-108.77611,,MinTemp,6/1/12,10/16/14,2016-01-16T01:39:34.2300000,degF,867
3959,USC00053486,GRAND JUNCTION WEATHER FORECAST OFFICE,NOAA,5,72,MESA ,CO,195265.8,4335989.2,39.119804,-108.524709,,MinTemp,11/1/11,12/12/20,2020-12-16T01:05:47.1370000,degF,3329
3994,USW00003076,GRAND JUNCTION 9 W,NOAA,5,72,MESA ,CO,176970.6,4334719.8,39.101808,-108.735306,,MinTemp,6/17/09,5/31/14,2016-01-16T01:39:34.2300000,degF,1809
3998,USW00093073,ASPEN PITKIN CO AIRPORT SARDY FIELD,NOAA,5,38,PITKIN ,CO,338544.8,4343967.6,39.23001,-106.870569,,MinTemp,5/21/98,12/9/20,2020-12-16T02:35:13.5030000,degF,8238
4000,USW00003098,EAGLE 13 SSE,NOAA,5,37,EAGLE ,CO,350896.8,4371779.2,39.482705,-106.733708,,MinTemp,7/19/10,5/31/14,2016-01-16T01:39:34.2300000,degF,1412
4001,USW00003016,RIFLE GARFIELD CO AIRPORT,NOAA,5,45,GARFIELD ,CO,266237.4,4378880.1,39.527785,-107.719736,,MinTemp,6/1/97,12/10/20,2020-12-16T02:27:35.3430000,degF,8593
4699,USR0000CPNR,PINE RIDGE COLORADO,NOAA,5,72,MESA ,CO,206013.8,4351198.4,39.260302,-108.407209,,MinTemp,9/2/88,12/13/20,2020-12-16T01:51:37.2400000,degF,11790
4747,USR0000CCRO,THE CROWN COLORADO,NOAA,5,38,PITKIN ,CO,319650.4,4358017.7,39.352809,-107.093115,,MinTemp,5/28/91,12/13/20,2020-12-16T01:46:43.9370000,degF,10792
4811,USR0000CDEM,DEMAREE COLORADO,NOAA,5,72,GARFIELD ,CO,166160.8,4375015.2,39.460004,-108.880008,,MinTemp,11/7/95,12/13/20,2020-12-16T01:47:16.1500000,degF,9168
4862,USR0000CRIF,RIFLE COLORADO,NOAA,5,45,GARFIELD ,CO,263650.4,4377227.7,39.512209,-107.749215,,MinTemp,7/11/84,12/13/20,2020-12-16T01:52:22.7800000,degF,13304
4918,USR0000CSOD,SODA CREEK COLORADO,NOAA,5,36,SUMMIT ,CO,415262.5,4379388,39.560007,-105.986416,,MinTemp,9/19/86,12/13/20,2020-12-16T01:53:05.9670000,degF,12504
4922,USR0000CSKU,STORM KING MOUNTAIN COLORADO,NOAA,5,45,GARFIELD ,CO,292105.5,4381998.1,39.562506,-107.420004,,MinTemp,3/22/95,12/13/20,2020-12-16T01:52:49.3700000,degF,9398
5000,USR0000CDOW,DOWD JUNCTION COLORADO,NOAA,5,37,EAGLE ,CO,375409,4387354.9,39.626907,-106.451711,,MinTemp,7/2/85,12/13/20,2020-12-16T01:47:49.5600000,degF,12948
5098,USR0000CHMT,HORSE MOUNTAIN COLORADO,NOAA,5,39,GARFIELD ,CO,262314.2,4397235.6,39.69191,-107.771913,,MinTemp,5/28/91,6/3/97,2013-08-08T07:37:42.3500000,degF,2198
5101,USR0000CGYP,GYPSUM COLORADO,NOAA,5,52,EAGLE ,CO,330824.3,4395800.3,39.695303,-106.973114,,MinTemp,5/28/91,12/13/20,2020-12-16T01:49:01.2900000,degF,10792
5430,USR0000CPOR,PORCUPINE CREEK COLORADO,NOAA,5,53,ROUTT ,CO,359661.2,4439911.1,40.097806,-106.646412,,MinTemp,6/12/85,12/13/20,2020-12-16T01:51:48.3970000,degF,12968
5471,USR0000CGUN,GUNSIGHT COLORADO,NOAA,5,50,GRAND ,CO,386885.2,4451823.9,40.209207,-106.329213,,MinTemp,10/16/87,12/13/20,2020-12-16T01:48:53.4770000,degF,12112
5501,USR0000CSLP,HARBISON MEADOW COLORADO,NOAA,5,51,GRAND ,CO,429193.6,4458146.7,40.270809,-105.832806,,MinTemp,2/20/03,12/13/20,2020-12-16T01:52:58.5670000,degF,6506
5810,350,NATIVE GRASSES                ,NCWCD,5,51,GRAND,CO,417671.1,4440149.1,40.107624,-105.966016,,MinTemp,9/12/98,12/14/20,2020-12-15T21:20:47.7030000,degF,8129
5811,352,SHADOW MOUNTAIN               ,NCWCD,5,51,GRAND,CO,428386.3,4451112.1,40.207366,-105.841524,,MinTemp,9/16/11,12/14/20,2020-12-15T21:21:27.4700000,degF,3377
6806,05J45S,Sawtooth,NRCS,5,51,GRAND,CO,436017,4432466,40.040004,-105.750014,,MinTemp,2/1/18,12/12/20,2020-12-16T01:57:07.6830000,degF,1045
7364,CBL01,"CARBONDALE, CARBONDALE",CoAgMet,5,49,PITKIN,CO,309775,4359308,39.362301,-107.208,,MinTemp,5/8/15,12/14/20,2020-12-15T20:10:56.0530000,degF,2047
7367,SLT01,"SILT, SILT MESA",CoAgMet,5,23,GARFIELD,CO,268664,4383131,39.5667,-107.693001,,MinTemp,5/8/15,12/14/20,2020-12-15T20:58:33.5700000,degF,2047
8796,CBN01,COLLBRAN,COAGMET,5,72,,CO,241795.7,4343153,39.1993,-107.989996,User supplied,MinTemp,3/30/18,12/14/20,2020-12-15T20:11:20.1330000,degC,990
8798,GBY01,GRANBY,COAGMET,5,51,,CO,419629.1,4439803.4,40.104697,-105.943001,User supplied,MinTemp,4/23/18,12/14/20,2020-12-15T20:25:43.4830000,degC,966
8799,GYP01,GYPSUM,COAGMET,5,37,,CO,332916.6,4388991,39.6344,-106.946995,User supplied,MinTemp,10/11/17,12/12/20,2020-12-15T20:27:40.1000000,degC,1158
9263,USC00057033,"RIFLE 3 ENE, CO US",NOAA,5,39,,CO,265788.9,4382161.8,39.557202,-107.726099,User supplied,MinTemp,9/26/18,6/8/20,2020-08-15T23:41:05.1970000,degF,621
9277,ORM02,CSU ORCHARD MESA RESEARCH STA,COAGMET,5,72,,CO,199935.6,4327392.4,39.044097,-108.466995,User supplied,MinTemp,9/25/19,12/14/20,2020-12-15T20:49:59.2100000,degC,446
9283,FRT03,CSU FRUITA EXP STATION,COAGMET,5,72,,CO,180652.4,4343598.3,39.182997,-108.697004,User supplied,MinTemp,9/25/19,12/14/20,2020-12-15T20:22:20.5070000,degC,446
9291,EGL01,EAGLE,COAGMET,5,37,,CO,347069.2,4388297.4,39.630796,-106.782002,User supplied,MinTemp,11/19/19,12/14/20,2020-12-15T20:19:19.5430000,degC,391
9312,USC00055519,"MESA 5 SSE, CO US",NOAA,5,72,,CO,230295.7,4331290.3,39.089068,-108.118267,User supplied,MinTemp,6/1/19,12/12/20,2020-12-16T01:23:30.5970000,degF,560
35,USC00051741,COLLBRAN,NOAA,5,72,MESA ,CO,244278.6,4347872.7,39.242509,-107.963066,User supplied,Precip,1893-01-01,12/31/99,2013-08-08T07:39:21.5800000,in,40000
36,USC00051745,COLLBRAN 3 ENE,NOAA,5,72,MESA ,CO,246871.8,4348621.6,39.25001,-107.933339,User supplied,Precip,1/11/68,1/31/70,2013-03-29T15:45:14.2370000,in,751
37,USC00051772,COLORADO NATL MONUMENT,NOAA,5,72,MESA ,CO,177098.1,4334659,39.101306,-108.733812,User supplied,Precip,3/1/40,11/17/20,2020-12-16T00:52:15.9000000,in,29481
56,USC00052121,DE BEQUE,NOAA,5,70,MESA ,CO,222745.6,4358703.4,39.333332,-108.216676,User supplied,Precip,12/1/51,6/30/54,2013-03-29T15:45:14.2370000,in,942
57,USC00050214,ALTENBERN,NOAA,5,70,GARFIELD ,CO,209278,4377635,39.499206,-108.380907,User supplied,Precip,7/1/47,11/12/20,2020-11-15T23:28:21.1470000,in,26798
66,USC00052281,DILLON 1 E,NOAA,5,36,SUMMIT ,CO,411146,4386771.3,39.626103,-106.035311,,Precip,1893-01-01,12/13/20,2020-12-16T00:56:27.5270000,in,46690
74,USW00023063,EAGLE COUNTY AP,NOAA,5,37,EAGLE ,CO,335555.6,4390667.3,39.650004,-106.916676,User supplied,Precip,7/1/04,8/10/15,2017-01-14T03:50:30.5830000,in,40582
115,USC00053113,FRASER,NOAA,5,51,GRAND ,CO,428814.9,4422540.2,39.950005,-105.833339,User supplied,Precip,6/20/08,6/18/74,2013-03-29T15:45:14.2370000,in,24104
116,USC00053116,FRASER,NOAA,5,51,GRAND ,CO,430185.2,4421695,39.942507,-105.817212,User supplied,Precip,5/1/89,12/8/20,2020-12-16T01:02:40.2400000,in,11544
118,USC00053146,FRUITA 1 W,NOAA,5,72,MESA ,CO,177797,4339433,39.144493,-108.72801,User supplied,Precip,1893-01-01,11/8/20,2020-12-16T01:03:07.0700000,in,46690
126,USC00053345,GLEN MAR,NOAA,5,51,GRAND ,CO,412942.9,4404203.7,39.783339,-106.016679,User supplied,Precip,7/1/47,5/31/51,2013-03-29T15:45:14.2370000,in,1430
127,USC00053359,GLENWOOD SPGS #2,NOAA,5,38,GARFIELD ,CO,300810.4,4376826,39.518006,-107.317215,User supplied,Precip,1893-09-01,8/31/20,2020-11-15T23:50:03.6530000,in,46690
128,USC00053423,GORE PASS RANCH,NOAA,5,50,GRAND ,CO,375077.5,4445437,40.150006,-106.466675,User supplied,Precip,6/1/57,12/31/63,2013-03-29T15:45:14.2370000,in,2404
133,USW00023066,GRAND JUNCTION WALKER FIELD,NOAA,5,72,MESA ,CO,194005.1,4337639.4,39.134203,-108.540012,User supplied,Precip,1/1/00,12/9/20,2020-12-16T02:30:31.2100000,in,44173
134,USC00053489,GRAND JUNCTION 6 ESE,NOAA,5,72,MESA ,CO,199987.2,4327179.8,39.042208,-108.466314,User supplied,Precip,3/26/62,12/11/20,2020-12-16T01:06:07.9700000,in,21445
135,USC00053496,GRAND LAKE 1 NW,NOAA,5,51,GRAND ,CO,429240.6,4457713.3,40.266903,-105.832205,User supplied,Precip,10/1/07,12/11/20,2020-12-16T01:06:27.5330000,in,41345
136,USC00053500,GRAND LAKE 6 SSW,NOAA,5,51,GRAND ,CO,426226.7,4448639.6,40.18491,-105.866607,User supplied,Precip,8/1/48,12/12/20,2020-12-16T01:06:47.0030000,in,26431
137,USC00053508,GRAND VALLEY,NOAA,5,39,GARFIELD ,CO,237552.1,4371156.4,39.450003,-108.050012,User supplied,Precip,10/1/04,5/31/81,2013-08-08T07:39:21.5800000,in,28001
147,USC00053592,GREEN MT DAM,NOAA,5,36,SUMMIT ,CO,385987.3,4415167.1,39.878906,-106.333314,User supplied,Precip,7/1/39,8/10/20,2020-09-15T23:42:16.2830000,in,29626
155,USC00050370,ASPEN,NOAA,5,38,PITKIN ,CO,341653.7,4338722.1,39.183335,-106.833337,User supplied,Precip,1899-08-01,11/30/79,2013-08-08T07:39:21.5800000,in,40000
156,USC00050372,ASPEN 1 SW,NOAA,5,38,PITKIN ,CO,341254.5,4338937.8,39.185208,-106.838017,User supplied,Precip,7/1/80,10/31/20,2020-12-16T00:43:35.7470000,in,14732
167,USC00050405,AVON,NOAA,5,37,EAGLE ,CO,369844.8,4388160.7,39.633339,-106.516679,User supplied,Precip,8/1/81,10/31/89,2013-08-08T07:39:21.5800000,in,3013
171,USC00054129,HOT SULPHUR SPRINGS,NOAA,5,51,GRAND ,CO,401906.8,4433940.2,40.050004,-106.150008,User supplied,Precip,12/1/41,6/30/81,2013-08-08T07:39:21.5800000,in,14456
178,USC00054270,INDEPENDENCE PASS,NOAA,5,38,PITKIN ,CO,360170.2,4327267.8,39.083338,-106.616683,User supplied,Precip,7/1/47,1/31/80,2013-08-08T07:39:21.5800000,in,11902
189,USC00054512,KEYSTONE 5 E,NOAA,5,36,SUMMIT ,CO,425080.5,4382708.5,39.590832,-105.872516,User supplied,Precip,11/1/94,10/31/97,2013-08-08T07:39:21.5800000,in,1095
199,USC00054664,KREMMLING,NOAA,5,50,GRAND ,CO,383324.2,4435046.8,40.057608,-106.368013,User supplied,Precip,1/1/08,11/30/20,2020-12-16T01:17:14.9570000,in,41242
230,USC00050514,BASALT,NOAA,5,38,EAGLE ,CO,324835.5,4359439.5,39.366681,-107.033335,User supplied,Precip,7/14/65,5/31/72,2013-03-29T15:45:14.2370000,in,2513
244,USC00055507,MEREDITH,NOAA,5,38,PITKIN ,CO,349906.8,4358385.8,39.361908,-106.742208,User supplied,Precip,8/15/63,8/2/07,2015-02-10T11:36:35.3870000,in,16058
245,USC00055513,MEREDITH 4NE,NOAA,5,38,EAGLE ,CO,354988.7,4358819,39.366676,-106.683337,User supplied,Precip,11/22/49,6/30/53,2013-03-29T15:45:14.2370000,in,1316
246,USC00055520,MESA LAKES RESORT,NOAA,5,72,MESA ,CO,233170.2,4326850.7,39.050008,-108.083344,User supplied,Precip,9/22/71,3/31/79,2013-08-08T07:39:21.5800000,in,2747
269,USC00056073,OIL SHALE MINE,NOAA,5,39,GARFIELD ,CO,247954.9,4381923.8,39.550008,-107.93334,User supplied,Precip,2/1/47,11/30/51,2013-03-29T15:45:14.2370000,in,1763
279,USC00056266,PALISADE,NOAA,5,72,MESA ,CO,210304.8,4334730,39.113606,-108.350509,User supplied,Precip,5/1/11,12/11/20,2020-12-16T01:28:33.2500000,in,40037
285,USC00056311,PARACHUTE,NOAA,5,39,GARFIELD ,CO,237552.1,4371156.4,39.450003,-108.050012,User supplied,Precip,6/1/81,5/29/92,2013-08-08T07:39:21.5800000,in,4015
289,USC00056342,PARSHALL 10 SSE,NOAA,5,51,GRAND ,CO,404564.5,4419105.3,39.916674,-106.116687,User supplied,Precip,6/1/51,6/30/73,2013-03-29T15:45:14.2370000,in,8065
317,USC00056917,REDCLIFF,NOAA,5,37,EAGLE ,CO,382521,4375006.2,39.516675,-106.36668,User supplied,Precip,1893-01-01,8/31/51,2013-03-29T15:45:14.2370000,in,40000
321,USC00056966,REDSTONE,NOAA,5,38,PITKIN ,CO,307102.1,4339497.2,39.183335,-107.233342,User supplied,Precip,8/15/63,8/31/64,2013-03-29T15:45:14.2370000,in,382
322,USC00056970,REDSTONE 4 W,NOAA,5,38,PITKIN ,CO,301390,4341491.4,39.200002,-107.300011,User supplied,Precip,6/1/79,6/30/94,2013-08-08T07:39:21.5800000,in,5508
326,USC00057031,RIFLE,NOAA,5,39,GARFIELD ,CO,260659.9,4380933,39.544726,-107.785289,User supplied,Precip,10/1/10,1/6/09,2015-01-28T14:15:10.5630000,in,35892
352,USC00057618,SHOSHONE,NOAA,5,53,GARFIELD ,CO,308734.4,4382434.7,39.570309,-107.226715,User supplied,Precip,1/1/10,12/11/20,2020-12-16T01:35:12.9430000,in,40522
376,USC00050810,BOND,NOAA,5,53,EAGLE ,CO,356063.5,4416164.1,39.883335,-106.683334,User supplied,Precip,11/15/58,3/31/75,2013-03-29T15:45:14.2370000,in,5980
378,USC00058148,TABERNASH,NOAA,5,51,GRAND ,CO,427443.8,4428103.2,40.000005,-105.850008,User supplied,Precip,10/1/50,9/30/51,2013-03-29T15:45:14.2370000,in,364
385,USC00050825,BONHAM RESERVOIR,NOAA,5,72,MESA ,CO,249328.3,4332152.6,39.10251,-107.898814,User supplied,Precip,7/11/63,10/31/20,2020-12-16T00:45:24.7130000,in,20932
404,USC00058575,VAIL,NOAA,5,37,EAGLE ,CO,383832.4,4388611,39.639406,-106.353816,User supplied,Precip,2/1/85,9/30/20,2020-11-16T00:20:37.3000000,in,13025
430,USC00050909,BRECKENRIDGE,NOAA,5,36,SUMMIT ,CO,410293,4371271,39.486375,-106.043155,User supplied,Precip,1893-02-01,9/30/20,2020-11-15T23:33:20.3130000,in,46690
431,USC00059096,WILLIAMS FORK DAM,NOAA,5,51,GRAND ,CO,397298.9,4432613.5,40.037511,-106.203809,User supplied,Precip,6/1/82,12/13/20,2020-12-16T01:42:39.5130000,in,14075
434,USC00059175,WINTER PARK,NOAA,5,51,GRAND ,CO,434846,4415804,39.889806,-105.76207,User supplied,Precip,3/1/42,12/13/20,2020-12-16T01:42:48.9770000,in,28777
1757,05K06S,ARROW,SCS,5,51,Grand,CO,435902,4418781,39.916706,-105.750012,User supplied,Precip,1/1/09,12/31/12,2015-01-27T07:10:56.9400000,in,1460
1760,07K12S,BISON LAKE,SCS,5,53,Garfield,CO,298713,4404505,39.766706,-107.350015,User supplied,Precip,1/1/09,12/12/20,2020-12-16T02:17:39.7000000,in,4363
1762,06K24S,COPPER MOUNTAIN,SCS,5,36,Summit,CO,399663,4371061,39.483309,-106.16671,User supplied,Precip,1/1/09,12/12/20,2020-12-16T02:08:05.8130000,in,4363
1764,06K08S,FREMONT PASS,SCS,5,36,Summit,CO,396651,4360000,39.383307,-106.200015,User supplied,Precip,1/1/09,12/12/20,2020-12-16T02:06:43.2330000,in,4363
1770,05K09S,GRIZZLY PEAK,SCS,5,36,Summit,CO,425642,4389271,39.650009,-105.866709,User supplied,Precip,1/1/09,12/12/20,2020-12-16T01:57:48.3000000,in,4363
1774,06K04S,INDEPENDENCE PASS,SCS,5,38,Pitkin,CO,360135,4325422,39.066705,-106.616708,User supplied,Precip,1/1/09,12/12/20,2020-12-16T02:06:08.8270000,in,4363
1778,06K30S,KILN,SCS,5,38,Pitkin,CO,360630,4353168,39.316705,-106.616706,User supplied,Precip,1/1/09,12/12/20,2020-12-16T02:09:26.1600000,in,4363
1780,05J10S,LAKE IRENE,SCS,5,51,Grand,CO,430712,4474329,40.416709,-105.81671,User supplied,Precip,1/1/09,12/12/20,2020-12-16T01:54:45.1170000,in,4363
1784,06J06S,LYNX PASS,SCS,5,53,Routt,CO,357901,4438334,40.083308,-106.666705,User supplied,Precip,1/1/09,12/12/20,2020-12-16T02:02:55.4630000,in,4363
1787,08K04S,MESA LAKES,SCS,5,72,Mesa,CO,233173,4326851,39.050009,-108.083309,User supplied,Precip,1/1/09,12/12/20,2020-12-16T02:24:55.8970000,in,4363
1794,07K01S,NORTH LOST TRAIL,SCS,5,38,Gunnison,CO,313994,4326378,39.066703,-107.150005,User supplied,Precip,1/1/09,12/12/20,2020-12-16T02:15:38.9500000,in,4363
1797,05J04S,PHANTOM VALLEY,SCS,5,51,Grand,CO,427869,4472502,40.40001,-105.85001,User supplied,Precip,1/1/09,12/12/20,2020-12-16T01:53:50.4230000,in,4363
1801,05J12S,STILLWATER CREEK,SCS,5,51,Grand,CO,422017,4454055,40.233309,-105.916712,User supplied,Precip,1/1/09,12/12/20,2020-12-16T01:55:07.8970000,in,4363
1803,06K14S,SUMMIT RANCH,SCS,5,36,Summit,CO,399999,4396965,39.716705,-106.166713,User supplied,Precip,1/1/09,12/12/20,2020-12-16T02:07:24.5000000,in,4363
1806,06K39S,VAIL MOUNTAIN,SCS,5,37,Eagle,CO,381262,4386130,39.616705,-106.383313,User supplied,Precip,1/2/09,12/12/20,2020-12-16T02:09:42.8170000,in,4362
1809,06J05S,WILLOW CREEK PASS,SCS,5,51,Grand,CO,406585,4467186,40.35001,-106.100005,User supplied,Precip,1/2/09,12/12/20,2020-12-16T02:02:41.0870000,in,4362
1872,07K09S,MC CLURE PASS,SCS,5,38,Gunnison,CO,302646,4334052,39.133308,-107.283309,User supplied,Precip,1/1/09,12/12/20,2020-12-16T02:17:01.0600000,in,4363
1879,07K11S,SCHOFIELD PASS,SCS,5,38,Gunnison,CO,322521,4320629,39.016705,-107.050007,User supplied,Precip,1/1/09,12/12/20,2020-12-16T02:17:21.8270000,in,4363
1883,06K06S,NAST LAKE,SCS,5,38,Pitkin,CO,362037,4351289,39.300006,-106.600005,User supplied,Precip,1/1/09,12/12/20,2020-12-16T02:06:25.9670000,in,4363
1890,FRT02,"CSU FRUITA EXPT STATION, 2 MI ENE FRUITA",CoAgMet,5,72,MESA,CO,180380.2,4343310,39.180307,-108.700011,,Precip,6/16/92,2/28/17,2017-05-22T13:34:29.8970000,in,9023
1891,GJC01,"GRAND JUNCTION, 3 MI NW GRAND JUNCTION",CoAgMet,5,72,MESA,CO,186232.6,4342505.9,39.175208,-108.632011,,Precip,10/1/93,5/10/09,2017-05-22T13:34:29.8970000,in,5700
2685,USC00051743,COLLBRAN 2 SW,NOAA,5,72,MESA ,CO,242820.7,4347264.9,39.236607,-107.979707,User supplied,Precip,2/1/00,12/12/20,2020-12-16T00:51:57.5300000,in,7620
2906,WFD01,"WOLFORD MTN RESERVOIR, 5 MI NNW KREMMLING",CoAgMet,5,50,GRAND,CO,379458.5,4444111.2,40.138703,-106.415018,,Precip,11/30/04,2/28/17,2017-05-22T13:34:29.8970000,in,4473
2928,ORM01,"ORCHARD MESA, ORCHARD MESA",CoAgMet,5,72,MESA,CO,200531.8,4327136.8,39.042008,-108.460009,,Precip,1/2/06,2/28/17,2017-05-22T13:34:29.8970000,in,4075
2937,06J08S,ARAPAHO RIDGE,NRCS,5,50,Grand,CO,382686.8,4467629.8,40.350991,-106.381425,,Precip,8/1/14,12/12/20,2020-12-16T02:03:12.2300000,in,2325
2939,07J03S,BEAR RIVER,NRCS,5,53,Routt,CO,329399,4435223,40.050005,-107.000012,,Precip,1/1/09,12/12/20,2020-12-16T02:14:40.0570000,in,4363
2941,06K45S,BEAVER CK VILLAGE,NRCS,5,37,Eagle,CO,369780,4384461,39.600002,-106.516708,,Precip,1/1/09,12/12/20,2020-12-16T02:10:51.1130000,in,4363
2944,06J18S,BUFFALO PARK,NRCS,5,50,Grand,CO,365275,4453011,40.216703,-106.583314,,Precip,1/1/09,12/12/20,2020-12-16T02:04:09.7470000,in,4363
2956,06K01S,HOOSIER PASS,NRCS,5,36,Summit,CO,408110,4358014,39.36671,-106.066713,,Precip,1/1/09,12/12/20,2020-12-16T02:05:42.6700000,in,4363
2957,06K10S,IVANHOE,NRCS,5,38,Pitkin,CO,366316,4349361,39.283311,-106.550015,,Precip,1/1/09,12/12/20,2020-12-16T02:06:55.9830000,in,4363
2960,05K21S,JONES PASS,NRCS,5,51,Grand,CO,422915,4402251,39.766706,-105.900009,,Precip,1/1/09,12/12/20,2020-12-16T01:58:07.1600000,in,4363
2966,06K44S,MCCOY PARK,NRCS,5,37,Eagle,CO,368355,4384486,39.60001,-106.533305,,Precip,1/1/09,12/12/20,2020-12-16T02:10:34.0070000,in,4363
2970,06K12S,MIDDLE FORK CAMP,NRCS,5,51,Grand,CO,412940,4404200,39.783303,-106.016713,,Precip,1/1/09,12/12/20,2020-12-16T02:07:13.7830000,in,4363
3488,06K46S,CHAPMAN TUNNEL,NRCS,5,38,PITKIN,CO,360500,4345765.3,39.250003,-106.61668,,Precip,8/1/14,12/12/20,2020-12-16T02:11:03.1770000,in,2325
3513,06K29S,ELLIOT RIDGE,NRCS,5,36,SUMMIT,CO,378807.5,4412068.8,39.850006,-106.416669,,Precip,8/1/14,12/1/20,2020-12-16T02:08:46.7530000,in,2314
3521,USC00057033,RIFLE 3ENE,NOAA,5,39,GARFIELD ,CO,265788,4382162.5,39.557202,-107.72611,,Precip,1/1/09,12/13/20,2020-12-16T01:31:07.3530000,in,4364
3762,05K30S,FOOL CREEK,NRCS,5,51,GRAND,CO,425877.2,4413317.9,39.866673,-105.866682,,Precip,8/1/14,12/12/20,2020-12-16T01:59:04.4930000,in,2325
3958,USC00053147,FRUITA 2 W,NOAA,5,72,MESA ,CO,173752.9,4342348.9,39.169207,-108.77611,,Precip,6/1/12,10/31/14,2019-08-14T16:07:58.6400000,in,882
3959,USC00053486,GRAND JUNCTION WEATHER FORECAST OFFICE,NOAA,5,72,MESA ,CO,195265.8,4335989.2,39.119804,-108.524709,,Precip,11/1/11,12/12/20,2020-12-16T01:05:47.1370000,in,3329
3994,USW00003076,GRAND JUNCTION 9 W,NOAA,5,72,MESA ,CO,176970.6,4334719.8,39.101808,-108.735306,,Precip,6/17/09,8/30/17,2018-05-14T03:18:18.9400000,in,2996
3998,USW00093073,ASPEN PITKIN CO AIRPORT SARDY FIELD,NOAA,5,38,PITKIN ,CO,338544.8,4343967.6,39.23001,-106.870569,,Precip,5/21/98,12/9/20,2020-12-16T02:35:13.5030000,in,8238
4000,USW00003098,EAGLE 13 SSE,NOAA,5,37,EAGLE ,CO,350896.8,4371779.2,39.482705,-106.733708,,Precip,7/19/10,8/30/17,2018-05-14T03:18:18.9400000,in,2599
4001,USW00003016,RIFLE GARFIELD CO AIRPORT,NOAA,5,45,GARFIELD ,CO,266237.4,4378880.1,39.527785,-107.719736,,Precip,4/1/98,12/10/20,2020-12-16T02:27:35.3430000,in,8289
4593,US1COME0021,GRAND JUNCTION 2.8 SSE,CoCoRaHS,5,72,MESA ,CO,192670.3,4326317.2,39.031904,-108.550314,,Precip,4/5/04,10/2/07,2013-08-08T07:39:21.5800000,in,1275
4595,US1COME0059,GRAND JUNCTION 3.8 SSE,CoCoRaHS,5,72,MESA ,CO,195107.2,4326767.1,39.036805,-108.522413,,Precip,8/10/06,7/2/16,2018-01-14T03:41:14.0730000,in,3614
4596,US1COME0064,GRAND JUNCTION 5.5 SW,CoCoRaHS,5,72,MESA ,CO,185377.8,4327428.4,39.039303,-108.634909,,Precip,10/1/07,12/13/20,2020-12-15T23:48:24.2500000,in,4822
4601,US1COME0013,GRAND JUNCTION 2.7 SSE,CoCoRaHS,5,72,MESA ,CO,193920.9,4328369.8,39.050808,-108.53681,,Precip,7/7/03,9/2/16,2019-08-14T14:17:16.8570000,in,4806
4602,US1COME0014,GRAND JUNCTION 4.3 WSW,CoCoRaHS,5,72,MESA ,CO,185090.7,4328918.8,39.052608,-108.638907,,Precip,7/18/03,10/2/06,2013-08-08T07:39:21.5800000,in,1172
4604,US1COME0077,GRAND JUNCTION 4.2 ESE,CoCoRaHS,5,72,MESA ,CO,198884.8,4329634.5,39.063902,-108.480109,,Precip,3/11/11,4/13/12,2015-01-28T14:15:10.5630000,in,399
4607,US1COME0049,GRAND JUNCTION 1.0 ESE,CoCoRaHS,5,72,MESA ,CO,193377.4,4330436.8,39.069208,-108.544016,,Precip,11/16/04,12/13/20,2020-12-15T23:48:04.2800000,in,5871
4609,US1COME0025,GRAND JUNCTION .1 E,CoCoRaHS,5,72,MESA ,CO,192037.4,4330745,39.071506,-108.559615,,Precip,7/1/03,9/15/11,2015-01-28T14:15:10.5630000,in,2998
4610,US1COME0047,GRAND JUNCTION 2.4 W,CoCoRaHS,5,72,MESA ,CO,187972.6,4330972.1,39.072105,-108.606607,,Precip,11/23/04,12/9/13,2015-01-28T14:15:10.5630000,in,3303
4611,US1COME0075,GRAND JUNCTION 1.1 SSW,CoCoRaHS,5,72,MESA ,CO,192239.9,4330826,39.072306,-108.557309,,Precip,2/1/11,10/20/16,2019-08-14T14:18:44.7270000,in,2088
4612,US1COME0008,CLIFTON 1.4 SSE,CoCoRaHS,5,72,MESA ,CO,202088.2,4330457.4,39.072403,-108.443513,,Precip,2/15/03,5/10/08,2013-08-08T07:39:21.5800000,in,1911
4613,US1COME0028,GRAND JUNCTION .61 E,CoCoRaHS,5,72,MESA ,CO,192755.7,4330939.2,39.073504,-108.551407,,Precip,2/17/04,10/22/04,2013-08-08T07:39:21.5800000,in,248
4614,US1COME0078,GRAND JUNCTION 1.0 SSW,CoCoRaHS,5,72,MESA ,CO,192031.8,4331045.4,39.074203,-108.559808,,Precip,7/19/11,10/4/16,2019-08-14T14:18:51.8500000,in,1904
4615,US1COME0057,GRAND JUNCTION 1.2 SE,CoCoRaHS,5,72,MESA ,CO,193983.2,4331080.3,39.075203,-108.537313,,Precip,6/13/06,7/30/13,2015-01-28T14:15:10.5630000,in,2604
4616,US1COGN0050,MARBLE 0.5 NNW,CoCoRaHS,5,38,GUNNISON ,CO,310513.9,4327838.6,39.07911,-107.19061,,Precip,1/1/10,12/11/20,2020-12-15T22:32:28.4230000,in,3997
4617,US1COGN0002,MARBLE .9 N,CoCoRaHS,5,38,GUNNISON ,CO,310663.9,4327957.1,39.080205,-107.18891,,Precip,9/30/03,11/19/15,2017-01-14T03:50:30.5830000,in,4433
4621,US1COME0045,GRAND JUNCTION 4.4 ENE,CoCoRaHS,5,72,MESA ,CO,198900,4332291.1,39.087805,-108.481111,,Precip,5/19/04,12/15/08,2013-08-08T07:39:21.5800000,in,1671
4623,US1COME0061,MESA 5.7 SSE,CoCoRaHS,5,72,MESA ,CO,231513.3,4331285.9,39.089407,-108.104214,,Precip,6/30/07,2/17/15,2019-08-14T14:18:01.1070000,in,2789
4624,US1COME0067,GRAND JUNCTION 1.0 E,CoCoRaHS,5,72,MESA ,CO,194235.8,4332671.5,39.089611,-108.535109,,Precip,10/7/07,12/13/20,2020-12-15T23:48:30.8730000,in,4816
4626,US1COME0068,GRAND JUNCTION 3.3 E,CoCoRaHS,5,72,MESA ,CO,197942,4332839.3,39.092403,-108.492411,,Precip,5/13/08,11/4/08,2013-08-08T07:39:21.5800000,in,175
4627,US1COME0012,GRAND JUNCTION 4 ENE,CoCoRaHS,5,72,MESA ,CO,198004.3,4332881.4,39.092802,-108.491714,,Precip,7/26/03,11/12/06,2013-08-08T07:39:21.5800000,in,1205
4628,US1COME0015,GRAND JUNCTION 4.5 WNW,CoCoRaHS,5,72,MESA ,CO,185072.8,4333445.2,39.093304,-108.641208,,Precip,7/9/03,6/14/07,2013-08-08T07:39:21.5800000,in,1436
4632,US1COME0011,GRAND JUNCTION 7.7 WNW,CoCoRaHS,5,72,MESA ,CO,180072,4334704,39.102807,-108.699511,,Precip,7/9/03,7/13/05,2013-08-08T07:39:21.5800000,in,735
4635,US1COME0052,GRAND JUNCTION 3.4 N,CoCoRaHS,5,72,MESA ,CO,192334.3,4336326.1,39.121805,-108.558714,,Precip,6/4/05,6/6/20,2020-06-15T22:39:30.4800000,in,5481
4643,US1COME0042,COLLBRAN 6.4 S,CoCoRaHS,5,72,MESA ,CO,246368,4337525.8,39.150008,-107.93501,,Precip,4/23/04,2/22/07,2013-08-08T07:39:21.5800000,in,1035
4648,US1COME0018,FRUITA .3 NW,CoCoRaHS,5,72,MESA ,CO,177486.6,4341360.1,39.161706,-108.732506,,Precip,8/1/03,12/27/10,2015-01-28T14:15:10.5630000,in,2705
4652,US1COME0003,GRAND JUNCTION 8 NNW,CoCoRaHS,5,72,MESA ,CO,187394.3,4342759.6,39.17791,-108.618714,,Precip,3/8/03,12/13/20,2020-12-15T23:47:34.8670000,in,6490
4653,US1COME0010,FRUITA 4.1 ENE,CoCoRaHS,5,72,MESA ,CO,184098.8,4343025.4,39.179103,-108.656908,,Precip,7/10/03,6/20/08,2013-08-08T07:39:21.5800000,in,1807
4655,US1COPT0005,ASPEN 1.7 WSW,CoCoRaHS,5,38,PITKIN ,CO,339809.8,4338856.2,39.184204,-106.854708,,Precip,4/12/05,12/28/15,2019-08-14T14:41:02.9900000,in,3912
4668,US1COME0007,FRUITA 4.5 NNE,CoCoRaHS,5,72,MESA ,CO,180026.1,4347983.9,39.222207,-108.706312,,Precip,9/8/03,5/16/20,2020-06-15T22:39:14.9770000,in,6095
4673,US1COME0044,LOMA 4.4 ENE,CoCoRaHS,5,72,MESA ,CO,195223,4336002,39.119906,-108.525211,,Precip,4/22/04,4/25/05,2013-08-08T07:39:21.5800000,in,368
4680,US1COME0053,COLLBRAN 0.2 ESE,CoCoRaHS,5,72,MESA ,CO,244748,4347535.1,39.239606,-107.95751,,Precip,5/26/05,12/13/20,2020-12-15T23:48:16.1770000,in,5680
4693,US1COPT0001,REDSTONE 5 N,CoCoRaHS,5,38,PITKIN ,CO,306615,4347302.3,39.253504,-107.241211,,Precip,11/1/03,3/31/04,2013-08-08T07:39:21.5800000,in,151
4705,US1COME0024,MACK 5 NW,CoCoRaHS,5,72,MESA ,CO,160740,4353336,39.263003,-108.931916,,Precip,7/25/03,12/12/20,2020-12-15T23:47:53.0530000,in,6350
4715,US1COPT0007,CARBONDALE 8.2 S,CoCoRaHS,5,38,PITKIN ,CO,308118.5,4350152.7,39.279508,-107.224616,,Precip,11/30/09,8/12/13,2015-01-28T14:15:10.5630000,in,1351
4724,US1COME0023,MACK 5 N,CoCoRaHS,5,72,MESA ,CO,166377,4356941.7,39.297609,-108.868511,,Precip,7/10/03,6/3/09,2015-01-28T14:15:10.5630000,in,2155
4734,US1COPT0004,SNOWMASS 7.0 W,CoCoRaHS,5,38,PITKIN ,CO,318067.9,4355233.8,39.327408,-107.110709,,Precip,4/2/05,10/12/20,2020-10-15T22:39:32.6370000,in,5672
4758,US1COEG0006,BASALT 5.8 E,CoCoRaHS,5,38,EAGLE ,CO,334207,4360636.6,39.37931,-106.92491,,Precip,10/4/03,12/13/20,2020-12-15T22:11:18.8500000,in,6280
4766,US1COSU0029,BRECKENRIDGE 6.2 S,CoCoRaHS,5,36,SUMMIT ,CO,409541.7,4360349.9,39.387907,-106.050407,,Precip,11/4/04,9/21/06,2013-08-08T07:39:21.5800000,in,686
4773,US1COGF0047,CARBONDALE 0.5 W,CoCoRaHS,5,38,GARFIELD ,CO,308605.4,4363279.3,39.397803,-107.222716,,Precip,9/27/07,12/13/20,2020-12-15T22:29:04.3870000,in,4826
4774,US1COSU0012,BRECKENRIDGE 5.6 S,CoCoRaHS,5,36,SUMMIT ,CO,409933.8,4361477.5,39.398111,-106.046008,,Precip,1/1/03,6/13/05,2013-08-08T07:39:21.5800000,in,894
4776,US1COGF0050,CARBONDALE 5.0 E,CoCoRaHS,5,38,GARFIELD ,CO,317390.1,4363467.7,39.401409,-107.120812,,Precip,12/30/09,8/1/14,2016-01-16T01:39:55.9930000,in,1675
4785,US1COGF0045,SILT 9.6 S,CoCoRaHS,5,45,GARFIELD ,CO,272220.6,4365760.8,39.411308,-107.645706,,Precip,1/7/07,11/8/20,2020-12-15T22:28:45.1100000,in,5054
4787,US1COGF0051,CARBONDALE 1.4 NNE,CoCoRaHS,5,38,GARFIELD ,CO,310393.2,4365212.4,39.415603,-107.202513,,Precip,7/10/10,11/21/10,2015-01-28T14:15:10.5630000,in,134
4795,US1COSU0019,BRECKENRIDGE 3.4 SSE,CoCoRaHS,5,36,SUMMIT ,CO,411092.9,4364938.4,39.429403,-106.03301,,Precip,10/4/03,1/26/10,2015-01-28T14:15:10.5630000,in,2306
4797,US1COGF0003,GLENWOOD SPRINGS 8 S,CoCoRaHS,5,38,GARFIELD ,CO,300218.2,4367533.4,39.434202,-107.321313,,Precip,9/12/03,12/3/05,2013-08-08T07:39:21.5800000,in,813
4809,US1COGF0026,PARACHUTE 3.5 E,CoCoRaHS,5,45,GARFIELD ,CO,242996.3,4371385.1,39.453705,-107.986915,,Precip,8/23/04,10/13/12,2015-01-28T14:15:10.5630000,in,2973
4810,US1COGF0049,CARBONDALE 4.6 NNE,CoCoRaHS,5,38,GARFIELD ,CO,312109.2,4369901.8,39.458208,-107.183913,,Precip,6/24/09,12/13/20,2020-12-15T22:29:15.8230000,in,4190
4820,US1COSU0040,BRECKENRIDGE 3.3 SE,CoCoRaHS,5,36,SUMMIT ,CO,413044.1,4369289.6,39.46881,-106.010911,,Precip,9/21/06,1/20/16,2019-08-14T15:04:29.3070000,in,3408
4828,US1COSU0011,BRECKENRIDGE 1.7 W,CoCoRaHS,5,36,SUMMIT ,CO,407244.1,4369889.6,39.47361,-106.078412,,Precip,2/1/03,4/25/04,2013-08-08T07:39:21.5800000,in,449
4830,US1COGF0033,GLENWOOD SPRINGS 5.3 SSE,CoCoRaHS,5,38,GARFIELD ,CO,302837.7,4372320.1,39.477905,-107.292307,,Precip,5/13/04,12/13/20,2020-12-15T22:28:30.7830000,in,6058
4834,US1COSU0037,BRECKENRIDGE 1.12 E,CoCoRaHS,5,36,SUMMIT ,CO,411840.4,4370868.2,39.482904,-106.025115,,Precip,1/18/06,12/3/06,2013-08-08T07:39:21.5800000,in,319
4842,US1COGF0017,SILT 7.2 ESE,CoCoRaHS,5,45,GARFIELD ,CO,271145.9,4374602.6,39.49061,-107.66121,,Precip,10/4/03,6/5/05,2013-08-08T07:39:21.5800000,in,610
4851,US1COSU0001,BRECKENRIDGE 1.8 NNW,CoCoRaHS,5,36,SUMMIT ,CO,409045.6,4373120.5,39.502902,-106.057905,,Precip,12/10/02,4/5/04,2013-08-08T07:39:21.5800000,in,482
4852,US1COSU0045,BRECKENRIDGE 2.0 NW,CoCoRaHS,5,36,SUMMIT ,CO,408633.3,4373158.7,39.503209,-106.062714,,Precip,12/8/09,1/14/11,2015-01-28T14:15:10.5630000,in,402
4853,US1COSU0023,BRECKENRIDGE 1.9 NNW,CoCoRaHS,5,36,SUMMIT ,CO,408711.1,4373191.1,39.503506,-106.061811,,Precip,6/11/04,2/19/05,2013-08-08T07:39:21.5800000,in,253
4854,US1COGF0035,CATTLE CREEK 5.1 NE,CoCoRaHS,5,38,GARFIELD ,CO,311992.7,4375035.7,39.504409,-107.186708,,Precip,7/15/04,6/17/13,2015-01-28T14:15:10.5630000,in,3259
4870,US1COSU0039,BRECKENRIDGE 0.9 NNE,CoCoRaHS,5,36,SUMMIT ,CO,410503.4,4375001.6,39.52001,-106.041215,,Precip,9/21/06,1/2/19,2019-08-14T15:04:23.8500000,in,4486
4874,US1COGF0036,RIFLE 0.8 S,CoCoRaHS,5,45,GARFIELD ,CO,261028.5,4378441.6,39.52241,-107.780116,,Precip,10/15/04,11/29/05,2013-08-08T07:39:21.5800000,in,410
4876,US1COSU0031,BRECKENRIDGE 3.1 N,CoCoRaHS,5,36,SUMMIT ,CO,410619.9,4375411,39.523707,-106.039909,,Precip,2/13/05,2/18/10,2015-01-28T14:15:10.5630000,in,1831
4882,US1COGF0004,GLENWOOD SPRINGS 1.4 S,CoCoRaHS,5,38,GARFIELD ,CO,300400,4378258.3,39.530804,-107.322411,,Precip,9/19/03,12/6/15,2019-08-13T15:23:56.4370000,in,4461
4884,US1COGF0007,RIFLE 0.8 SW,CoCoRaHS,5,39,GARFIELD ,CO,260302.6,4379453,39.531307,-107.788906,,Precip,9/15/03,6/6/11,2015-01-28T14:15:10.5630000,in,2821
4885,US1COGF0019,SILT 1.2 SSW,CoCoRaHS,5,45,GARFIELD ,CO,270699.6,4379293.1,39.532705,-107.668006,,Precip,10/3/03,1/14/11,2015-01-28T14:15:10.5630000,in,2660
4894,US1COGF0001,GLENWOOD SPRINGS .64 S,CoCoRaHS,5,38,GARFIELD ,CO,300043.4,4379433.8,39.541308,-107.326915,,Precip,9/12/03,12/13/20,2020-12-15T22:28:20.8700000,in,6302
4896,US1COGF0018,GLENWOOD SPRINGS .47 SSE,CoCoRaHS,5,52,GARFIELD ,CO,300411.5,4379701.9,39.543807,-107.322705,,Precip,10/6/03,7/19/04,2013-08-08T07:39:21.5800000,in,287
4897,US1COGF0009,GLENWOOD SPRINGS .48 SSE,CoCoRaHS,5,52,GARFIELD ,CO,300506,4379699.5,39.543811,-107.321611,,Precip,9/17/03,10/4/05,2013-08-08T07:39:21.5800000,in,748
4901,US1COGF0005,GLENWOOD SPRINGS .31 SSE,CoCoRaHS,5,52,GARFIELD ,CO,300444.4,4379978.8,39.546308,-107.322416,,Precip,9/14/03,11/29/04,2013-08-08T07:39:21.5800000,in,442
4904,US1COGF0006,RIFLE .96 NNW,CoCoRaHS,5,39,GARFIELD ,CO,260498.6,4381335.8,39.548308,-107.787306,,Precip,10/9/03,1/19/18,2019-08-13T15:24:18.3170000,in,5216
4907,US1COGF0002,RIFLE 0.9 NE,CoCoRaHS,5,39,GARFIELD ,CO,262163.7,4381495.5,39.550211,-107.768007,,Precip,9/12/03,11/13/18,2019-08-13T15:23:47.0100000,in,5541
4910,US1COGF0008,SILT .56 ENE,CoCoRaHS,5,39,GARFIELD ,CO,272650.4,4381268.7,39.551009,-107.646016,,Precip,9/29/03,2/23/04,2013-08-08T07:39:21.5800000,in,147
4913,US1COGF0028,RIFLE 3.2 ENE,CoCoRaHS,5,39,GARFIELD ,CO,265549.2,4381947.5,39.55521,-107.728814,,Precip,1/31/04,11/13/19,2019-11-15T22:00:42.8870000,in,5765
4919,US1COGF0013,GLENWOOD SPRINGS 1.4 WNW,CoCoRaHS,5,39,GARFIELD ,CO,298320.9,4381644.5,39.560802,-107.347609,,Precip,9/29/03,6/16/04,2013-08-08T07:39:21.5800000,in,261
4923,US1COGF0012,RIFLE 4.3 ENE,CoCoRaHS,5,39,GARFIELD ,CO,267225.2,4382763.5,39.563011,-107.709613,,Precip,9/29/03,5/1/06,2013-08-08T07:39:21.5800000,in,945
4924,US1COGF0040,GLENWOOD SPRINGS 1.7 NW,CoCoRaHS,5,39,GARFIELD ,CO,298088,4382272.6,39.56641,-107.35051,,Precip,3/26/05,12/12/20,2020-12-15T22:28:40.8400000,in,5740
4925,US1COGF0014,NEW CASTLE 3.4 E,CoCoRaHS,5,45,GARFIELD ,CO,287521.7,4382589.4,39.566703,-107.473508,,Precip,3/7/04,12/2/13,2015-01-28T14:15:10.5630000,in,3557
4929,US1COGF0046,GLENWOOD SPRINGS 2.1 NW,CoCoRaHS,5,39,GARFIELD ,CO,297654.8,4382472.7,39.568109,-107.355608,,Precip,1/23/07,12/5/20,2020-12-15T22:28:53.1330000,in,5065
4935,US1COGF0052,NEW CASTLE 1.0 SW,CoCoRaHS,5,39,GARFIELD ,CO,281657.5,4383486.2,39.573305,-107.542004,,Precip,11/18/10,6/1/12,2015-01-28T14:15:10.5630000,in,561
4940,US1COEG0022,MINTURN 0.9 SE,CoCoRaHS,5,37,EAGLE ,CO,378607,4381630.9,39.575807,-106.413411,,Precip,7/1/08,10/30/08,2013-08-08T07:39:21.5800000,in,121
4946,US1COSU0004,FRISCO 0.5 N,CoCoRaHS,5,36,SUMMIT ,CO,405885.7,4381971.8,39.582308,-106.095907,,Precip,12/13/98,12/13/20,2020-12-16T00:26:36.5470000,in,8036
4949,US1COSU0033,FRISCO .5 WNW,CoCoRaHS,5,36,SUMMIT ,CO,405391.3,4382277.6,39.58501,-106.101714,,Precip,5/15/05,10/16/06,2013-08-08T07:39:21.5800000,in,519
4951,US1COGF0011,GLENWOOD SPRINGS 7.1 WNW,CoCoRaHS,5,39,GARFIELD ,CO,289615.3,4384642.7,39.585709,-107.449815,,Precip,9/15/03,6/19/07,2013-08-08T07:39:21.5800000,in,1373
4953,US1COGF0025,GLENWOOD SPRINGS 7.1 WNW,CoCoRaHS,5,39,GARFIELD ,CO,289673.5,4384885.5,39.587911,-107.449205,,Precip,12/10/03,12/3/09,2015-01-28T14:15:10.5630000,in,2185
4958,US1COSU0046,KEYSTONE 1.8 SW,CoCoRaHS,5,36,SUMMIT ,CO,414716.2,4382823.8,39.590908,-105.993212,,Precip,3/24/10,12/1/14,2019-08-13T21:29:57.4700000,in,1713
4959,US1COGF0032,RIFLE 4.0 NNE,CoCoRaHS,5,39,GARFIELD ,CO,262427.9,4386165.2,39.592305,-107.766609,,Precip,5/30/04,12/8/06,2013-08-08T07:39:21.5800000,in,922
4960,US1COSU0025,DILLON 3.3 SE,CoCoRaHS,5,36,SUMMIT ,CO,413747.7,4383001.1,39.592406,-106.004507,,Precip,11/19/04,5/29/06,2013-08-08T07:39:21.5800000,in,556
4963,US1COSU0016,DILLON 2.3 SE,CoCoRaHS,5,36,SUMMIT ,CO,413530.2,4383514.1,39.597005,-106.007112,,Precip,3/12/03,10/23/20,2020-11-15T23:12:09.9630000,in,6435
4967,US1COSU0013,KEYSTONE 0.1 W,CoCoRaHS,5,36,SUMMIT ,CO,415173.3,4383784.5,39.599602,-105.988014,,Precip,1/1/03,1/16/07,2013-08-08T07:39:21.5800000,in,1476
4972,US1COEG0017,EAGLE 4.9 SE,CoCoRaHS,5,37,EAGLE ,CO,348572.8,4385337.1,39.604406,-106.763808,,Precip,1/26/05,12/2/06,2013-08-08T07:39:21.5800000,in,675
4978,US1COEG0001,GYPSUM 3.0 SE,CoCoRaHS,5,37,EAGLE ,CO,335948.1,4386239.3,39.610203,-106.911012,,Precip,4/16/03,6/10/15,2019-08-13T14:20:09.2100000,in,4438
4985,US1COEG0029,GYPSUM 1.9 SSW,CoCoRaHS,5,37,EAGLE ,CO,332074.5,4387033.4,39.616603,-106.956316,,Precip,7/12/11,12/12/20,2020-12-15T22:11:59.0530000,in,3441
4987,US1COEG0009,VAIL 4.1 WSW,CoCoRaHS,5,37,EAGLE ,CO,377298.7,4386336.5,39.618002,-106.429507,,Precip,11/11/03,4/19/06,2013-08-08T07:39:21.5800000,in,890
4994,US1COSU0006,SILVERTHORNE 2.1 WSW,CoCoRaHS,5,36,SUMMIT ,CO,405435.6,4386595.1,39.623906,-106.101806,,Precip,12/10/02,12/13/20,2020-12-16T00:26:43.3770000,in,6578
5003,US1COSU0007,DILLON 0.6 WNW,CoCoRaHS,5,36,SUMMIT ,CO,409955.2,4386962.8,39.627709,-106.049212,,Precip,12/10/02,3/10/13,2015-01-28T14:15:10.5630000,in,3743
5006,US1COSU0020,DILLON .75 SE,CoCoRaHS,5,36,SUMMIT ,CO,410464.8,4387234.3,39.630203,-106.043307,,Precip,12/28/03,11/7/20,2020-12-16T00:26:53.6270000,in,6159
5011,US1COSU0009,SILVERTHORNE 1.8 SE,CoCoRaHS,5,36,SUMMIT ,CO,409202.8,4387948.4,39.636503,-106.058108,,Precip,1/29/03,5/9/04,2013-08-08T07:39:21.5800000,in,466
5013,US1COSU0049,SILVERTHORNE 1.4 SE,CoCoRaHS,5,36,SUMMIT ,CO,408887.2,4388107.5,39.637911,-106.061812,,Precip,10/31/10,1/27/13,2015-01-28T14:15:10.5630000,in,819
5015,US1COSU0024,DILLON 0.7 NNE,CoCoRaHS,5,36,SUMMIT ,CO,410880.1,4388261.8,39.639508,-106.038611,,Precip,7/13/04,7/30/05,2013-08-08T07:39:21.5800000,in,382
5023,US1COSU0002,SILVERTHORNE 3.2 WNW,CoCoRaHS,5,36,SUMMIT ,CO,407999.4,4388506.6,39.64141,-106.072215,,Precip,1/15/03,4/29/05,2013-08-08T07:39:21.5800000,in,835
5024,US1COEG0025,EAGLE 1.0 SSE,CoCoRaHS,5,37,EAGLE ,CO,343865.4,4389550.5,39.641502,-106.819614,,Precip,10/31/08,12/4/13,2015-01-28T14:15:10.5630000,in,1860
5026,US1COEG0030,GYPSUM 0.5 E,CoCoRaHS,5,37,EAGLE ,CO,333668.4,4390052.6,39.64411,-106.938515,,Precip,11/7/11,5/17/16,2019-08-13T14:24:34.4970000,in,1653
5028,US1COEG0021,VAIL 0.9 WNW,CoCoRaHS,5,37,EAGLE ,CO,380280.9,4389287.1,39.645006,-106.395309,,Precip,7/5/08,12/13/20,2020-12-15T22:11:48.3530000,in,4544
5035,US1COEG0019,VAIL 2.6 E,CoCoRaHS,5,37,EAGLE ,CO,386249.3,4389529.7,39.648009,-106.325813,,Precip,5/1/05,12/13/20,2020-12-15T22:11:36.8800000,in,5705
5036,US1COEG0003,EDWARDS 1.3 WNW,CoCoRaHS,5,37,EAGLE ,CO,361019.2,4390176.8,39.650108,-106.619913,,Precip,9/13/03,12/13/20,2020-12-15T22:11:02.8970000,in,6301
5037,US1COSU0034,SILVERTHORNE 0.5 W,CoCoRaHS,5,36,SUMMIT ,CO,406449.9,4389535.4,39.650503,-106.09041,,Precip,8/3/05,1/23/08,2013-08-08T07:39:21.5800000,in,903
5046,US1COEG0018,EAGLE 0.4 ENE,CoCoRaHS,5,37,EAGLE ,CO,343961.2,4391314.1,39.657406,-106.818913,,Precip,1/30/05,10/31/10,2015-01-28T14:15:10.5630000,in,2100
5052,US1COSU0044,SILVERTHORNE 1.2 NW,CoCoRaHS,5,36,SUMMIT ,CO,405693.1,4390798.9,39.661807,-106.099412,,Precip,12/11/09,3/20/12,2015-01-28T14:15:10.5630000,in,830
5054,US1COSU0005,SILVERTHORNE 2.1 NNW,CoCoRaHS,5,36,SUMMIT ,CO,407446.7,4391077.4,39.664503,-106.079007,,Precip,1/7/03,11/4/09,2015-01-28T14:15:10.5630000,in,2493
5131,US1COSU0008,SILVERTHORNE 7.4 NW,CoCoRaHS,5,36,SUMMIT ,CO,402552.4,4397520.6,39.72201,-106.137015,,Precip,1/16/03,12/13/20,2020-12-16T00:26:48.5630000,in,6541
5146,US1COEG0008,WOLCOTT 2.3 N,CoCoRaHS,5,37,EAGLE ,CO,355983.9,4399496,39.733206,-106.68061,,Precip,9/27/03,12/13/20,2020-12-15T22:11:28.7170000,in,6287
5153,US1COSU0027,SILVERTHORNE 7.3 NW,CoCoRaHS,5,36,SUMMIT ,CO,400502.1,4399389.6,39.73861,-106.161212,,Precip,9/22/04,11/29/20,2020-12-16T00:26:56.8130000,in,5912
5169,US1COSU0010,SILVERTHORNE 7.6 NNW,CoCoRaHS,5,36,SUMMIT ,CO,404780.2,4401588.8,39.758908,-106.111613,,Precip,12/18/02,12/29/08,2013-08-08T07:39:21.5800000,in,2203
5243,US1COSU0018,HEENEY 1.6 SE,CoCoRaHS,5,36,SUMMIT ,CO,388305,4414566.7,39.873809,-106.30611,,Precip,7/18/03,2/16/05,2013-08-08T07:39:21.5800000,in,579
5259,US1COSU0035,SILVERTHORNE 21 NW,CoCoRaHS,5,36,SUMMIT ,CO,388445.4,4417739.7,39.902409,-106.305016,,Precip,8/11/05,12/12/20,2020-12-16T00:27:07.7830000,in,5602
5260,US1COGR0051,FRASER 5.2 WSW,CoCoRaHS,5,51,GRAND ,CO,424436.7,4417553.9,39.904707,-105.884007,,Precip,11/19/09,2/5/15,2017-01-14T03:50:30.5830000,in,1904
5285,US1COGR0002,FRASER 1.6 WSW,CoCoRaHS,5,51,GRAND ,CO,427602.2,4421419.4,39.939803,-105.847413,,Precip,1/24/03,8/8/04,2013-08-08T07:39:21.5800000,in,562
5289,US1COGR0004,FRASER 1.6 E,CoCoRaHS,5,51,GRAND ,CO,432662.5,4421650.5,39.942302,-105.788216,,Precip,1/31/03,11/14/07,2013-08-08T07:39:21.5800000,in,1748
5294,US1COGR0033,FRASER 0.5 ENE,CoCoRaHS,5,51,GRAND ,CO,430942.5,4422298.6,39.94801,-105.808416,,Precip,1/1/05,3/6/06,2013-08-08T07:39:21.5800000,in,429
5295,US1COGR0018,FRASER 1.4 E,CoCoRaHS,5,51,GRAND ,CO,432557,4422284.1,39.948005,-105.789511,,Precip,5/16/04,9/15/07,2013-08-08T07:39:21.5800000,in,1217
5299,US1COGR0023,FRASER .87 NE,CoCoRaHS,5,51,GRAND ,CO,431230,4422917.6,39.95361,-105.805111,,Precip,4/16/04,3/21/06,2013-08-08T07:39:21.5800000,in,704
5303,US1COGR0035,FRASER 1.8 NNE,CoCoRaHS,5,51,GRAND ,CO,431399.5,4424658.8,39.969309,-105.803304,,Precip,12/22/04,10/24/12,2015-01-28T14:15:10.5630000,in,2863
5319,US1COGR0030,TABERNASH 3.2 W,CoCoRaHS,5,51,GRAND ,CO,422920.2,4426515.9,39.985307,-105.902812,,Precip,10/13/04,12/14/05,2013-08-08T07:39:21.5800000,in,427
5335,US1COGR0028,TABERNASH .68 E,CoCoRaHS,5,51,GRAND ,CO,429120.1,4427521.3,39.994904,-105.830312,,Precip,6/1/04,12/14/04,2013-08-08T07:39:21.5800000,in,196
5343,US1COGR0053,TABERNASH 1.9 NW,CoCoRaHS,5,51,GRAND ,CO,425524.8,4428288.2,40.001504,-105.872508,,Precip,1/1/10,12/8/20,2020-12-15T22:33:44.9470000,in,3994
5344,US1COGR0009,TABERNASH 1.2 NW,CoCoRaHS,5,51,GRAND ,CO,426526.7,4428611.5,40.004511,-105.860807,,Precip,11/3/03,12/7/05,2013-08-08T07:39:21.5800000,in,765
5346,US1COGR0016,TABERNASH 1.9 W,CoCoRaHS,5,51,GRAND ,CO,426518.3,4428622.7,40.004609,-105.860914,,Precip,4/19/04,10/31/14,2019-08-13T15:37:51.5570000,in,3847
5352,US1COGR0005,TABERNASH 2.5 ENE,CoCoRaHS,5,51,GRAND ,CO,431820.6,4428762,40.006306,-105.798805,,Precip,2/15/03,12/2/20,2020-12-15T22:33:18.4500000,in,6500
5356,US1COGR0049,TABERNASH 5.9 WNW,CoCoRaHS,5,51,GRAND ,CO,418631.2,4429480,40.011606,-105.953412,,Precip,12/5/09,5/17/10,2015-01-28T14:15:10.5630000,in,163
5392,US1COGR0021,KREMMLING .27 WSW,CoCoRaHS,5,50,GRAND ,CO,381148,4435002.8,40.056908,-106.393511,,Precip,5/17/04,8/2/07,2013-08-08T07:39:21.5800000,in,1172
5397,US1COGR0045,KREMMLING 1.1 WNW,CoCoRaHS,5,50,GRAND ,CO,380923.3,4435361.6,40.06011,-106.396214,,Precip,8/3/07,12/26/18,2019-08-13T15:38:42.9800000,in,4163
5423,US1COGR0024,GRANBY .33 WNW,CoCoRaHS,5,51,GRAND ,CO,419412.4,4437941.5,40.087911,-105.945315,,Precip,4/21/04,5/25/14,2016-01-16T01:39:55.9930000,in,3686
5424,US1COGR0025,GRANBY .5 NW,CoCoRaHS,5,51,GRAND ,CO,419253,4438187.4,40.090103,-105.947211,,Precip,4/18/04,5/7/12,2015-01-28T14:15:10.5630000,in,2941
5426,US1COGR0052,PARSHALL 3.0 NNW,CoCoRaHS,5,51,GRAND ,CO,397703.3,4438558.5,40.091102,-106.200014,,Precip,11/19/09,12/12/20,2020-12-15T22:33:36.1500000,in,4041
5427,US1COGR0032,GRANBY 0.4 NNE,CoCoRaHS,5,51,GRAND ,CO,420074.6,4438478.4,40.092803,-105.937605,,Precip,8/29/04,11/30/05,2013-08-08T07:39:21.5800000,in,458
5438,US1COGR0029,KREMMLING 7.8 WNW,CoCoRaHS,5,50,GRAND ,CO,370718.5,4441790.7,40.116509,-106.517117,,Precip,6/11/04,12/13/20,2020-12-15T22:33:21.9670000,in,6029
5444,US1COGR0050,GRANBY 3.6 NE,CoCoRaHS,5,51,GRAND ,CO,424152.1,4442121.9,40.126007,-105.890212,,Precip,11/21/09,2/8/11,2015-01-28T14:15:10.5630000,in,444
5447,US1COGR0046,KREMMLING 10.0 NW,CoCoRaHS,5,50,GRAND ,CO,369493.7,4444421,40.140007,-106.532007,,Precip,10/11/09,11/24/20,2020-12-15T22:33:27.9430000,in,4062
5454,US1COGR0031,KREMMLING 12.5 NW,CoCoRaHS,5,50,GRAND ,CO,365210.6,4446994.3,40.162504,-106.582805,,Precip,9/20/04,11/28/05,2013-08-08T07:39:21.5800000,in,434
5455,US1COGR0003,KREMMLING 10.9 NW,CoCoRaHS,5,50,GRAND ,CO,368506.3,4446936.3,40.162504,-106.544114,,Precip,1/14/03,12/23/17,2019-08-13T15:37:32.0870000,in,5457
5461,US1COGR0039,GRANBY 6.3 NNE,CoCoRaHS,5,51,GRAND ,CO,423674.8,4447177.5,40.171511,-105.896408,,Precip,1/20/05,4/26/17,2019-08-13T15:38:16.5170000,in,4479
5468,US1COGR0026,GRANBY 8.2 N,CoCoRaHS,5,51,GRAND ,CO,419175.6,4450887.5,40.204511,-105.949706,,Precip,5/5/04,11/6/04,2013-08-08T07:39:21.5800000,in,185
5469,US1COGR0020,GRAND LAKE 4.1 SW,CoCoRaHS,5,51,GRAND ,CO,425993,4450851,40.204807,-105.86961,,Precip,4/19/04,1/9/05,2013-08-08T07:39:21.5800000,in,265
5474,US1COGR0041,GRAND LAKE 3.1 SW,CoCoRaHS,5,51,GRAND ,CO,426956.8,4451940.6,40.21471,-105.858408,,Precip,9/1/05,3/20/06,2013-08-08T07:39:21.5800000,in,200
5475,US1COGR0006,GRAND LAKE 2.9 SW,CoCoRaHS,5,51,GRAND ,CO,426799.9,4452441.6,40.21921,-105.86031,,Precip,2/23/03,4/16/06,2013-08-08T07:39:21.5800000,in,1148
5810,350,NATIVE GRASSES                ,NCWCD,5,51,GRAND,CO,417671.1,4440149.1,40.107624,-105.966016,,Precip,1/1/10,12/14/20,2020-12-15T21:20:47.7200000,in,4000
5811,352,SHADOW MOUNTAIN               ,NCWCD,5,51,GRAND,CO,428386.3,4451112.1,40.207366,-105.841524,,Precip,1/8/20,12/14/20,2020-12-15T21:21:27.4870000,in,341
5850,US1COEG0031,AVON 1.1 SE,CoCoRaHS,5,37,EAGLE ,CO,369756.8,4389202.4,39.642702,-106.517909,,Precip,12/27/11,11/30/19,2019-12-15T21:31:08.9730000,in,2895
5851,US1COEG0032,GYPSUM 1.5 SSW,CoCoRaHS,5,37,EAGLE ,CO,332353.8,4387638,39.622106,-106.953209,,Precip,1/5/12,4/9/15,2015-04-14T08:03:17.3970000,in,1190
5860,US1COGF0056,GLENWOOD SPRINGS 7.8 ESE,CoCoRaHS,5,38,GARFIELD ,CO,312091.5,4376976.8,39.521908,-107.186105,,Precip,10/30/12,10/31/14,2016-01-16T01:39:55.9930000,in,731
5862,US1COGN0055,MARBLE 1.5 W,CoCoRaHS,5,38,GUNNISON ,CO,308211.6,4327139.2,39.072304,-107.217007,,Precip,5/13/08,5/20/13,2015-01-28T14:15:10.5630000,in,1833
5880,US1COME0097,GRAND JUNCTION 0.6 WSW,CoCoRaHS,5,72,MESA ,CO,191745.2,4332135.1,39.083905,-108.563614,,Precip,12/1/12,5/11/17,2019-08-14T14:19:51.8300000,in,1622
5881,US1COME0086,GRAND JUNCTION 1.5 NW,CoCoRaHS,5,72,MESA ,CO,190725.9,4333976.5,39.100102,-108.57621,,Precip,8/1/12,7/25/17,2018-05-14T03:18:18.9400000,in,1819
5882,US1COME0079,GRAND JUNCTION 3.9 WSW,CoCoRaHS,5,72,MESA ,CO,186515.2,4331374.8,39.075207,-108.623613,,Precip,12/4/11,12/13/20,2020-12-15T23:48:53.0170000,in,3297
5883,US1COME0069,GRAND JUNCTION 4.0 W,CoCoRaHS,5,72,MESA ,CO,186177,4332889.4,39.088702,-108.628211,,Precip,1/1/12,12/13/20,2020-12-15T23:48:40.8430000,in,3269
5884,US1COME0081,GRAND JUNCTION 4.2 W,CoCoRaHS,5,72,MESA ,CO,185919.7,4332521.7,39.085309,-108.631008,,Precip,3/19/12,6/4/14,2016-01-16T01:39:55.9930000,in,807
5891,US1COPT0010,WOODY CREEK 1.3 SE,CoCoRaHS,5,38,PITKIN ,CO,339387.5,4348158.4,39.267902,-106.861805,,Precip,8/1/12,4/23/13,2015-01-27T07:10:56.9400000,in,265
5907,US1COSU0052,KEYSTONE 0.7 SW,CoCoRaHS,5,36,SUMMIT ,CO,416093.8,4383940.9,39.601107,-105.977308,,Precip,5/19/12,6/17/16,2019-08-14T15:04:39.3330000,in,1490
6391,US1COPT0006,GHCND:US1COPT0006,CoCoRaHS,5,38,PITKIN ,CO,342726.8,4339962.9,39.194707,-106.821208,,Precip,10/11/11,4/17/15,2019-08-14T14:41:05.4600000,in,1284
6412,US1COGF0054,GHCND:US1COGF0054,CoCoRaHS,5,39,GARFIELD ,CO,299359.8,4381261.9,39.557607,-107.335409,,Precip,9/8/12,8/6/13,2015-01-27T07:10:56.9400000,in,332
6413,US1COGF0061,GHCND:US1COGF0061,CoCoRaHS,5,39,GARFIELD ,CO,296754.5,4382240.9,39.565807,-107.366017,,Precip,12/15/12,5/26/14,2016-01-16T01:39:55.9930000,in,527
6414,US1COGF0060,GHCND:US1COGF0060,CoCoRaHS,5,38,GARFIELD ,CO,300865.5,4375624.9,39.507207,-107.316205,,Precip,1/1/13,12/13/20,2020-12-15T22:29:27.2770000,in,2903
6415,US1COME0099,GHCND:US1COME0099,CoCoRaHS,5,72,MESA ,CO,187912.2,4331196.8,39.074107,-108.607414,,Precip,12/9/12,4/26/13,2015-01-27T07:10:56.9400000,in,138
6416,US1COME0088,GHCND:US1COME0088,CoCoRaHS,5,72,MESA ,CO,187635.5,4329250.8,39.056507,-108.609705,,Precip,11/11/12,10/23/18,2019-08-14T14:19:18.5470000,in,2172
6417,US1COME0096,GHCND:US1COME0096,CoCoRaHS,5,72,MESA ,CO,185312.3,4329043.3,39.053803,-108.636415,,Precip,12/7/12,1/2/14,2016-01-16T01:39:55.9930000,in,391
6418,US1COME0091,GHCND:US1COME0091,CoCoRaHS,5,72,MESA ,CO,200375.9,4329644.2,39.064504,-108.46291,,Precip,12/6/12,9/9/20,2020-09-15T22:43:36.0530000,in,2834
6419,US1COME0101,GHCND:US1COME0101,CoCoRaHS,5,72,MESA ,CO,182644.2,4334677.3,39.103503,-108.669814,,Precip,1/16/13,12/26/15,2019-08-13T20:50:51.6630000,in,1074
6477,US1COEG0034,GHCND:US1COEG0034,CoCoRaHS,5,37,EAGLE ,CO,349307,4378072,39.539105,-106.753613,,Precip,4/6/13,11/13/14,2016-01-16T01:39:55.9930000,in,586
6481,US1COME0100,GHCND:US1COME0100,CoCoRaHS,5,72,MESA ,CO,195242,4327118,39.040009,-108.521013,,Precip,3/28/13,12/11/20,2020-12-15T23:49:19.4870000,in,2815
6482,US1COME0102,GHCND:US1COME0102,CoCoRaHS,5,72,MESA ,CO,193839,4326261,39.031811,-108.536809,,Precip,4/19/13,7/24/20,2020-08-15T22:32:07.3030000,in,2653
6483,US1COME0103,GHCND:US1COME0103,CoCoRaHS,5,72,MESA ,CO,186043,4332795,39.087808,-108.629714,,Precip,5/1/13,12/30/18,2019-08-14T14:20:36.7930000,in,2069
6484,US1COME0104,GHCND:US1COME0104,CoCoRaHS,5,72,MESA ,CO,184378,4328870,39.05191,-108.647108,,Precip,5/14/13,10/18/15,2019-08-14T14:20:42.3170000,in,887
6509,US1COGR0060,GHCND:US1COGR0060,CoCoRaHS,5,51,GRAND ,CO,428139,4427586,39.995407,-105.84181,,Precip,1/21/13,3/2/14,2016-01-16T01:39:55.9930000,in,405
6553,US1COGF0053,GHCND:US1COGF0053,CoCoRaHS,5,45,GARFIELD ,CO,299377,4380262,39.548608,-107.334909,,Precip,9/13/12,12/19/13,2015-01-27T07:10:56.9400000,in,462
6554,US1COME0105,GHCND:US1COME0105,CoCoRaHS,5,72,MESA ,CO,183583,4333683,39.094905,-108.658514,,Precip,6/26/13,10/8/17,2019-08-14T14:20:48.0670000,in,1565
6671,US1COME0106,GHCND:US1COME0106,CoCoRaHS,5,72,MESA ,CO,214212,4336688,39.13251,-108.306217,,Precip,7/23/13,12/13/20,2020-12-15T23:49:33.6570000,in,2700
6692,US1COEG0037,GHCND:US1COEG0037,CoCoRaHS,5,38,EAGLE ,CO,318618,4363661,39.403406,-107.106612,,Precip,10/6/13,12/12/20,2020-12-15T22:12:14.3030000,in,2624
6706,US1COME0111,GHCND:US1COME0111,CoCoRaHS,5,72,MESA ,CO,179346,4342151,39.169505,-108.711408,,Precip,9/14/13,11/2/14,2019-08-13T20:51:59.8230000,in,414
6708,US1COME0108,GHCND:US1COME0108,CoCoRaHS,5,72,MESA ,CO,192265,4336118,39.11991,-108.559416,,Precip,8/14/13,5/4/15,2017-01-14T03:50:30.5830000,in,628
6709,US1COME0109,GHCND:US1COME0109,CoCoRaHS,5,72,MESA ,CO,200163,4332232,39.087709,-108.466508,,Precip,8/24/13,9/22/17,2019-08-14T14:21:15.3800000,in,1490
6713,US1COSU0058,GHCND:US1COSU0058,CoCoRaHS,5,36,SUMMIT ,CO,388153,4414680,39.874807,-106.307907,,Precip,8/23/13,12/13/20,2020-12-16T00:27:21.1400000,in,2669
6732,US1COSU0062,GHCND:US1COSU0062,CoCoRaHS,5,36,SUMMIT ,CO,407157,4389838,39.65331,-106.082213,,Precip,9/8/13,12/12/20,2020-12-16T00:27:47.4000000,in,2652
6806,05J45S,Sawtooth,NRCS,5,51,GRAND,CO,436017,4432466,40.040004,-105.750014,,Precip,10/1/14,12/12/20,2020-12-16T01:57:07.6830000,in,2264
6876,US1COME0113,GHCND:US1COME0113,CoCoRaHS,5,72,MESA ,CO,192802,4336764,39.12591,-108.553508,,Precip,11/8/13,7/12/17,2019-08-14T14:21:43.4770000,in,1342
6877,US1COME0112,GHCND:US1COME0112,CoCoRaHS,5,72,MESA ,CO,186930,4328734,39.051605,-108.617611,,Precip,10/14/13,12/11/20,2020-12-15T23:49:45.2200000,in,2615
6890,US1COSU0061,GHCND:US1COSU0061,CoCoRaHS,5,36,SUMMIT ,CO,404791,4385826,39.616907,-106.109209,,Precip,5/26/13,12/13/20,2020-12-16T00:27:36.3300000,in,2758
6945,US1COME0093,GRAND JUNCTION 4.9 W,CoCoRaHS,5,72,MESA,CO,184883,4331740,39.077902,-108.642611,,Precip,12/6/12,5/8/17,2019-08-14T14:19:33.1900000,in,1614
7228,US1COPT0013,ASPEN 5.9 W,NRCS,5,49,PITKIN,CO,332804,4339369,39.1875,-106.9359,,Precip,6/1/14,9/14/14,2019-08-13T21:13:28.4070000,in,105
7233,US1COSU0066,SILVERTHORNE 1.2 NE,NRCS,5,59,SUMMIT,CO,408688,4390841,39.6625,-106.0645,,Precip,5/20/14,10/29/20,2020-12-16T00:27:51.9070000,in,2354
7234,US1COSU0067,BRECKENRIDGE 1.9 SSE,NRCS,5,59,SUMMIT,CO,411203,4370765,39.4819,-106.0325,,Precip,6/19/14,12/11/20,2020-12-16T00:27:56.8270000,in,2367
7317,US1COGF0067,GLENWOOD SPRINGS 7.0 NW,NRCS,5,23,GARFIELD,CO,292327,4388313,39.6194,-107.4194,,Precip,1/4/14,10/29/20,2020-12-15T22:29:33.4030000,in,2490
7323,US1COME0098,GRAND JUNCTION 2.4 SE,NRCS,5,39,MESA,CO,195310,4329539,39.0618,-108.5213,,Precip,10/10/14,12/23/14,2019-08-13T20:50:32.4970000,in,74
7324,US1COME0117,LOMA 0.9 E,NRCS,5,39,MESA,CO,171606,4346053,39.2017,-108.8027,,Precip,8/24/14,12/11/20,2020-12-15T23:49:55.1730000,in,2301
7358,US1COGF0069,CARBONDALE 0.3 WNW,NRCS,5,23,GARFIELD,CO,308891,4363328,39.3983,-107.2194,,Precip,11/1/14,6/28/16,2019-08-13T15:28:14.1770000,in,605
7364,CBL01,"CARBONDALE, CARBONDALE",CoAgMet,5,49,PITKIN,CO,309775,4359308,39.362301,-107.208,,Precip,5/8/15,2/28/17,2017-05-22T13:34:29.8970000,in,662
7367,SLT01,"SILT, SILT MESA",CoAgMet,5,23,GARFIELD,CO,268664,4383131,39.5667,-107.693001,,Precip,5/8/15,2/28/17,2017-05-22T13:34:29.8970000,in,662
7605,US1COGR0067,GRAND LAKE 1.5 WNW,NRCS,5,25,GRAND,CO,427985,4457081,40.2611,-105.8469,,Precip,4/18/15,8/10/16,2019-08-13T15:40:04.4770000,in,480
7622,US1COME0124,PALISADE 1.4 SE,NRCS,5,39,MESA,CO,211228,4332506,39.0939,-108.3389,,Precip,1/22/15,8/23/17,2019-08-14T14:22:05.9270000,in,944
7632,US1COPT0012,ASPEN 5.8 NW,NRCS,5,49,PITKIN,CO,335791,4346645,39.2536,-106.9031,,Precip,6/5/14,6/7/16,2019-08-14T14:41:07.7370000,in,733
7760,US1COGF0071,SILT 2.9 NNW,NRCS,5,23,GARFIELD,CO,270368,4385503,39.5885,-107.674,,Precip,7/4/15,12/11/20,2020-12-15T22:29:37.2870000,in,1987
7761,US1COGF0072,GLENWOOD SPRINGS 7.0 S,NRCS,5,23,GARFIELD,CO,300650,4368589,39.4438,-107.3166,,Precip,2/20/15,3/4/19,2019-08-13T15:28:48.4830000,in,1473
7762,US1COGF0073,GLENWOOD SPRINGS 7.2 S,NRCS,5,23,GARFIELD,CO,300788,4368252,39.4408,-107.3149,,Precip,8/27/15,12/12/20,2020-12-15T22:29:46.1330000,in,1934
7764,US1COGR0068,TABERNASH 2.7 NW,NRCS,5,25,GRAND,CO,424362,4428921,40.0071,-105.8862,,Precip,7/4/15,12/13/20,2020-12-15T22:33:53.7670000,in,1989
7776,US1COME0118,GRAND JUNCTION 4.1 ENE,NRCS,5,39,MESA,CO,199143,4333872,39.1021,-108.479,,Precip,9/22/14,12/13/20,2020-12-15T23:50:01.5170000,in,2274
7777,US1COME0125,GRAND JUNCTION 2.3 E,NRCS,5,39,MESA,CO,196470,4332407,39.088,-108.5092,,Precip,7/22/15,12/13/20,2020-12-15T23:50:09.2970000,in,1971
7812,US1COGR0070,GRAND LAKE 4.8 SSW,NRCS,5,25,GRAND,CO,425979,4449408,40.1918,-105.8696,,Precip,10/19/15,4/7/16,2019-08-13T15:40:30.2170000,in,171
8109,US1COEG0044,GYPSUM 0.4 WNW,CoCoRaHS,5,37,,CO,332299,4390249,39.645607,-106.954511,,Precip,3/12/16,10/10/18,2019-08-13T14:26:10.5900000,in,942
8110,US1COEG0045,EAGLE 5.8 SE,CoCoRaHS,5,37,,CO,349702,4384205,39.594409,-106.750407,,Precip,8/13/15,2/6/18,2019-08-13T14:26:14.7430000,in,908
8111,US1COEG0047,GYPSUM 2.5 ESE,CoCoRaHS,5,37,,CO,336721,4388655,39.632108,-106.902608,,Precip,5/29/16,12/11/20,2020-12-15T22:12:21.7100000,in,1657
8119,US1COGF0077,RIFLE 0.5 ENE,CoCoRaHS,5,39,,CO,262116,4380519,39.541405,-107.768216,,Precip,5/7/16,10/26/20,2020-11-15T22:20:55.0330000,in,1633
8120,US1COGF0078,NEW CASTLE 10.5 S,CoCoRaHS,5,45,,CO,283573,4368024,39.434603,-107.514705,,Precip,8/5/16,10/26/20,2020-11-15T22:20:58.8600000,in,1543
8121,US1COGF0079,RIFLE 0.5 WSW,CoCoRaHS,5,39,,CO,260419,4380149,39.537603,-107.787808,,Precip,5/27/16,12/18/18,2019-08-13T15:29:32.2430000,in,935
8122,US1COGN0065,MARBLE 1.0 WNW,CoCoRaHS,5,38,,CO,309111,4327439,39.075203,-107.206706,,Precip,4/14/16,12/6/17,2019-08-13T15:37:12.7070000,in,601
8123,US1COGR0073,GRANBY 7.7 N,CoCoRaHS,5,51,,CO,421204,4450333,40.199704,-105.925812,,Precip,10/5/16,12/13/20,2020-12-15T22:34:04.3470000,in,1530
8156,US1COME0127,GRAND JUNCTION 3.9 W,CoCoRaHS,5,72,,CO,186342,4332249,39.083005,-108.626012,,Precip,1/26/16,8/5/18,2019-08-14T14:22:22.8570000,in,922
8157,US1COME0133,COLLBRAN 4.6 SSE,CoCoRaHS,5,72,,CO,247684,4340772,39.179602,-107.921009,,Precip,2/11/16,12/13/20,2020-12-15T23:50:20.9600000,in,1767
8158,US1COME0135,GLADE PARK 1.4 NW,CoCoRaHS,5,72,,CO,175663,4325299,39.016609,-108.745916,,Precip,4/22/16,9/24/20,2020-10-15T22:30:21.3630000,in,1616
8159,US1COME0136,DE BEQUE 7.1 SSE,CoCoRaHS,5,72,,CO,227807,4348240,39.240802,-108.153814,,Precip,5/7/16,12/12/20,2020-12-15T23:50:38.8670000,in,1680
8160,US1COME0137,GRAND JUNCTION 3.6 W,CoCoRaHS,5,72,,CO,186921,4331992,39.080902,-108.619213,,Precip,5/16/16,12/13/20,2020-12-15T23:50:45.7730000,in,1672
8161,US1COME0139,FRUITA 1.2 NW,CoCoRaHS,5,72,,CO,176863,4342409,39.170907,-108.740214,,Precip,6/17/16,5/1/19,2019-08-14T14:22:59.4370000,in,1048
8162,US1COME0140,FRUITA 1.1 NNW,CoCoRaHS,5,72,,CO,177067,4342323,39.170209,-108.737816,,Precip,8/10/16,12/13/20,2020-12-15T23:51:03.1170000,in,1586
8163,US1COME0142,FRUITA 0.8 N,CoCoRaHS,5,72,,CO,178087,4342069,39.168303,-108.725913,,Precip,10/5/16,3/9/19,2019-08-14T14:23:08.5730000,in,885
8164,US1COME0143,GRAND JUNCTION 8.0 W,CoCoRaHS,5,72,,CO,180015,4334784,39.103505,-108.700206,,Precip,10/24/16,12/13/20,2020-12-15T23:51:24.8830000,in,1511
8165,US1COME0144,GRAND JUNCTION 0.6 E,CoCoRaHS,5,72,,CO,193625,4332562,39.088407,-108.542111,,Precip,11/27/16,4/4/19,2019-08-14T14:23:20.8270000,in,858
8289,US1COGR0072,FRASER 2.3 NW,CoCoRaHS,5,51,,CO,429175,4423358,39.957405,-105.829214,,Precip,8/28/16,9/25/18,2019-08-13T15:40:35.9170000,in,758
8300,US1COME0146,GRAND JUNCTION 0.9 W,CoCoRaHS,5,72,,CO,191281,4332676,39.088606,-108.569214,,Precip,5/13/17,12/4/20,2020-12-15T23:51:45.1630000,in,1301
8468,US1COME0148,GRAND JUNCTION 3.0 ESE,CoCoRaHS,5,72,,CO,197109,4330559,39.071607,-108.50101,,Precip,11/1/17,12/10/20,2020-12-15T23:52:02.9600000,in,1135
8607,US1COSU0069,SILVERTHORNE 1.0 NNE,CoCoRaHS,5,36,,CO,407774,4391151,39.665205,-106.075205,,Precip,12/4/17,12/13/20,2020-12-16T00:28:07.0230000,in,1105
8666,US1COGF0081,RIFLE 8.9 NE,CoCoRaHS,5,39,,CO,271719,4390173,39.630905,-107.659905,,Precip,4/7/18,12/13/20,2020-12-15T22:30:07.0170000,in,981
8667,US1COGR0074,GRANBY 1.2 N,CoCoRaHS,5,51,,CO,419988,4439967,40.106208,-105.93881,,Precip,5/3/18,10/13/18,2019-08-13T15:40:55.7270000,in,163
8809,US1COME0153,"CLIFTON 1.2 E, CO US",NOAA,5,72,,CO,202258.8,4330817.1,39.075699,-108.441697,User supplied,Precip,7/22/18,12/13/20,2020-12-15T23:52:14.7800000,in,875
8825,US1COGF0082,"GLENWOOD SPRINGS 5.9 SSE, CO US",NOAA,5,38,,CO,304079.8,4371366.1,39.469599,-107.277598,User supplied,Precip,5/14/17,12/11/20,2020-12-15T22:30:19.4300000,in,1307
8826,US1COME0131,"GRAND JUNCTION 0.9 NE, CO US",NOAA,5,72,,CO,193740.2,4333490.7,39.096803,-108.541202,User supplied,Precip,11/28/15,11/8/20,2020-12-15T23:50:14.9570000,in,1807
8827,US1COME0154,"GRAND JUNCTION 1.3 SSW, CO US",NOAA,5,72,,CO,192133.4,4330518.1,39.069499,-108.558405,User supplied,Precip,8/11/18,12/13/20,2020-12-15T23:52:25.0970000,in,855
8828,US1COME0160,"GRAND JUNCTION 1.3 W, CO US",NOAA,5,72,,CO,190585.1,4332358,39.0855,-108.577101,User supplied,Precip,11/3/18,12/13/20,2020-12-15T23:53:10.0200000,in,771
8839,US1COME0155,"PALISADE 0.5 WSW, CO US",NOAA,5,72,,CO,208860.6,4333826.7,39.105002,-108.366796,User supplied,Precip,8/22/18,12/13/20,2020-12-15T23:52:39.8470000,in,844
8991,US1COME0162,"REDLANDS 1.4 SSE, CO US",NOAA,5,72,,CO,184750.8,4330366.2,39.065498,-108.643498,User supplied,Precip,1/1/19,12/13/20,2020-12-15T23:53:26.3330000,in,712
9225,US1COGF0083,"BATTLEMENT MESA 0.8 WSW, CO US",NOAA,5,45,,CO,238510.5,4369656.3,39.436797,-108.038306,User supplied,Precip,2/5/19,5/25/20,2020-06-15T22:04:50.1170000,in,475
9231,US1COEG0051,"CARBONDALE 5.9 ENE, CO US",NOAA,5,38,,CO,318175.4,4366791.3,39.431497,-107.112605,User supplied,Precip,2/1/19,12/13/20,2020-12-15T22:12:29.6770000,in,681
9236,US1COEG0056,"EL JEBEL 0.2 ENE, CO US",NOAA,5,38,,CO,320361.4,4363375.5,39.401204,-107.086305,User supplied,Precip,4/4/19,8/25/20,2020-09-15T21:52:32.3670000,in,509
9244,US1COME0161,"FRUITA 3.9 ESE, CO US",NOAA,5,72,,CO,183151.7,4337347.2,39.127698,-108.665196,User supplied,Precip,12/18/18,5/9/19,2019-09-09T12:36:45.4000000,in,142
9246,US1COME0163,"GRAND JUNCTION 4.4 E, CO US",NOAA,5,72,,CO,199847.9,4332810,39.0928,-108.470399,User supplied,Precip,2/1/19,12/13/20,2020-12-15T23:53:37.2070000,in,681
9253,US1COME0159,"PALISADE 0.8 ESE, CO US",NOAA,5,72,,CO,210839.3,4333464.5,39.102395,-108.343804,User supplied,Precip,1/21/19,12/11/20,2020-12-15T23:53:01.2700000,in,690
9255,US1COPT0016,"REDSTONE 4.9 N, CO US",NOAA,5,38,,CO,307005.5,4346992.1,39.2508,-107.236594,User supplied,Precip,4/1/19,12/13/20,2020-12-16T00:13:26.5270000,in,622
9263,USC00057033,"RIFLE 3 ENE, CO US",NOAA,5,39,,CO,265788.9,4382161.8,39.557202,-107.726099,User supplied,Precip,5/15/18,11/26/20,2020-12-16T01:31:07.3530000,in,926
9300,US1COEG0052,"EDWARDS 0.5 E, CO US",NOAA,5,37,,CO,363454.4,4389999.3,39.648898,-106.591505,User supplied,Precip,4/21/19,12/13/20,2020-12-15T22:12:36.1300000,in,602
9306,US1COME0157,"FRUITA 1.6 SSE, CO US",NOAA,5,72,,CO,179188,4338473.3,39.136374,-108.711493,User supplied,Precip,10/8/18,11/24/20,2020-12-15T23:52:50.4400000,in,778
9307,US1COGF0075,"GLENWOOD SPRINGS 5.0 SSE, CO US",NOAA,5,38,,CO,302344.1,4372277.3,39.477405,-107.298034,User supplied,Precip,5/23/19,12/9/20,2020-12-15T22:29:50.7300000,in,566
9312,USC00055519,"MESA 5 SSE, CO US",NOAA,5,72,,CO,230295.7,4331290.3,39.089068,-108.118267,User supplied,Precip,6/1/19,12/12/20,2020-12-16T01:23:30.5970000,in,560
9315,US1COME0169,"ORCHARD MESA 1.5 NW, CO US",NOAA,5,72,,CO,193395.9,4328113.4,39.048312,-108.54275,User supplied,Precip,5/21/19,12/13/20,2020-12-15T23:53:45.6470000,in,572
9321,US1COPT0017,"REDSTONE 1.2 SW, CO US",NOAA,5,38,,CO,306052.8,4337819.8,39.168001,-107.244998,User supplied,Precip,6/12/19,12/13/20,2020-12-16T00:13:32.9630000,in,550
9324,US1COGR0076,"TABERNASH 4.1 WNW, CO US",NOAA,5,51,,CO,420996.9,4427381.9,39.992931,-105.925438,User supplied,Precip,5/29/19,12/11/20,2020-12-15T22:34:10.3070000,in,562
9327,US1COEG0053,"VAIL 3.5 E, CO US",NOAA,5,37,,CO,389152.3,4387786,39.63268,-106.291694,User supplied,Precip,4/1/19,12/13/20,2020-12-15T22:12:42.2430000,in,622
9533,US1COGF0090,"BATTLEMENT MESA 0.9 WNW, CO US",NOAA,5,45,,CO,238578.4,4370954.3,39.448497,-108.038025,User supplied,Precip,5/29/20,12/12/20,2020-12-15T22:30:43.3230000,in,197
9548,US1COGF0085,"CARBONDALE 0.7 NNW, CO US",NOAA,5,38,,CO,309140.6,4364331.7,39.407403,-107.216796,User supplied,Precip,6/27/19,12/10/20,2020-12-15T22:30:31.6970000,in,532
9549,US1COPT0015,"CARBONDALE 10.0 S, CO US",NOAA,5,38,,CO,306989.7,4347265.9,39.253263,-107.236858,User supplied,Precip,4/9/19,12/12/20,2020-12-16T00:13:20.2700000,in,613
9569,US1COEG0061,"EDWARDS 2.9 WSW, CO US",NOAA,5,37,,CO,358381.7,4388485.8,39.634446,-106.650274,User supplied,Precip,5/20/20,12/13/20,2020-12-15T22:12:57.2130000,in,207
9570,US1COEG0062,"EDWARDS 3.9 SW, CO US",NOAA,5,37,,CO,357432.2,4386692,39.61813,-106.660954,User supplied,Precip,5/20/20,12/13/20,2020-12-15T22:13:00.2970000,in,207
9571,US1COEG0055,"EL JEBEL 0.8 W, CO US",NOAA,5,38,,CO,318797,4363418.2,39.401256,-107.104469,User supplied,Precip,4/9/19,12/13/20,2020-12-15T22:12:46.7700000,in,614
9586,US1COME0175,"FRUITA 0.7 NE, CO US",NOAA,5,72,,CO,178871.2,4341441.6,39.162955,-108.71656,User supplied,Precip,6/11/20,12/13/20,2020-12-15T23:53:58.1300000,in,185
9587,US1COME0172,"FRUITA 1.1 NW, CO US",NOAA,5,72,,CO,176774,4342173.9,39.168761,-108.74113,User supplied,Precip,3/28/20,12/13/20,2020-12-15T23:53:52.3500000,in,260
9588,US1COGF0089,"GLENWOOD SPRINGS 0.8 S, CO US",NOAA,5,38,,CO,299754.8,4378551.9,39.533301,-107.329998,User supplied,Precip,3/11/20,12/13/20,2020-12-15T22:30:39.0230000,in,277
9589,US1COGF0088,"GLENWOOD SPRINGS 5.9 S, CO US",NOAA,5,38,,CO,300773.1,4370423,39.46035,-107.315731,User supplied,Precip,5/10/20,12/13/20,2020-12-15T22:30:35.1170000,in,217
9592,US1COME0158,"GRAND JUNCTION 3.6 ESE, CO US",NOAA,5,72,,CO,198031.8,4330125.7,39.068032,-108.490168,User supplied,Precip,12/4/18,11/19/19,2020-12-15T23:52:52.8000000,in,350
9593,US1COME0164,"GRAND JUNCTION 4.0 SSE, CO US",NOAA,5,72,,CO,195850.5,4326815.5,39.037504,-108.513866,User supplied,Precip,3/25/19,11/23/20,2020-12-15T23:53:41.3500000,in,609
9596,US1COEG0064,"GYPSUM 3.2 SE, CO US",NOAA,5,37,,CO,337243.3,4388405.6,39.629965,-106.896467,User supplied,Precip,5/18/20,12/13/20,2020-12-15T22:13:04.1600000,in,209
9599,US1COGR0077,"KREMMLING 9.1 WNW, CO US",NOAA,5,50,,CO,369233.3,4440731.8,40.106742,-106.534323,User supplied,Precip,3/8/20,12/13/20,2020-12-15T22:34:12.9770000,in,280
9612,US1COME0176,"ORCHARD MESA 0.3 NNW, CO US",NOAA,5,72,,CO,194960.5,4326816.4,39.037194,-108.52413,User supplied,Precip,6/24/20,12/13/20,2020-12-15T23:54:02.9430000,in,172
9619,US1COME0170,"PALISADE 0.2 ENE, CO US",NOAA,5,72,,CO,209894.5,4334146.7,39.108225,-108.355005,User supplied,Precip,3/5/20,12/13/20,2020-12-15T23:53:47.7870000,in,283
35,USC00051741,COLLBRAN,NOAA,5,72,MESA ,CO,244278.6,4347872.7,39.242509,-107.963066,User supplied,Snow,1893-01-01,12/31/99,2013-08-08T07:41:24.4230000,in,40000
36,USC00051745,COLLBRAN 3 ENE,NOAA,5,72,MESA ,CO,246871.8,4348621.6,39.25001,-107.933339,User supplied,Snow,1/11/68,1/31/70,2013-03-29T15:47:48.0770000,in,751
37,USC00051772,COLORADO NATL MONUMENT,NOAA,5,72,MESA ,CO,177098.1,4334659,39.101306,-108.733812,User supplied,Snow,3/1/40,4/7/18,2018-05-14T03:18:51.3300000,in,28526
56,USC00052121,DE BEQUE,NOAA,5,70,MESA ,CO,222745.6,4358703.4,39.333332,-108.216676,User supplied,Snow,12/1/51,6/30/54,2013-03-29T15:47:48.0770000,in,942
57,USC00050214,ALTENBERN,NOAA,5,70,GARFIELD ,CO,209278,4377635,39.499206,-108.380907,User supplied,Snow,7/1/47,3/31/18,2018-05-14T03:18:51.3300000,in,25841
66,USC00052281,DILLON 1 E,NOAA,5,36,SUMMIT ,CO,411146,4386771.3,39.626103,-106.035311,,Snow,1893-01-10,5/12/18,2018-05-14T03:18:51.3300000,in,40000
74,USW00023063,EAGLE COUNTY AP,NOAA,5,37,EAGLE ,CO,335555.6,4390667.3,39.650004,-106.916676,User supplied,Snow,7/1/04,2/3/09,2015-01-28T14:16:02.2030000,in,38203
115,USC00053113,FRASER,NOAA,5,51,GRAND ,CO,428814.9,4422540.2,39.950005,-105.833339,User supplied,Snow,7/1/08,5/31/74,2013-03-29T15:47:48.0770000,in,24075
116,USC00053116,FRASER,NOAA,5,51,GRAND ,CO,430185.2,4421695,39.942507,-105.817212,User supplied,Snow,5/1/89,5/10/18,2018-05-14T03:18:51.3300000,in,10601
118,USC00053146,FRUITA 1 W,NOAA,5,72,MESA ,CO,177797,4339433,39.144493,-108.72801,User supplied,Snow,1893-01-01,4/7/18,2018-05-14T03:18:51.3300000,in,46690
126,USC00053345,GLEN MAR,NOAA,5,51,GRAND ,CO,412942.9,4404203.7,39.783339,-106.016679,User supplied,Snow,7/1/47,5/31/51,2013-03-29T15:47:48.0770000,in,1430
127,USC00053359,GLENWOOD SPGS #2,NOAA,5,38,GARFIELD ,CO,300810.4,4376826,39.518006,-107.317215,User supplied,Snow,1893-09-01,3/31/18,2018-05-14T03:18:51.3300000,in,46690
128,USC00053423,GORE PASS RANCH,NOAA,5,50,GRAND ,CO,375077.5,4445437,40.150006,-106.466675,User supplied,Snow,6/1/57,12/31/63,2013-03-29T15:47:48.0770000,in,2404
133,USW00023066,GRAND JUNCTION WALKER FIELD,NOAA,5,72,MESA ,CO,194005.1,4337639.4,39.134203,-108.540012,User supplied,Snow,1/1/00,5/11/18,2018-05-14T03:18:51.3300000,in,43230
134,USC00053489,GRAND JUNCTION 6 ESE,NOAA,5,72,MESA ,CO,199987.2,4327179.8,39.042208,-108.466314,User supplied,Snow,3/26/62,5/10/18,2018-05-14T03:18:51.3300000,in,20499
135,USC00053496,GRAND LAKE 1 NW,NOAA,5,51,GRAND ,CO,429240.6,4457713.3,40.266903,-105.832205,User supplied,Snow,10/1/07,5/11/18,2018-05-14T03:18:51.3300000,in,40400
136,USC00053500,GRAND LAKE 6 SSW,NOAA,5,51,GRAND ,CO,426226.7,4448639.6,40.18491,-105.866607,User supplied,Snow,8/1/48,12/29/10,2015-02-10T13:12:17.6870000,in,22795
137,USC00053508,GRAND VALLEY,NOAA,5,39,GARFIELD ,CO,237552.1,4371156.4,39.450003,-108.050012,User supplied,Snow,12/3/04,5/31/81,2013-08-08T07:41:24.4230000,in,27938
147,USC00053592,GREEN MT DAM,NOAA,5,36,SUMMIT ,CO,385987.3,4415167.1,39.878906,-106.333314,User supplied,Snow,7/1/39,5/8/18,2018-05-14T03:18:51.3300000,in,28801
155,USC00050370,ASPEN,NOAA,5,38,PITKIN ,CO,341653.7,4338722.1,39.183335,-106.833337,User supplied,Snow,1899-09-01,11/30/79,2013-08-08T07:41:24.4230000,in,40000
156,USC00050372,ASPEN 1 SW,NOAA,5,38,PITKIN ,CO,341254.5,4338937.8,39.185208,-106.838017,User supplied,Snow,7/1/80,3/31/18,2018-05-14T03:18:51.3300000,in,13787
167,USC00050405,AVON,NOAA,5,37,EAGLE ,CO,369844.8,4388160.7,39.633339,-106.516679,User supplied,Snow,8/1/81,10/31/89,2013-08-08T07:41:24.4230000,in,3013
171,USC00054129,HOT SULPHUR SPRINGS,NOAA,5,51,GRAND ,CO,401906.8,4433940.2,40.050004,-106.150008,User supplied,Snow,12/1/41,6/30/81,2013-08-08T07:41:24.4230000,in,14456
178,USC00054270,INDEPENDENCE PASS,NOAA,5,38,PITKIN ,CO,360170.2,4327267.8,39.083338,-106.616683,User supplied,Snow,7/1/47,1/31/80,2013-08-08T07:41:24.4230000,in,11902
189,USC00054512,KEYSTONE 5 E,NOAA,5,36,SUMMIT ,CO,425080.5,4382708.5,39.590832,-105.872516,User supplied,Snow,11/1/94,10/31/97,2013-08-08T07:41:24.4230000,in,1095
