wdid,structureName,streamMile,latitude,longitude,adminNumber,netAbsolute
3600501,ABBETT AND BENNETT DITCH,4.04,39.91757,-106.420881,12167,3.5
3600502,ABBETT AND LOSER DITCH,4.04,39.917368,-106.424153,16329,2
3600507,ALBER DITCH,0.55,39.782148,-106.170772,12950,1
3600507,ALBER DITCH,0.55,39.782148,-106.170772,13301,1.37
3600507,ALBER DITCH,0.55,39.782148,-106.170772,17806,1
3600507,ALBER DITCH,0.55,39.782148,-106.170772,22964.21102,2.13
3600507,ALBER DITCH,0.55,39.782148,-106.170772,30184.23162,5.5
3600508,BENSON DITCH (BRUSH CREEK),0.92,39.808995,-106.205304,11962,0
3600508,BENSON DITCH (BRUSH CREEK),0.92,39.808995,-106.205304,32075.15249,0
3600514,BEAVER CREEK NO 1 DITCH,0.1,39.873543,-106.345183,19879,3
3600516,BEAVER HEAD DITCH,0.45,39.51447,-106.058011,30184.30071,3
3600517,BELL DITCH,0.61,39.916815,-106.354489,14776,0.2
3600517,BELL DITCH,0.61,39.916815,-106.354489,16223,1
3600517,BELL DITCH,0.61,39.916815,-106.354489,32075.16223,3.93
3600519,BELL NO 2 DITCH,0.1,39.921058,-106.346873,14786,0.3
3600520,BELLS BLUE RIVER DITCH,12.51,39.912833,-106.340593,17319,2
3600520,BELLS BLUE RIVER DITCH,12.51,39.912833,-106.340593,32075.17319,0.5
3600521,BENSON DITCH,0.5,39.737878,-106.142329,19905,3.17
3600521,BENSON DITCH,0.5,39.737878,-106.142329,50649,1
3600522,BENTON CREEK NO 1 DITCH,2.01,39.965011,-106.398176,32075.22924,4.25
3600523,BENTON CREEK NO 2 DITCH,1.11,39.966047,-106.393689,32075.20026,2.2
3600526,BLACK CREEK DITCH,1.3,39.840604,-106.255155,14397,3.5
3600526,BLACK CREEK DITCH,1.3,39.840604,-106.255155,32075.14397,3.3
3600529,BLUE DANUBE NO 2 DITCH,50.45,39.552447,-106.0422,29022.25372,6.109
3600530,BLUE RIVER IRRIGATION DITCH,30.94,39.768421,-106.153283,13058,1.55
3600531,MOSER PUMP NO. 1,29.8,39.782737,-106.161498,23660.19502,0.5
3600532,BLUE VALLEY RANCH NORTH SPRUCE CREEK DIVERSION,1.89,39.942524,-106.390625,54421.54391,0.75
3600534,BLUE VALLEY DITCH,0.86,39.730476,-106.115998,23296.20675,2
3600535,BOBO DITCH,43.64,39.629687,-106.0713,36219,6
3600535,BOBO DITCH,43.64,39.629687,-106.0713,36738,1.63
3600536,BOBO STRAIT SPRINGS,,39.647406,-106.074662,32075.19601,3
3600538,BRADDOCK DITCH,52.85,39.52381,-106.048403,14371,0.08
3600540,BROWN ACORN DITCH,2.05,39.763325,-106.115104,13282,0.7
3600540,BROWN ACORN DITCH,2.05,39.763325,-106.115104,32075.17897,10.38
3600541,BRUSH CREEK DITCH,1.31,39.798704,-106.210708,11840,3.5
3600541,BRUSH CREEK DITCH,1.31,39.798704,-106.210708,32075.17167,9.6
3600542,BUFFALO DITCH,1.07,39.65025,-106.095289,16557,3.5
3600542,BUFFALO DITCH,1.07,39.65025,-106.095289,32075.24411,2.98
3600545,BUMGARNER NO 1 DITCH,3.51,39.972447,-106.431127,32075.22933,4.58
3600546,BUMGARNER NO 2 DITCH,3.49,39.976468,-106.43011,32075.2207,4.58
3600553,CARWOOD DITCH,1.18,39.564345,-106.085927,15088,1.9995
3600553,CARWOOD DITCH,1.18,39.564345,-106.085927,30184.15088,0.222
3600553,CARWOOD DITCH,1.18,39.564345,-106.085927,30184.22644,1.428
3600555,CATARACT CREEK NO 2 DITCH,0.94,39.856768,-106.287176,14397,2
3600567,CLANCEY DITCH,0.77,39.845619,-106.220859,14397,2
3600568,CLEAR CREEK DITCH HDG 1,2.16,39.889274,-106.24844,34071,6.18
3600569,C M OMER DITCH,1.52,39.807085,-106.139303,12934,3
3600569,C M OMER DITCH,1.52,39.807085,-106.139303,22964.22786,0
3600570,COLUMBUS DITCH (HDG 1),0.5,39.71548,-106.157709,36707,2
3600570,COLUMBUS DITCH (HDG 1),0.5,39.71548,-106.157709,48212.47999,4
3600570,COLUMBUS DITCH (HDG 1),0.5,39.71548,-106.157709,50702,0
3600571,COLUMBINE DITCH,4.82,39.730649,-106.214534,19546,5
3600575,COULTER NO 1 DITCH,3.46,39.960678,-106.421784,24757.19966,0.75
3600576,COULTER NO 2 DITCH,2.33,39.963679,-106.413604,24757.23124,0.25
3600577,COW CAMP DITCH,1.43,39.893591,-106.284684,17319,2
3600578,COW CAMP CREEK DITCH NO 2,1.31,39.892026,-106.285192,34073,3.58
3600579,CRYSTAL CREEK DITCH,0.97,39.437256,-106.072227,30280,0
3600580,MILL CREEK DIVERSION NO 1,6.99,39.605433,-105.943426,32075.23588,0.1
3600580,MILL CREEK DIVERSION NO 1,6.99,39.605433,-105.943426,55882.50228,0.5
3600581,CURRAN DITCH,0.5,39.717618,-106.148341,22964.20336,1.2
3600581,CURRAN DITCH,0.5,39.717618,-106.148341,52133,2.4
3600584,D D DITCH,0.29,39.721918,-106.129803,33119,1.4537
3600588,DERCUM DITCH,8.1,39.607732,-105.926404,32075.23588,3.19
3600589,DILLON DITCH,1.81,39.610285,-106.089103,32515,10
3600589,DILLON DITCH,1.81,39.610285,-106.089103,33289,0
3600589,DILLON DITCH,1.81,39.610285,-106.089103,52587,0
3600589,DILLON DITCH,1.81,39.610285,-106.089103,57688,0
3600589,DILLON DITCH,1.81,39.610285,-106.089103,57708.57688,0
3600589,DILLON DITCH,1.81,39.610285,-106.089103,58059,0
3600589,DILLON DITCH,1.81,39.610285,-106.089103,61349,0
3600591,DOMESTIC SUPPLY DITCH,2.04,39.769998,-106.111744,13282,0.55
3600591,DOMESTIC SUPPLY DITCH,2.04,39.769998,-106.111744,32075.17897,3.25
3600593,DRY CREEK DITCH - HEADGATE NO 1,0.24,40.017656,-106.388904,36370,2
3600594,DRY CREEK NO 1 DITCH,2.11,40.010222,-106.420984,36438,6
3600595,DRY CREEK NO 2 DITCH,1.68,40.009663,-106.412115,32075.22065,3
3600596,DRY CREEK NO 3 DITCH,1.35,40.01279,-106.407634,36438,2
3600597,DUSING NO 1 DITCH,0.85,39.781176,-106.175158,12221,1.31
3600597,DUSING NO 1 DITCH,0.85,39.781176,-106.175158,20615,0
3600597,DUSING NO 1 DITCH,0.85,39.781176,-106.175158,23620,0
3600597,DUSING NO 1 DITCH,0.85,39.781176,-106.175158,25715.24262,0
3600597,DUSING NO 1 DITCH,0.85,39.781176,-106.175158,32075.25566,0
3600603,ED WARD DITCH,37.63,39.702608,-106.106556,19239,3.5
3600603,ED WARD DITCH,37.63,39.702608,-106.106556,20228,1.25
3600603,ED WARD DITCH,37.63,39.702608,-106.106556,32075.20228,6.21
3600603,ED WARD DITCH,37.63,39.702608,-106.106556,32075.25707,6.02
3600603,ED WARD DITCH,37.63,39.702608,-106.106556,50753,0
3600606,ELLIOTT CREEK FEEDER,0.6,39.876806,-106.341926,31258,90
3600609,EMMETT DITCH NO 3,1.86,39.804112,-106.220837,18140,0
3600609,EMMETT DITCH NO 3,1.86,39.804112,-106.220837,23900,2
3600609,EMMETT DITCH NO 3,1.86,39.804112,-106.220837,30184.20269,3.66
3600609,EMMETT DITCH NO 3,1.86,39.804112,-106.220837,32075.20453,0
3600610,EMMA SPERRY DITCH,0.4,39.816281,-106.203807,18547,0.5
3600611,EMMET BRUSH CREEK NO 1 DITCH,1.48,39.805523,-106.214262,12554,0
3600611,EMMET BRUSH CREEK NO 1 DITCH,1.48,39.805523,-106.214262,16622,0.33
3600612,EMMETS BRUSH CREEK NO 1 ENLARGEMENT DITCH,3.78,39.788726,-106.236693,32075.22829,10
3600613,EMMET BRUSH CREEK NO 2 DITCH,1.29,39.806226,-106.21077,12554,1.35
3600613,EMMET BRUSH CREEK NO 2 DITCH,1.29,39.806226,-106.21077,16622,0
3600613,EMMET BRUSH CREEK NO 2 DITCH,1.29,39.806226,-106.21077,32075.22829,0
3600614,ENGLE DITCH,2.02,39.964889,-106.406744,33870,4.13
3600617,FAMINE CREEK DITCH,1.29,39.687635,-106.120556,11840,5
3600618,FISH DITCH,0.01,39.71886,-106.104891,18195,5.25
3600623,FORSLUND DITCH,1.78,39.800494,-106.131567,12905,1
3600625,FREMONT NO 1 DITCH (S FK),18.46,39.389982,-106.180749,29228.28284,20
3600629,FRISCO TOWN DITCH (NEW),0.63,39.576401,-106.121965,19897,3.34
3600631,F W S DITCH,0.93,39.808897,-106.205186,16602,2
3600633,GARDEN DITCH,1.93,39.832219,-106.254044,18507,0.75
3600633,GARDEN DITCH,1.93,39.832219,-106.254044,32075.18507,2.75
3600634,GIBERSON DITCH,1.03,39.566734,-106.086756,23296.224,4
3600637,GILBERT DITCH,0.24,39.713112,-106.108672,14062,1.5
3600640,GOULD DITCH,1.2,39.734555,-106.113357,15166,1.75
3600640,GOULD DITCH,1.2,39.734555,-106.113357,32075.20088,1.57
3600641,GRAFF DITCH,1.25,39.651279,-106.09893,14792,2
3600642,GREEN MOUNTAIN CANAL,30.25,39.777168,-106.158847,19617,0
3600642,GREEN MOUNTAIN CANAL,30.25,39.777168,-106.158847,49673.49466,10
3600642,GREEN MOUNTAIN CANAL,30.25,39.777168,-106.158847,49798,3
3600642,GREEN MOUNTAIN CANAL,30.25,39.777168,-106.158847,52230.49466,10
3600642,GREEN MOUNTAIN CANAL,30.25,39.777168,-106.158847,53325.49773,3
3600643,GRIGGS DITCH,1.25,39.988431,-106.392528,11443,6
3600644,GUTHRIE BROS DITCH,1.35,39.851592,-106.290809,19124,2.5
3600644,GUTHRIE BROS DITCH,1.35,39.851592,-106.290809,20593,1.5
3600645,GUTHRIE THOMAS DITCH,3.5,39.83886,-106.350303,17288,5
3600645,GUTHRIE THOMAS DITCH,3.5,39.83886,-106.350303,19919,2.5
3600645,GUTHRIE THOMAS DITCH,3.5,39.83886,-106.350303,20294,2.5
3600645,GUTHRIE THOMAS DITCH,3.5,39.83886,-106.350303,21975.20392,10
3600645,GUTHRIE THOMAS DITCH,3.5,39.83886,-106.350303,32075.23878,14
3600645,GUTHRIE THOMAS DITCH,3.5,39.83886,-106.350303,33846,3.38
3600646,GUYSELMAN DITCH,2.85,39.837185,-106.306982,19875,3
3600646,GUYSELMAN DITCH,2.85,39.837185,-106.306982,32293,3.8
3600647,GUYSELMAN NO 2 DITCH,2.52,39.839716,-106.30218,18414,1
3600647,GUYSELMAN NO 2 DITCH,2.52,39.839716,-106.30218,32075.31197,2.02
3600649,HAMILTON DAVIDSON DITCH,1.56,39.772571,-106.178713,14093,0
3600649,HAMILTON DAVIDSON DITCH,1.56,39.772571,-106.178713,19180,4
3600649,HAMILTON DAVIDSON DITCH,1.56,39.772571,-106.178713,20615,4
3600649,HAMILTON DAVIDSON DITCH,1.56,39.772571,-106.178713,23296.22888,8
3600649,HAMILTON DAVIDSON DITCH,1.56,39.772571,-106.178713,32075.2366,22
3600649,HAMILTON DAVIDSON DITCH,1.56,39.772571,-106.178713,32075.30102,12.39
3600651,HEIL NO 1 DITCH,0,39.985432,-106.444703,20011,4
3600652,HEIL NO 2 DITCH,3.83,39.981955,-106.436689,20011,1.5
3600653,HEIL NO 3 DITCH,3.84,39.980807,-106.437005,32075.20605,3.02
3600654,HERBERT DITCH,1.01,39.779583,-106.17763,23498,2
3600655,HERBERT NO 2 DITCH,0.8,39.779738,-106.173043,23620,1
3600656,HIGH DITCH (SPRUCE CR),3.68,39.92135,-106.411692,12249,5
3600658,HIGHLINE DITCH,1.25,39.652806,-106.104165,23296.22431,3.4
3600658,HIGHLINE DITCH,1.25,39.652806,-106.104165,36311,6.48
3600659,HIGHLINE DITCH (SLATE CREEK),1.36,39.775171,-106.180018,49673.47786,3
3600660,HIGH MILLER DITCH,28.69,39.795954,-106.163356,12936,6
3600660,HIGH MILLER DITCH,28.69,39.795954,-106.163356,30184.18262,2
3600660,HIGH MILLER DITCH,28.69,39.795954,-106.163356,30184.23526,17.1
3600660,HIGH MILLER DITCH,28.69,39.795954,-106.163356,56593,0
3600662,HOAGLAND CANAL (ELLIOT),2.05,39.857663,-106.346416,22964.22029,25
3600665,HOMESTEAD DITCH,1.1,39.566525,-106.097463,30184.16801,5.48
3600666,CONTER DITCH,2.83,39.800424,-106.124861,58439.55882,0
3600670,INDEPENDENT DITCH,0.75,39.738134,-106.146535,20223,6
3600670,INDEPENDENT DITCH,0.75,39.738134,-106.146535,32075.28424,9
3600671,INDEPENDENT BLUE DITCH,33.99,39.736587,-106.13338,14397,1.5
3600671,INDEPENDENT BLUE DITCH,33.99,39.736587,-106.13338,14884,0.65
3600671,INDEPENDENT BLUE DITCH,33.99,39.736587,-106.13338,22965.22564,3
3600671,INDEPENDENT BLUE DITCH,33.99,39.736587,-106.13338,32075.2578,2
3600671,INDEPENDENT BLUE DITCH,33.99,39.736587,-106.13338,32075.31166,18.8
3600671,INDEPENDENT BLUE DITCH,33.99,39.736587,-106.13338,35929,15
3600675,INTAKE DITCH,6.1,39.9646,-106.431841,35016,3.02
3600678,J F R DITCH,1.71,39.722267,-106.163761,22964.21725,1.5
3600683,KEYSTONE DITCH,0.61,39.594865,-105.97276,18779,3.68
3600683,KEYSTONE DITCH,0.61,39.594865,-105.97276,32075.25018,2.36
3600683,KEYSTONE DITCH,0.61,39.594865,-105.97276,32309,5
3600687,KIRKWOOD DITCH,1.89,39.768842,-106.181311,9324,3.25
3600687,KIRKWOOD DITCH,1.89,39.768842,-106.181311,32075.09324,13.4
3600689,KNORR NO 1 DITCH,0.4,39.85276,-106.254137,15522,3.58
3600689,KNORR NO 1 DITCH,0.4,39.85276,-106.254137,18079,3
3600691,KUMNIG NO 1 DITCH,2.82,39.826362,-106.279656,10423,1.5
3600691,KUMNIG NO 1 DITCH,2.82,39.826362,-106.279656,11849,2
3600691,KUMNIG NO 1 DITCH,2.82,39.826362,-106.279656,13423,0.5
3600691,KUMNIG NO 1 DITCH,2.82,39.826362,-106.279656,13666,0.4
3600691,KUMNIG NO 1 DITCH,2.82,39.826362,-106.279656,14093,0.2
3600691,KUMNIG NO 1 DITCH,2.82,39.826362,-106.279656,15310,0.4
3600691,KUMNIG NO 1 DITCH,2.82,39.826362,-106.279656,17683,0.4
3600691,KUMNIG NO 1 DITCH,2.82,39.826362,-106.279656,18414,1.25
3600696,KUMNIG KNORR DITCH,0.81,39.846911,-106.255094,18450,5
3600697,LAWSON DITCH,1.94,39.968353,-106.328516,14397,1
3600699,LEE BROTHERS BEAVER CREEK DITCH NO 1,1.79,39.860664,-106.34478,16235,4
3600702,LILLIAN DITCH,1.37,39.839601,-106.254622,19548,5
3600702,LILLIAN DITCH,1.37,39.839601,-106.254622,32075.19548,3.42
3600704,LINDSTROM DITCH,0.37,39.801404,-106.156205,12905,0.6
3600705,LINDSTROM NO 1 DITCH,29.59,39.785072,-106.161386,31208,6
3600706,LINDSTROM NO 2 DITCH,0.36,39.801267,-106.156402,12905,2
3600709,LOBACK DITCH,3.57,40.012809,-106.383603,30184.29584,18.33
3600709,LOBACK DITCH,3.57,40.012809,-106.383603,32075.11444,3
3600709,LOBACK DITCH,3.57,40.012809,-106.383603,32075.18262,17.85
3600709,LOBACK DITCH,3.57,40.012809,-106.383603,45290.45144,36.62
3600711,LOFGREN PIPELINE,16.18,39.870658,-106.321847,34943,0.004
3600714,LOWLINE NO 1 DITCH,0.42,39.650091,-106.083398,14903,2.5
3600714,LOWLINE NO 1 DITCH,0.42,39.650091,-106.083398,55790,0
3600715,LOWLINE NO 2 DITCH HGT 2,0.07,39.650785,-106.077523,32075.19539,0
3600717,LUND BLUE RIVER DITCH,39.8,39.675889,-106.093747,13270,2.75
3600717,LUND BLUE RIVER DITCH,39.8,39.675889,-106.093747,48364,0
3600718,LUSHER DITCH,0.53,39.576356,-106.120101,16954,0.36
3600720,MARSHALL NO 1 DITCH,1.52,39.770642,-106.122543,12250,0.6
3600720,MARSHALL NO 1 DITCH,1.52,39.770642,-106.122543,32075.17897,3.6
3600721,MARSHALL NO 2 DITCH,1.5,39.769952,-106.123945,12203,2
3600722,MARSHALL NO 3 DITCH,1.12,39.767041,-106.131439,15127,0.35
3600723,MARSHALL NO 4 DITCH,1.46,39.765188,-106.125572,15279,0.15
3600724,MARSHALL NO 5 DITCH,1.78,39.764225,-106.11987,14549,0.25
3600725,MARY DITCH,2.94,39.822724,-106.255635,19523,1
3600725,MARY DITCH,2.94,39.822724,-106.255635,32075.2283,4.8
3600725,MARY DITCH,2.94,39.822724,-106.255635,37421,2.2
3600726,MARYLAND NO 1 DITCH,1.25,39.66195,-106.145239,7122,5
3600726,MARYLAND NO 1 DITCH,1.25,39.66195,-106.145239,7122,10.5
3600727,MARYLAND NO 2 DITCH,1.25,39.654798,-106.11344,8916,5
3600728,MAT NO 1 DITCH,2.37,39.827779,-106.25637,18515,3
3600728,MAT NO 1 DITCH,2.37,39.827779,-106.25637,32075.22837,1.5
3600728,MAT NO 1 DITCH,2.37,39.827779,-106.25637,37407,6.53
3600729,MAT NO 2 DITCH,2.53,39.826886,-106.254811,19510,3
3600729,MAT NO 2 DITCH,2.53,39.826886,-106.254811,32075.22844,3.8
3600729,MAT NO 2 DITCH,2.53,39.826886,-106.254811,37416,3.4
3600730,MAY DITCH,2.1,39.732476,-106.16727,19853,4
3600730,MAY DITCH,2.1,39.732476,-106.16727,32075.19853,4
3600730,MAY DITCH,2.1,39.732476,-106.16727,36330,4
3600733,MCDONALD DITCH,0.98,39.844633,-106.255018,18392,3
3600733,MCDONALD DITCH,0.98,39.844633,-106.255018,32075.20301,6.33
3600734,MCKAY DITCH,40.18,39.671486,-106.089539,32075.28032,18.67
3600739,MEXICAN CREEK DITCH,4.5,39.60576,-105.983256,44559.3068,0.111
3600741,MIDDLE BARTON NO 1 DITCH,1.77,39.513845,-106.08186,33439,5.6
3600742,MIDDLE BARTON NO 2 DITCH,1.34,39.515152,-106.074005,33439,5.6
3600743,MILLER NO 1 DITCH,0.17,39.810939,-106.172148,17349,1
3600743,MILLER NO 1 DITCH,0.17,39.810939,-106.172148,19141,0
3600744,MILLER DITCH,0.79,39.819307,-106.169603,16617,1
3600746,MILLER NO 2 DITCH,0.73,39.848083,-106.255045,30184.12174,2.5
3600746,MILLER NO 2 DITCH,0.73,39.848083,-106.255045,32075.29401,4.3
3600749,MINIE DITCH,27.63,39.807158,-106.168252,19141,1.65
3600752,MONTEZUMA TOWN PIPELINE,12.87,39.581287,-105.863209,20253,10
3600758,NOONEN DITCH,1.45,39.989208,-106.396081,32075.12784,4.02
3600759,NORTH ACORN DITCH HDG 1,1.85,39.774518,-106.113907,12965,0.6
3600759,NORTH ACORN DITCH HDG 1,1.85,39.774518,-106.113907,32075.17897,2.71
3600763,OLD WHETSTONE SHEEP CREEK DITCH,0.29,39.700906,-106.114064,12235,1
3600764,OTTER CREEK NO 1 DITCH,0.68,39.852165,-106.268282,13011,1
3600765,PALMER-MCKINLEY DITCH,27.61,39.807316,-106.168675,17046,5
3600765,PALMER-MCKINLEY DITCH,27.61,39.807316,-106.168675,19141,0
3600765,PALMER-MCKINLEY DITCH,27.61,39.807316,-106.168675,32075.27539,9.87
3600766,PASS CREEK NO 1 DITCH,1.59,39.807053,-106.138018,12905,1
3600766,PASS CREEK NO 1 DITCH,1.59,39.807053,-106.138018,22964.22786,0
3600767,PEABODY NO 1 DITCH,2.9,39.725539,-106.177923,19866,3.61
3600767,PEABODY NO 1 DITCH,2.9,39.725539,-106.177923,19866,0
3600767,PEABODY NO 1 DITCH,2.9,39.725539,-106.177923,23875,0.49
3600768,PEABODY NO 2 DITCH,1.74,39.736067,-106.163142,19866,2.25
3600770,PEABODY SUTTON DITCH,1.86,39.867639,-106.390515,19906,4.25
3600771,PEERLESS DITCH,0.2,39.767926,-106.147764,30184.26125,2.5
3600775,PHARO DITCH,9,39.952846,-106.358173,11443,0
3600775,PHARO DITCH,9,39.952846,-106.358173,14703,5.25
3600775,PHARO DITCH,9,39.952846,-106.358173,30254,0
3600775,PHARO DITCH,9,39.952846,-106.358173,31697,0
3600775,PHARO DITCH,9,39.952846,-106.358173,53325.52868,12
3600776,PHARO BAUER DITCH,8.05,39.96344,-106.359062,11443,8
3600776,PHARO BAUER DITCH,8.05,39.96344,-106.359062,13650,0
3600776,PHARO BAUER DITCH,8.05,39.96344,-106.359062,19570,1.25
3600776,PHARO BAUER DITCH,8.05,39.96344,-106.359062,30254,0
3600776,PHARO BAUER DITCH,8.05,39.96344,-106.359062,31697,0
3600776,PHARO BAUER DITCH,8.05,39.96344,-106.359062,53325.52868,30
3600777,PHARO BAUER NO 1 DITCH,6.9,39.97726,-106.363704,11443,0
3600777,PHARO BAUER NO 1 DITCH,6.9,39.97726,-106.363704,13650,4
3600777,PHARO BAUER NO 1 DITCH,6.9,39.97726,-106.363704,19570,0
3600777,PHARO BAUER NO 1 DITCH,6.9,39.97726,-106.363704,30254,3
3600777,PHARO BAUER NO 1 DITCH,6.9,39.97726,-106.363704,31697,1
3600777,PHARO BAUER NO 1 DITCH,6.9,39.97726,-106.363704,53325.52868,10
3600780,PLUNGER DITCH,32.49,39.758106,-106.131223,19601,1.1
3600780,PLUNGER DITCH,32.49,39.758106,-106.131223,30184.26125,0
3600780,PLUNGER DITCH,32.49,39.758106,-106.131223,30184.30107,5.9
3600780,PLUNGER DITCH,32.49,39.758106,-106.131223,35915,12
3600780,PLUNGER DITCH,32.49,39.758106,-106.131223,60753,0
3600780,PLUNGER DITCH,32.49,39.758106,-106.131223,61965.60753,0
3600782,POLLY ABBETT DITCH,4.04,39.917639,-106.423363,12570,1
3600783,QUAKEN ASP DITCH,1.29,39.734852,-106.111541,18718,1
3600783,QUAKEN ASP DITCH,1.29,39.734852,-106.111541,32075.27393,1.32
3600784,RANKIN NO 1 DITCH,2.67,39.644615,-106.026602,12191,3.5
3600789,R H LEE NO 2 DITCH,15.93,39.869391,-106.327108,20240,1
3600790,RICE DITCH,3.67,39.601232,-105.995503,54421.53497,1.06
3600791,ROBERTS IRRIGATING DITCH,0.37,39.737477,-106.139988,30184.16527,8.4
3600791,ROBERTS IRRIGATING DITCH,0.37,39.737477,-106.139988,30184.20453,1.16
3600793,RUBY DITCH,0.97,39.649698,-106.093567,32276,1
3600794,RUTH DITCH,1.25,39.647795,-106.101463,25715.21335,3
3600795,SARAH DITCH,3.78,39.789083,-106.241208,23900,4
3600795,SARAH DITCH,3.78,39.789083,-106.241208,56611,0
3600796,SAUMS DITCH,0.57,39.813949,-106.203732,13259,3.25
3600796,SAUMS DITCH,0.57,39.813949,-106.203732,32075.20453,13.79
3600797,SAWMILL DITCH,1.25,39.63514,-106.112402,30184.24957,6
3600797,SAWMILL DITCH,1.25,39.63514,-106.112402,47389,0.33
3600800,SLATE CREEK DITCH,1.22,39.777235,-106.179902,14093,13.4
3600800,SLATE CREEK DITCH,1.22,39.777235,-106.179902,20615,8
3600800,SLATE CREEK DITCH,1.22,39.777235,-106.179902,25715.24262,2
3600800,SLATE CREEK DITCH,1.22,39.777235,-106.179902,32075.25566,4
3600801,SMITH DITCH,1.59,39.879022,-106.389376,15157,15
3600801,SMITH DITCH,1.59,39.879022,-106.389376,18871,15
3600802,SMITH NO 1 DITCH,1.58,39.888342,-106.398056,32075.15157,5
3600803,SMITH NO 2 DITCH,1.59,39.86779,-106.387688,18940,15
3600803,SMITH NO 2 DITCH,1.59,39.86779,-106.387688,32075.1894,15
3600805,SNAKE RIVER DITCH,6.73,39.604312,-105.947654,18181,0.575
3600806,CURRAN NO 2 DITCH DIV NO 1,0.5,39.71909,-106.137936,32075.25402,1.374
3600810,SONDREGGER DITCH,1.33,39.684944,-106.078287,12296,3.5
3600811,SONDREGGER NO 2 DITCH,0.62,39.676904,-106.083514,14731,0.22
3600811,SONDREGGER NO 2 DITCH,0.62,39.676904,-106.083514,32075.21914,3.48
3600812,SONDREGGER NO 3 DITCH,0.28,39.675713,-106.089418,18885,0.75
3600812,SONDREGGER NO 3 DITCH,0.28,39.675713,-106.089418,32075.24241,5.73
3600813,SONDREGGER NO 4 DITCH,0.91,39.679108,-106.079001,12296,0
3600813,SONDREGGER NO 4 DITCH,0.91,39.679108,-106.079001,32075.23861,6.48
3600814,SONDREGGER NO 5 DITCH,1.97,39.688584,-106.065679,32075.18809,5.25
3600815,SOUTH ACORN DITCH,1.96,39.763208,-106.11697,15493,0.4
3600815,SOUTH ACORN DITCH,1.96,39.763208,-106.11697,32075.17897,2.66
3600816,SOUTH ROCK CREEK DITCH,0.5,39.689449,-106.151536,31233,8
3600818,SPERRY DITCH,1.5,39.806121,-106.21481,12205,1
3600818,SPERRY DITCH,1.5,39.806121,-106.21481,53112,0
3600819,F W SPERRY DITCH,1.31,39.806545,-106.211266,11962,2
3600819,F W SPERRY DITCH,1.31,39.806545,-106.211266,12205,0
3600819,F W SPERRY DITCH,1.31,39.806545,-106.211266,32075.15249,4.34
3600820,SPRING CREEK NO 1 DITCH,1.88,39.910217,-106.375441,32075.2024,7.42
3600821,SPRING CREEK NO 2 DITCH,1.44,39.910707,-106.367519,32075.2024,2.09
3600822,SPRING CREEK NO 3 DITCH,1.08,39.913679,-106.362301,32075.2024,7.42
3600824,CURRAN NO 2 DITCH DIV NO 2,0.5,39.719568,-106.134198,32075.25402,1.374
3600826,STAFFORD DITCH,0,39.934428,-106.317011,12205,1
3600827,STAFFORD BLUE RIVER DITCH,12.65,39.911017,-106.341775,15219,2.5
3600827,STAFFORD BLUE RIVER DITCH,12.65,39.911017,-106.341775,32075.15219,3.5
3600827,STAFFORD BLUE RIVER DITCH,12.65,39.911017,-106.341775,32075.17319,2
3600828,STAFFORD GREEN MTN DITCH,0,39.924316,-106.312593,12199,1
3600829,STRAIGHT CREEK DITCH,2.62,39.644498,-106.027649,18005,3.5
3600829,STRAIGHT CREEK DITCH,2.62,39.644498,-106.027649,52960.52067,0
3600830,SUPPLY CANAL NO 1 CLINTON,18.46,39.41517,-106.174994,31272,20
3600832,SUTTON NO 1 DITCH,1.85,39.856758,-106.366003,16223,12.5
3600838,SWANSON ORO GRANDE DITCH,2.59,39.644071,-106.028074,30184.26478,4
3600845,TOWN RESERVOIR FEEDER DITCH,1.03,39.473168,-106.060873,13087,15.3
3600847,TREMBLAY NO 2 DITCH,2.38,39.796106,-106.12747,22964.22777,0
3600849,UTE CREEK NO 1,0.91,39.798542,-106.189774,11110,1
3600850,UTE CREEK NO 2,0.87,39.799058,-106.189514,11114,1
3600851,UTE CREEK NO 3,1.15,39.795505,-106.191625,17363,1.25
3600852,VENDETT DITCH,0.75,39.681179,-106.112592,20534,1.5
3600854,VALAER DITCH,44.42,39.621783,-106.066681,33289,1.44
3600854,VALAER DITCH,44.42,39.621783,-106.066681,50702,0
3600856,VALIER NO 2 DITCH,0.71,39.649265,-106.08884,32075.2651,0
3600856,VALIER NO 2 DITCH,0.71,39.649265,-106.08884,36437,0
3600857,VIE DITCH,1.86,39.804021,-106.220835,18140,0.85
3600857,VIE DITCH,1.86,39.804021,-106.220835,32075.20453,8.72
3600858,WAHLSTROM NO 1 DITCH HGT 1,2.06,39.743355,-106.171387,32075.19546,2
3600859,WAHLSTROM NO 2 DITCH,1.67,39.747307,-106.167182,32075.19546,2
3600860,WAHLSTROM NO 3 DITCH,0.89,39.755317,-106.158224,32075.19546,3
3600861,WAHLSTROM NO 4 DITCH,0.57,39.758832,-106.154419,32075.19546,2
3600862,WAHLSTROM NO 5 DITCH,0.33,39.761482,-106.15165,32075.19546,3
3600863,WARD NO 2 DITCH,0.42,39.723038,-106.09854,23296.21009,4
3600863,WARD NO 2 DITCH,0.42,39.723038,-106.09854,32075.21009,3.98
3600868,WESTLAKE DITCH,0.93,39.856933,-106.286922,14397,5.07
3600868,WESTLAKE DITCH,0.93,39.856933,-106.286922,14929,4
3600868,WESTLAKE DITCH,0.93,39.856933,-106.286922,16588,2
3600868,WESTLAKE DITCH,0.93,39.856933,-106.286922,19413,3
3600868,WESTLAKE DITCH,0.93,39.856933,-106.286922,20696,2
3600869,WEST TENMILE DITCH,1.8,39.500469,-106.164415,33306,0
3600871,WHATLEY NO 1 DITCH,0.95,39.52115,-106.066489,30184.2278,0
3600871,WHATLEY NO 1 DITCH,0.95,39.52115,-106.066489,30184.23619,0
3600871,WHATLEY NO 1 DITCH,0.95,39.52115,-106.066489,30184.23875,0
3600871,WHATLEY NO 1 DITCH,0.95,39.52115,-106.066489,30184.23892,0
3600871,WHATLEY NO 1 DITCH,0.95,39.52115,-106.066489,30184.23953,4
3600872,WHATLEY NO 2 DITCH,0.95,39.525941,-106.067726,30184.2278,1
3600872,WHATLEY NO 2 DITCH,0.95,39.525941,-106.067726,30184.23619,0
3600872,WHATLEY NO 2 DITCH,0.95,39.525941,-106.067726,30184.23875,0
3600872,WHATLEY NO 2 DITCH,0.95,39.525941,-106.067726,30184.23892,0
3600872,WHATLEY NO 2 DITCH,0.95,39.525941,-106.067726,30184.23953,0
3600873,WHATLEY NO 3 DITCH,1.44,39.519621,-106.076924,30184.2278,0
3600873,WHATLEY NO 3 DITCH,1.44,39.519621,-106.076924,30184.23619,0
3600873,WHATLEY NO 3 DITCH,1.44,39.519621,-106.076924,30184.23875,1
3600873,WHATLEY NO 3 DITCH,1.44,39.519621,-106.076924,30184.23892,0
3600873,WHATLEY NO 3 DITCH,1.44,39.519621,-106.076924,30184.23953,0
3600874,WHATLEY NO 4 DITCH,0.92,39.525312,-106.065587,30184.2278,0
3600874,WHATLEY NO 4 DITCH,0.92,39.525312,-106.065587,30184.23619,1
3600874,WHATLEY NO 4 DITCH,0.92,39.525312,-106.065587,30184.23875,0
3600874,WHATLEY NO 4 DITCH,0.92,39.525312,-106.065587,30184.23892,0
3600874,WHATLEY NO 4 DITCH,0.92,39.525312,-106.065587,30184.23953,0
3600875,WHATLEY NO 5 DITCH,0.88,39.521637,-106.064519,30184.2278,0
3600875,WHATLEY NO 5 DITCH,0.88,39.521637,-106.064519,30184.23619,0
3600875,WHATLEY NO 5 DITCH,0.88,39.521637,-106.064519,30184.23875,0
3600875,WHATLEY NO 5 DITCH,0.88,39.521637,-106.064519,30184.23892,1
3600875,WHATLEY NO 5 DITCH,0.88,39.521637,-106.064519,30184.23953,0
3600876,WILLIAMSON DITCH,10.94,39.929388,-106.354128,31563,3.51
3600876,WILLIAMSON DITCH,10.94,39.929388,-106.354128,32075.17319,1.49
3600881,GREEN MTN HYDRO-ELECTRIC,15.56,39.878686,-106.33283,31258,1726
3600883,BEAR TRAP SPRING,,39.98251,-106.445625,44925.22279,0.0067
3600885,BLUE RIVER GALLERY & PIPELINE,58.55,39.455766,-106.031133,39334,1.86
3600887,BREWER MINE SPRING NO 1,,39.464527,-106.001434,44194.4366,0
3600888,BREWER SPRING NO 2,,39.46763,-105.996331,44194.4366,0
3600889,BUFFALO MOUNTAIN GALLERY,43.84,39.626805,-106.072187,33289,0
3600889,BUFFALO MOUNTAIN GALLERY,43.84,39.626805,-106.072187,43831,2.637
3600891,BVR NO 1 SPG & COLL SYS,,39.945049,-106.308365,44559.43707,0.132
3600892,CARPENTER SPRING,,39.98003,-106.426202,44925.22279,0.0067
3600893,CHICAGO LODE TUNNEL SPG,,39.530511,-106.132329,44559.43798,0.015
3600895,CORONET SPG AND PL,,39.428859,-106.031363,41035,1.39
3600896,COX SPRING,,39.96952,-106.429532,44925.22279,0.0264
3600897,CULBREATH DITCH NO 1,0.36,39.844164,-106.228091,45446,1
3600898,CULBREATH DITCH NO 2,0.38,39.844168,-106.227741,45446,1
3600900,FRIDAY TUNNEL,4.04,39.486211,-105.981256,44787,0.033
3600902,HAWK SPRING,,39.761006,-106.133208,45630,0.018
3600903,HIGH DITCH,7.82,39.955273,-106.425442,45210,2
3600906,KEYSTONE MUNICIPAL DIV 1,4.56,39.601812,-105.980288,44559.44502,0
3600907,KEYSTONE MUNICIPAL DIV 2,11.36,39.597622,-105.875408,44559.4452,0
3600908,KEYSTONE SNOWLINE DITCH,6.46,39.606727,-105.951586,43785,0
3600908,KEYSTONE SNOWLINE DITCH,6.46,39.606727,-105.951586,44528,0
3600908,KEYSTONE SNOWLINE DITCH,6.46,39.606727,-105.951586,44925.44721,2.5
3600908,KEYSTONE SNOWLINE DITCH,6.46,39.606727,-105.951586,47847.47116,3.7
3600908,KEYSTONE SNOWLINE DITCH,6.46,39.606727,-105.951586,47968,1.1
3600908,KEYSTONE SNOWLINE DITCH,6.46,39.606727,-105.951586,48965,0
3600908,KEYSTONE SNOWLINE DITCH,6.46,39.606727,-105.951586,49563,0
3600909,KITZMILLER PIPELINE,23.13,39.833259,-106.224169,43220,0.01
3600912,TIGER RUN - BLUE RIVER DIVERSION,51.42,39.540059,-106.041084,29022.25372,0.33
3600912,TIGER RUN - BLUE RIVER DIVERSION,51.42,39.540059,-106.041084,29022.25372,19.55
3600912,TIGER RUN - BLUE RIVER DIVERSION,51.42,39.540059,-106.041084,56978.47982,0.11
3600912,TIGER RUN - BLUE RIVER DIVERSION,51.42,39.540059,-106.041084,57096,0
3600913,MEYERS SPRING NO 1,,39.965713,-106.437286,44925.22279,0.044
3600914,MEYERS SPRING NO 2,,39.967296,-106.44541,44925.22279,0.0067
3600915,PLANDEL PIPELINE,18.64,39.860388,-106.292189,42145,0.0222
3600916,PLYMOUTH SPRING,,39.585849,-105.87004,44559.36797,0.066
3600918,REVETTE SPRINGS,,39.53881,-106.028532,44925.17897,1.017
3600920,SAN TOY SPRING NO 1,,39.995993,-106.438049,44925.22279,0.1
3600921,SAN TOY SPRING NO 2,,39.990676,-106.434459,44925.22279,0.0067
3600922,SELLKE SPRING NO 1,,39.759828,-106.132194,44559.42733,0.017
3600923,SELLKE SPRING NO 2,,39.761157,-106.132499,44559.42733,0.016
3600924,SELLKE SPRING NO 3,,39.760323,-106.132112,44559.42733,0.022
3600926,TIGER RUN - SWAN RIVER DIVERSION 1,0.22,39.544594,-106.037707,29022.25372,0.33
3600926,TIGER RUN - SWAN RIVER DIVERSION 1,0.22,39.544594,-106.037707,29022.25372,24.55
3600926,TIGER RUN - SWAN RIVER DIVERSION 1,0.22,39.544594,-106.037707,56978.47982,0.11
3600926,TIGER RUN - SWAN RIVER DIVERSION 1,0.22,39.544594,-106.037707,57096,0.055
3600929,THIRTY NINE DEG N P&PL,64.05,39.392133,-106.048392,44559.42749,0.288
3600931,VER PLOEG SPRING,,39.553227,-106.038592,45290.41484,0.011
3600932,VIDLER TUNNEL DIV PT 1,5.64,39.623591,-105.792266,22965.22564,0
3600932,VIDLER TUNNEL DIV PT 1,5.64,39.623591,-105.792266,30951,0
3600932,VIDLER TUNNEL DIV PT 1,5.64,39.623591,-105.792266,32075.2578,0
3600934,WILLOW HILLS PIPELINE,18.64,39.861268,-106.291656,45926,0.025
3600934,WILLOW HILLS PIPELINE,18.64,39.861268,-106.291656,46020.45926,0.025
3600935,YUST SPRING NO 1,,40.002136,-106.390482,44559.11475,0.6
3600936,B AND L DITCH,0.54,39.494402,-106.055288,37324.29005,5
3600936,B AND L DITCH,0.54,39.494402,-106.055288,51864.49093,2
3600937,BLUE RIVER PARK PUMP STATION,44.3,39.623468,-106.066648,47775,0.4
3600938,KEYSTONE LAKE DITCH,5.57,39.605681,-105.964723,47481.45169,10
3600940,WHATLEY SPRING NO 2,,39.523576,-106.062544,48212.32506,0.044
3600941,HAMILTON CREEK DIVERSION,41.24,39.667365,-106.066647,48212.47643,0.15
3600943,KEYSTONE HYDRO POWER PROJECT,3,39.566206,-105.954047,48577.48036,0
3600944,SILVER CREEK PIPELINE,13.38,39.573642,-105.855314,48212.20279,1
3600945,HOAGLAND CANAL (SPRUCE),2.11,39.932981,-106.387015,12167,0
3600945,HOAGLAND CANAL (SPRUCE),2.11,39.932981,-106.387015,12249,0
3600945,HOAGLAND CANAL (SPRUCE),2.11,39.932981,-106.387015,12570,0
3600945,HOAGLAND CANAL (SPRUCE),2.11,39.932981,-106.387015,16329,0
3600945,HOAGLAND CANAL (SPRUCE),2.11,39.932981,-106.387015,22964.22029,5
3600946,HOAGLAND CANAL (BENTON),7.47,39.971087,-106.378277,22964.22029,3
3600946,HOAGLAND CANAL (BENTON),7.47,39.971087,-106.378277,24757.19966,0
3600946,HOAGLAND CANAL (BENTON),7.47,39.971087,-106.378277,24757.23124,0
3600946,HOAGLAND CANAL (BENTON),7.47,39.971087,-106.378277,32075.20026,0
3600946,HOAGLAND CANAL (BENTON),7.47,39.971087,-106.378277,32075.22924,0
3600946,HOAGLAND CANAL (BENTON),7.47,39.971087,-106.378277,33870,0
3600947,PEAK SEVEN PIPELINE,2.03,39.504186,-106.078023,44559.43402,0
3600947,PEAK SEVEN PIPELINE,2.03,39.504186,-106.078023,44925.44651,0
3600948,CHIYO HORIUCHI SPG NO 1,,39.422003,-106.04147,47035,0.033
3600949,FURMAN SEEPAGE & SPRINGS,,39.634001,-106.081259,47481.11116,0.1
3600950,HALLDORSON PIPELINE,16.67,39.871628,-106.306981,32354,0.119
3600950,HALLDORSON PIPELINE,16.67,39.871628,-106.306981,47116.46963,0.11
3600950,HALLDORSON PIPELINE,16.67,39.871628,-106.306981,47847.44559,0.18
3600953,LYNNE HORIUCHI SPG NO 3,,39.422003,-106.04147,47035,0.033
3600954,MAKOTO HORIUCHI SPG NO 2,,39.422003,-106.04147,47035,0.033
3600956,SPRING CREEK RANCH SPRING 1,,39.912106,-106.381021,47847,0
3600957,SPRING CREEK RANCH SPRING 2,,39.912158,-106.39049,47847,0
3600958,SPRING CREEK RANCH SPRING 3,,39.897601,-106.376243,47847,0
3600959,SPRING CREEK RANCH SPRING 4,,39.897626,-106.380981,47847,0
3600961,SWEETWATER DITCH,17.53,39.872129,-106.305716,47116.46933,1.2
3600962,WHITEFLOWER SPG & DITCH,,39.872273,-106.305724,47116.46933,0.2
3600963,BRECKENRIDGE RESERVOIR NO 2 FEEDER DITCH,0.03,39.475183,-106.047254,13027,12
3600963,BRECKENRIDGE RESERVOIR NO 2 FEEDER DITCH,0.03,39.475183,-106.047254,13027,6.776
3600964,BRECKENRIDGE RESERVOIR NO 1 FEEDER DITCH,0.04,39.473811,-106.058453,13027,12
3600964,BRECKENRIDGE RESERVOIR NO 1 FEEDER DITCH,0.04,39.473811,-106.058453,13027,5
3600966,NEW KUMNIG DITCH,2.53,39.832436,-106.300593,10423,0.5
3600966,NEW KUMNIG DITCH,2.53,39.832436,-106.300593,12327,0.35
3600966,NEW KUMNIG DITCH,2.53,39.832436,-106.300593,13011,2
3600966,NEW KUMNIG DITCH,2.53,39.832436,-106.300593,14020,0.87
3600966,NEW KUMNIG DITCH,2.53,39.832436,-106.300593,14032,3.5
3600966,NEW KUMNIG DITCH,2.53,39.832436,-106.300593,19492,0.333
3600982,TIGER RUN - SWAN RIVER DIVERSION 2,0.49,39.541217,-106.035492,29022.25372,0.23
3600982,TIGER RUN - SWAN RIVER DIVERSION 2,0.49,39.541217,-106.035492,29022.25372,15
3600982,TIGER RUN - SWAN RIVER DIVERSION 2,0.49,39.541217,-106.035492,56978.47982,0.11
3600982,TIGER RUN - SWAN RIVER DIVERSION 2,0.49,39.541217,-106.035492,57096,0.055
3600985,BLUE VALLEY RANCH HYDRO,8.06,39.963362,-106.358803,48212.47915,129
3600988,STOCK POND DITCH HDG A,1.25,39.651489,-106.099586,32075.24411,2.02
3600988,STOCK POND DITCH HDG A,1.25,39.651489,-106.099586,36437,3.75
3600988,STOCK POND DITCH HDG A,1.25,39.651489,-106.099586,51361,1
3600989,BRECKENRIDGE PIPELINE - AP,56.47,39.475256,-106.047186,47481.47131,0
3600991,INDEPENDENT BLUE (ACORN),0.91,39.769561,-106.134551,14397,0
3600991,INDEPENDENT BLUE (ACORN),0.91,39.769561,-106.134551,14793,0
3600991,INDEPENDENT BLUE (ACORN),0.91,39.769561,-106.134551,14884,0
3600991,INDEPENDENT BLUE (ACORN),0.91,39.769561,-106.134551,22965.22553,0
3600999,SPRING CREEK PIPELINE,2.29,39.911211,-106.382785,45290.28854,0.11
3601001,VALAER DITCH HDG 2,0.2,39.624557,-106.071663,33289,4.16
3601002,CLEAR CREEK DITCH HDG 2,2.56,39.89452,-106.25243,34071,0
3601003,CLEAR CREEK DITCH HDG 3,2.48,39.89484,-106.254459,34071,0
3601004,CLEAR CREEK DITCH HDG 4,1.44,39.887474,-106.276441,34071,0
3601005,DRY CREEK DITCH - HEADGATE NO 2,3.02,40.017993,-106.384844,36370,0
3601006,COLUMBUS DITCH (HDG 2),1.21,39.722912,-106.154263,48212.47999,3
3601008,BRECKENRIDGE PIPELINE,58.55,39.455547,-106.031443,47483,0
3601008,BRECKENRIDGE PIPELINE,58.55,39.455547,-106.031443,48577.47483,0
3601008,BRECKENRIDGE PIPELINE,58.55,39.455547,-106.031443,52067,0
3601009,SWAN RIVER WATER SYSTEM,1.32,39.531177,-106.028699,47847.4767,2.45
3601009,SWAN RIVER WATER SYSTEM,1.32,39.531177,-106.028699,47847.4767,0
3601009,SWAN RIVER WATER SYSTEM,1.32,39.531177,-106.028699,47905,0
3601009,SWAN RIVER WATER SYSTEM,1.32,39.531177,-106.028699,48577.4767,0
3601009,SWAN RIVER WATER SYSTEM,1.32,39.531177,-106.028699,52067,0
3601010,YONLEY I SPRING,,39.582224,-105.870141,49673.33237,0.001
3601011,KEYSTONE DITCH (MUNI),0.5,39.596382,-105.973468,47481.45169,0
3601012,LUSHER DITCH - DOT PLACER,62.02,39.415427,-106.0432,11146,0.2817
3601014,STRAIGHT CREEK CONDUIT PT 1 - ROBERTS TUNNEL,2.97,39.646899,-106.022055,39102,0
3601015,STRAIGHT CREEK CONDUIT PT 2 - ROBERTS TUNNEL,1.78,39.639258,-106.041369,39102,0
3601017,GIBERSON HIGHLINE DITCH,2.67,39.591004,-106.108074,17349,1
3601017,GIBERSON HIGHLINE DITCH,2.67,39.591004,-106.108074,30184.20269,2
3601017,GIBERSON HIGHLINE DITCH,2.67,39.591004,-106.108074,30184.23192,4
3601017,GIBERSON HIGHLINE DITCH,2.67,39.591004,-106.108074,30184.29036,3.5
3601018,HOAGLAND CANAL (DEEP CR),1.39,39.886683,-106.364094,22964.22029,25
3601019,HOAGLAND CANAL (SPRING),1.24,39.906001,-106.357107,22964.22029,2
3601020,HOAGLAND CANAL (CAMP CK),0.94,39.963901,-106.375697,22964.22029,0.5
3601021,KEYSTONE DITCH - EAST LATERAL,0.24,39.599558,-105.976098,32075.25018,2.36
3601023,LOWLINE NO 2 DITCH HDG 1,42.2,39.648279,-106.076715,33860,0
3601025,GOULD DITCH HEADGATE NO2,1.18,39.735543,-106.114691,32075.20088,1
3601027,NORTH ACORN DITCH HDG 2,1.86,39.772433,-106.11336,32075.17897,3.31
3601029,RANKIN NO 1 DITCH AP,3,39.64788,-106.022209,12191,0
3601030,SONDREGGER NO 5 D HDGT 2,1.55,39.687117,-106.075265,32075.18809,1.31
3601042,WAHLSTROM NO 1 DITCH HGT 2,1.46,39.752511,-106.170258,32075.19546,1
3601044,BRECKENRIDGE SKI AREA PUMP PLANT & PIPELINE,56.47,39.475301,-106.047175,11146,1
3601044,BRECKENRIDGE SKI AREA PUMP PLANT & PIPELINE,56.47,39.475301,-106.047175,11146,32.49
3601044,BRECKENRIDGE SKI AREA PUMP PLANT & PIPELINE,56.47,39.475301,-106.047175,16954,62.2
3601044,BRECKENRIDGE SKI AREA PUMP PLANT & PIPELINE,56.47,39.475301,-106.047175,16954,6.64
3601044,BRECKENRIDGE SKI AREA PUMP PLANT & PIPELINE,56.47,39.475301,-106.047175,50038.48023,8.1
3601044,BRECKENRIDGE SKI AREA PUMP PLANT & PIPELINE,56.47,39.475301,-106.047175,50038.48023,307
3601047,HOAGLAND CANAL (MARTIN),1.56,39.868347,-106.35274,22964.22029,10
3601048,HOAGLAND CANAL(N SPRING),1.15,39.913117,-106.363378,22964.22029,1
3601049,HOAGLAND CANAL(N SPRUCE),1.03,39.94267,-106.390511,22964.22029,2
3601051,FREMONT NO 1 DITCH - MIDDLE FORK,18.46,39.382771,-106.189022,29228.28284,20
3601052,FREMONT NO 1 DITCH - NORTH FORK,18.46,39.390063,-106.18082,29228.28284,20
3601053,ARAPAHOE BASIN SURFACE DIVERSION A,5.05,39.641621,-105.871452,51863,0.0225
3601053,ARAPAHOE BASIN SURFACE DIVERSION A,5.05,39.641621,-105.871452,52067,0
3601054,ARAPAHOE BASIN SURFACE DIVERSION B,11.1,39.641604,-105.871359,51863,0.0225
3601054,ARAPAHOE BASIN SURFACE DIVERSION B,11.1,39.641604,-105.871359,52067,0
3601055,VIDLER TUNNEL UNIT HDGT A,5.64,39.623505,-105.791718,15829,0
3601055,VIDLER TUNNEL UNIT HDGT A,5.64,39.623505,-105.791718,19875,0
3601055,VIDLER TUNNEL UNIT HDGT A,5.64,39.623505,-105.791718,22965.22553,0
3601055,VIDLER TUNNEL UNIT HDGT A,5.64,39.623505,-105.791718,23296.224,0
3601055,VIDLER TUNNEL UNIT HDGT A,5.64,39.623505,-105.791718,29022.25372,0
3601055,VIDLER TUNNEL UNIT HDGT A,5.64,39.623505,-105.791718,30184.16801,0
3601055,VIDLER TUNNEL UNIT HDGT A,5.64,39.623505,-105.791718,30184.23561,0
3601055,VIDLER TUNNEL UNIT HDGT A,5.64,39.623505,-105.791718,30951,0
3601055,VIDLER TUNNEL UNIT HDGT A,5.64,39.623505,-105.791718,32075.18444,0
3601055,VIDLER TUNNEL UNIT HDGT A,5.64,39.623505,-105.791718,32075.23561,0
3601055,VIDLER TUNNEL UNIT HDGT A,5.64,39.623505,-105.791718,32075.2578,0
3601055,VIDLER TUNNEL UNIT HDGT A,5.64,39.623505,-105.791718,33289,0
3601055,VIDLER TUNNEL UNIT HDGT A,5.64,39.623505,-105.791718,40020,2.8
3601056,VIDLER TUNNEL UNIT HDGT B,5.74,39.624783,-105.793259,15829,0
3601056,VIDLER TUNNEL UNIT HDGT B,5.74,39.624783,-105.793259,19875,0
3601056,VIDLER TUNNEL UNIT HDGT B,5.74,39.624783,-105.793259,22965.22553,0
3601056,VIDLER TUNNEL UNIT HDGT B,5.74,39.624783,-105.793259,23296.224,0
3601056,VIDLER TUNNEL UNIT HDGT B,5.74,39.624783,-105.793259,29022.25372,0
3601056,VIDLER TUNNEL UNIT HDGT B,5.74,39.624783,-105.793259,30184.16801,0
3601056,VIDLER TUNNEL UNIT HDGT B,5.74,39.624783,-105.793259,30184.23561,0
3601056,VIDLER TUNNEL UNIT HDGT B,5.74,39.624783,-105.793259,30951,0
3601056,VIDLER TUNNEL UNIT HDGT B,5.74,39.624783,-105.793259,32075.18444,0
3601056,VIDLER TUNNEL UNIT HDGT B,5.74,39.624783,-105.793259,32075.23561,0
3601056,VIDLER TUNNEL UNIT HDGT B,5.74,39.624783,-105.793259,32075.2578,0
3601056,VIDLER TUNNEL UNIT HDGT B,5.74,39.624783,-105.793259,33289,0
3601056,VIDLER TUNNEL UNIT HDGT B,5.74,39.624783,-105.793259,40020,7.6
3601057,VIDLER TUNNEL UNIT HDGT C,5.77,39.624971,-105.794752,15829,0
3601057,VIDLER TUNNEL UNIT HDGT C,5.77,39.624971,-105.794752,19875,0
3601057,VIDLER TUNNEL UNIT HDGT C,5.77,39.624971,-105.794752,22965.22553,0
3601057,VIDLER TUNNEL UNIT HDGT C,5.77,39.624971,-105.794752,23296.224,0
3601057,VIDLER TUNNEL UNIT HDGT C,5.77,39.624971,-105.794752,29022.25372,0
3601057,VIDLER TUNNEL UNIT HDGT C,5.77,39.624971,-105.794752,30184.16801,0
3601057,VIDLER TUNNEL UNIT HDGT C,5.77,39.624971,-105.794752,30184.23561,0
3601057,VIDLER TUNNEL UNIT HDGT C,5.77,39.624971,-105.794752,30951,0
3601057,VIDLER TUNNEL UNIT HDGT C,5.77,39.624971,-105.794752,32075.18444,0
3601057,VIDLER TUNNEL UNIT HDGT C,5.77,39.624971,-105.794752,32075.23561,0
3601057,VIDLER TUNNEL UNIT HDGT C,5.77,39.624971,-105.794752,32075.2578,0
3601057,VIDLER TUNNEL UNIT HDGT C,5.77,39.624971,-105.794752,33289,0
3601057,VIDLER TUNNEL UNIT HDGT C,5.77,39.624971,-105.794752,40020,0.4
3601058,VIDLER TUNNEL UNIT HDGT D,5.77,39.624925,-105.794891,15829,0
3601058,VIDLER TUNNEL UNIT HDGT D,5.77,39.624925,-105.794891,19875,0
3601058,VIDLER TUNNEL UNIT HDGT D,5.77,39.624925,-105.794891,22965.22564,1.5
3601058,VIDLER TUNNEL UNIT HDGT D,5.77,39.624925,-105.794891,30184.23561,0
3601058,VIDLER TUNNEL UNIT HDGT D,5.77,39.624925,-105.794891,30931,3
3601058,VIDLER TUNNEL UNIT HDGT D,5.77,39.624925,-105.794891,32075.18444,0
3601058,VIDLER TUNNEL UNIT HDGT D,5.77,39.624925,-105.794891,32075.23561,0
3601058,VIDLER TUNNEL UNIT HDGT D,5.77,39.624925,-105.794891,32075.2578,0.2
3601058,VIDLER TUNNEL UNIT HDGT D,5.77,39.624925,-105.794891,33289,12.96
3601058,VIDLER TUNNEL UNIT HDGT D,5.77,39.624925,-105.794891,40020,10.8
3601059,VIDLER TUNNEL UNIT HDGT E,5.31,39.620108,-105.798227,15829,0
3601059,VIDLER TUNNEL UNIT HDGT E,5.31,39.620108,-105.798227,19875,0
3601059,VIDLER TUNNEL UNIT HDGT E,5.31,39.620108,-105.798227,22965.22553,0
3601059,VIDLER TUNNEL UNIT HDGT E,5.31,39.620108,-105.798227,23296.224,0
3601059,VIDLER TUNNEL UNIT HDGT E,5.31,39.620108,-105.798227,29022.25372,0
3601059,VIDLER TUNNEL UNIT HDGT E,5.31,39.620108,-105.798227,30184.16801,0
3601059,VIDLER TUNNEL UNIT HDGT E,5.31,39.620108,-105.798227,30184.23561,0
3601059,VIDLER TUNNEL UNIT HDGT E,5.31,39.620108,-105.798227,30951,0
3601059,VIDLER TUNNEL UNIT HDGT E,5.31,39.620108,-105.798227,32075.18444,0
3601059,VIDLER TUNNEL UNIT HDGT E,5.31,39.620108,-105.798227,32075.23561,0
3601059,VIDLER TUNNEL UNIT HDGT E,5.31,39.620108,-105.798227,32075.2578,0
3601059,VIDLER TUNNEL UNIT HDGT E,5.31,39.620108,-105.798227,33289,0
3601059,VIDLER TUNNEL UNIT HDGT E,5.31,39.620108,-105.798227,40020,6.6
3601060,VIDLER TUNNEL UNIT HDGT F,5.13,39.619114,-105.798646,15829,0
3601060,VIDLER TUNNEL UNIT HDGT F,5.13,39.619114,-105.798646,19875,0
3601060,VIDLER TUNNEL UNIT HDGT F,5.13,39.619114,-105.798646,22965.22553,0
3601060,VIDLER TUNNEL UNIT HDGT F,5.13,39.619114,-105.798646,23296.224,0
3601060,VIDLER TUNNEL UNIT HDGT F,5.13,39.619114,-105.798646,29022.25372,0
3601060,VIDLER TUNNEL UNIT HDGT F,5.13,39.619114,-105.798646,30184.16801,0
3601060,VIDLER TUNNEL UNIT HDGT F,5.13,39.619114,-105.798646,30184.23561,0
3601060,VIDLER TUNNEL UNIT HDGT F,5.13,39.619114,-105.798646,30951,0
3601060,VIDLER TUNNEL UNIT HDGT F,5.13,39.619114,-105.798646,32075.18444,0
3601060,VIDLER TUNNEL UNIT HDGT F,5.13,39.619114,-105.798646,32075.23561,0
3601060,VIDLER TUNNEL UNIT HDGT F,5.13,39.619114,-105.798646,32075.2578,0
3601060,VIDLER TUNNEL UNIT HDGT F,5.13,39.619114,-105.798646,33289,0
3601060,VIDLER TUNNEL UNIT HDGT F,5.13,39.619114,-105.798646,40020,3.6
3601061,VIDLER TUNNEL UNIT HDGT G,4.66,39.612512,-105.802275,15829,0
3601061,VIDLER TUNNEL UNIT HDGT G,4.66,39.612512,-105.802275,19875,0
3601061,VIDLER TUNNEL UNIT HDGT G,4.66,39.612512,-105.802275,22965.22553,0
3601061,VIDLER TUNNEL UNIT HDGT G,4.66,39.612512,-105.802275,23296.224,0
3601061,VIDLER TUNNEL UNIT HDGT G,4.66,39.612512,-105.802275,29022.25372,0
3601061,VIDLER TUNNEL UNIT HDGT G,4.66,39.612512,-105.802275,30184.16801,0
3601061,VIDLER TUNNEL UNIT HDGT G,4.66,39.612512,-105.802275,30184.23561,0
3601061,VIDLER TUNNEL UNIT HDGT G,4.66,39.612512,-105.802275,30951,0
3601061,VIDLER TUNNEL UNIT HDGT G,4.66,39.612512,-105.802275,32075.18444,0
3601061,VIDLER TUNNEL UNIT HDGT G,4.66,39.612512,-105.802275,32075.23561,0
3601061,VIDLER TUNNEL UNIT HDGT G,4.66,39.612512,-105.802275,32075.2578,0
3601061,VIDLER TUNNEL UNIT HDGT G,4.66,39.612512,-105.802275,33289,0
3601061,VIDLER TUNNEL UNIT HDGT G,4.66,39.612512,-105.802275,40020,0
3601062,VIDLER TUNNEL UNIT HDGT H,4.66,39.612392,-105.802716,15829,0
3601062,VIDLER TUNNEL UNIT HDGT H,4.66,39.612392,-105.802716,19875,0
3601062,VIDLER TUNNEL UNIT HDGT H,4.66,39.612392,-105.802716,22965.22553,0
3601062,VIDLER TUNNEL UNIT HDGT H,4.66,39.612392,-105.802716,23296.224,0
3601062,VIDLER TUNNEL UNIT HDGT H,4.66,39.612392,-105.802716,29022.25372,0
3601062,VIDLER TUNNEL UNIT HDGT H,4.66,39.612392,-105.802716,30184.16801,0
3601062,VIDLER TUNNEL UNIT HDGT H,4.66,39.612392,-105.802716,30184.23561,0
3601062,VIDLER TUNNEL UNIT HDGT H,4.66,39.612392,-105.802716,30951,0
3601062,VIDLER TUNNEL UNIT HDGT H,4.66,39.612392,-105.802716,32075.18444,0
3601062,VIDLER TUNNEL UNIT HDGT H,4.66,39.612392,-105.802716,32075.23561,0
3601062,VIDLER TUNNEL UNIT HDGT H,4.66,39.612392,-105.802716,32075.2578,0
3601062,VIDLER TUNNEL UNIT HDGT H,4.66,39.612392,-105.802716,33289,0
3601062,VIDLER TUNNEL UNIT HDGT H,4.66,39.612392,-105.802716,40020,0
3601063,VIDLER TUNNEL UNIT HDGT J,4.63,39.612489,-105.804278,15829,0
3601063,VIDLER TUNNEL UNIT HDGT J,4.63,39.612489,-105.804278,19875,0
3601063,VIDLER TUNNEL UNIT HDGT J,4.63,39.612489,-105.804278,22965.22553,0
3601063,VIDLER TUNNEL UNIT HDGT J,4.63,39.612489,-105.804278,23296.224,0
3601063,VIDLER TUNNEL UNIT HDGT J,4.63,39.612489,-105.804278,29022.25372,0
3601063,VIDLER TUNNEL UNIT HDGT J,4.63,39.612489,-105.804278,30184.16801,0
3601063,VIDLER TUNNEL UNIT HDGT J,4.63,39.612489,-105.804278,30184.23561,0
3601063,VIDLER TUNNEL UNIT HDGT J,4.63,39.612489,-105.804278,30951,0
3601063,VIDLER TUNNEL UNIT HDGT J,4.63,39.612489,-105.804278,32075.18444,0
3601063,VIDLER TUNNEL UNIT HDGT J,4.63,39.612489,-105.804278,32075.23561,0
3601063,VIDLER TUNNEL UNIT HDGT J,4.63,39.612489,-105.804278,32075.2578,0
3601063,VIDLER TUNNEL UNIT HDGT J,4.63,39.612489,-105.804278,33289,0
3601063,VIDLER TUNNEL UNIT HDGT J,4.63,39.612489,-105.804278,40020,0
3601064,VIDLER TUNNEL UNIT HDGT K,3.77,39.606292,-105.810427,15829,0
3601064,VIDLER TUNNEL UNIT HDGT K,3.77,39.606292,-105.810427,19875,0
3601064,VIDLER TUNNEL UNIT HDGT K,3.77,39.606292,-105.810427,22965.22553,0
3601064,VIDLER TUNNEL UNIT HDGT K,3.77,39.606292,-105.810427,23296.224,0
3601064,VIDLER TUNNEL UNIT HDGT K,3.77,39.606292,-105.810427,29022.25372,0
3601064,VIDLER TUNNEL UNIT HDGT K,3.77,39.606292,-105.810427,30184.16801,0
3601064,VIDLER TUNNEL UNIT HDGT K,3.77,39.606292,-105.810427,30184.23561,0
3601064,VIDLER TUNNEL UNIT HDGT K,3.77,39.606292,-105.810427,30951,0
3601064,VIDLER TUNNEL UNIT HDGT K,3.77,39.606292,-105.810427,32075.18444,0
3601064,VIDLER TUNNEL UNIT HDGT K,3.77,39.606292,-105.810427,32075.23561,0
3601064,VIDLER TUNNEL UNIT HDGT K,3.77,39.606292,-105.810427,32075.2578,0
3601064,VIDLER TUNNEL UNIT HDGT K,3.77,39.606292,-105.810427,33289,0
3601064,VIDLER TUNNEL UNIT HDGT K,3.77,39.606292,-105.810427,40020,0
3601065,VIDLER TUNNEL UNIT HDGT L,3.3,39.607223,-105.817811,15829,0
3601065,VIDLER TUNNEL UNIT HDGT L,3.3,39.607223,-105.817811,19875,0
3601065,VIDLER TUNNEL UNIT HDGT L,3.3,39.607223,-105.817811,22965.22553,0
3601065,VIDLER TUNNEL UNIT HDGT L,3.3,39.607223,-105.817811,23296.224,0
3601065,VIDLER TUNNEL UNIT HDGT L,3.3,39.607223,-105.817811,29022.25372,0
3601065,VIDLER TUNNEL UNIT HDGT L,3.3,39.607223,-105.817811,30184.16801,0
3601065,VIDLER TUNNEL UNIT HDGT L,3.3,39.607223,-105.817811,30184.23561,0
3601065,VIDLER TUNNEL UNIT HDGT L,3.3,39.607223,-105.817811,30951,0
3601065,VIDLER TUNNEL UNIT HDGT L,3.3,39.607223,-105.817811,32075.18444,0
3601065,VIDLER TUNNEL UNIT HDGT L,3.3,39.607223,-105.817811,32075.23561,0
3601065,VIDLER TUNNEL UNIT HDGT L,3.3,39.607223,-105.817811,32075.2578,0
3601065,VIDLER TUNNEL UNIT HDGT L,3.3,39.607223,-105.817811,33289,0
3601065,VIDLER TUNNEL UNIT HDGT L,3.3,39.607223,-105.817811,40020,0
3601066,VIDLER TUNNEL UNIT HDGT M,3.28,39.619014,-105.824591,22965.22553,0
3601066,VIDLER TUNNEL UNIT HDGT M,3.28,39.619014,-105.824591,32075.2578,0
3601066,VIDLER TUNNEL UNIT HDGT M,3.28,39.619014,-105.824591,33289,0
3601066,VIDLER TUNNEL UNIT HDGT M,3.28,39.619014,-105.824591,40020,0
3601067,VIDLER TUNNEL UNIT HDGT N,3.12,39.61922,-105.827342,22965.22553,0
3601067,VIDLER TUNNEL UNIT HDGT N,3.12,39.61922,-105.827342,32075.2578,0
3601067,VIDLER TUNNEL UNIT HDGT N,3.12,39.61922,-105.827342,33289,0
3601067,VIDLER TUNNEL UNIT HDGT N,3.12,39.61922,-105.827342,40020,0
3601068,VIDLER TUNNEL UNIT HDGT P,6.35,39.631946,-105.834416,22965.22553,0
3601068,VIDLER TUNNEL UNIT HDGT P,6.35,39.631946,-105.834416,32075.2578,0
3601068,VIDLER TUNNEL UNIT HDGT P,6.35,39.631946,-105.834416,33289,0
3601068,VIDLER TUNNEL UNIT HDGT P,6.35,39.631946,-105.834416,40020,0
3601069,VIDLER TUNNEL UNIT HDGT Q,6.36,39.633608,-105.837652,22965.22553,0
3601069,VIDLER TUNNEL UNIT HDGT Q,6.36,39.633608,-105.837652,32075.2578,0
3601069,VIDLER TUNNEL UNIT HDGT Q,6.36,39.633608,-105.837652,33289,0
3601069,VIDLER TUNNEL UNIT HDGT Q,6.36,39.633608,-105.837652,40020,0
3601070,VIDLER TUNNEL UNIT HDGT R,6.52,39.638575,-105.841056,22965.22553,0
3601070,VIDLER TUNNEL UNIT HDGT R,6.52,39.638575,-105.841056,32075.2578,0
3601070,VIDLER TUNNEL UNIT HDGT R,6.52,39.638575,-105.841056,33289,0
3601070,VIDLER TUNNEL UNIT HDGT R,6.52,39.638575,-105.841056,40020,0
3601071,VIDLER TUNNEL UNIT HDGT S,6.47,39.635566,-105.842185,22965.22553,0
3601071,VIDLER TUNNEL UNIT HDGT S,6.47,39.635566,-105.842185,32075.2578,0
3601071,VIDLER TUNNEL UNIT HDGT S,6.47,39.635566,-105.842185,33289,0
3601071,VIDLER TUNNEL UNIT HDGT S,6.47,39.635566,-105.842185,40020,0
3601072,VIDLER TUNNEL UNIT HDGT T,1.64,39.632717,-105.843631,22965.22553,0
3601072,VIDLER TUNNEL UNIT HDGT T,1.64,39.632717,-105.843631,32075.2578,0
3601072,VIDLER TUNNEL UNIT HDGT T,1.64,39.632717,-105.843631,33289,0
3601072,VIDLER TUNNEL UNIT HDGT T,1.64,39.632717,-105.843631,40020,0
3601073,VIDLER TUNNEL UNIT HDGT U,1.62,39.622803,-105.849009,22965.22553,0
3601073,VIDLER TUNNEL UNIT HDGT U,1.62,39.622803,-105.849009,32075.2578,0
3601073,VIDLER TUNNEL UNIT HDGT U,1.62,39.622803,-105.849009,33289,0
3601073,VIDLER TUNNEL UNIT HDGT U,1.62,39.622803,-105.849009,40020,0
3601074,VIDLER TUNNEL UNIT HDGT V,5.74,39.625004,-105.79121,22965.22553,0
3601074,VIDLER TUNNEL UNIT HDGT V,5.74,39.625004,-105.79121,32075.2578,0
3601074,VIDLER TUNNEL UNIT HDGT V,5.74,39.625004,-105.79121,33289,0
3601074,VIDLER TUNNEL UNIT HDGT V,5.74,39.625004,-105.79121,40020,0
3601075,VIDLER TUNNEL UNIT HDGT W,5.54,39.622228,-105.791307,15829,0
3601075,VIDLER TUNNEL UNIT HDGT W,5.54,39.622228,-105.791307,19875,0
3601075,VIDLER TUNNEL UNIT HDGT W,5.54,39.622228,-105.791307,22965.22553,0
3601075,VIDLER TUNNEL UNIT HDGT W,5.54,39.622228,-105.791307,23296.224,0
3601075,VIDLER TUNNEL UNIT HDGT W,5.54,39.622228,-105.791307,29022.25372,0
3601075,VIDLER TUNNEL UNIT HDGT W,5.54,39.622228,-105.791307,30184.16801,0
3601075,VIDLER TUNNEL UNIT HDGT W,5.54,39.622228,-105.791307,30184.23561,0
3601075,VIDLER TUNNEL UNIT HDGT W,5.54,39.622228,-105.791307,30951,0
3601075,VIDLER TUNNEL UNIT HDGT W,5.54,39.622228,-105.791307,32075.18444,0
3601075,VIDLER TUNNEL UNIT HDGT W,5.54,39.622228,-105.791307,32075.23561,0
3601075,VIDLER TUNNEL UNIT HDGT W,5.54,39.622228,-105.791307,32075.2578,0
3601075,VIDLER TUNNEL UNIT HDGT W,5.54,39.622228,-105.791307,33289,0
3601075,VIDLER TUNNEL UNIT HDGT W,5.54,39.622228,-105.791307,40020,0
3601076,VIDLER TUNNEL UNIT HDGT X,4.97,39.613323,-105.791823,15829,0
3601076,VIDLER TUNNEL UNIT HDGT X,4.97,39.613323,-105.791823,19875,0
3601076,VIDLER TUNNEL UNIT HDGT X,4.97,39.613323,-105.791823,22965.22553,0
3601076,VIDLER TUNNEL UNIT HDGT X,4.97,39.613323,-105.791823,23296.224,0
3601076,VIDLER TUNNEL UNIT HDGT X,4.97,39.613323,-105.791823,29022.25372,0
3601076,VIDLER TUNNEL UNIT HDGT X,4.97,39.613323,-105.791823,30184.16801,0
3601076,VIDLER TUNNEL UNIT HDGT X,4.97,39.613323,-105.791823,30184.23561,0
3601076,VIDLER TUNNEL UNIT HDGT X,4.97,39.613323,-105.791823,30951,0
3601076,VIDLER TUNNEL UNIT HDGT X,4.97,39.613323,-105.791823,32075.18444,0
3601076,VIDLER TUNNEL UNIT HDGT X,4.97,39.613323,-105.791823,32075.23561,0
3601076,VIDLER TUNNEL UNIT HDGT X,4.97,39.613323,-105.791823,32075.2578,0
3601076,VIDLER TUNNEL UNIT HDGT X,4.97,39.613323,-105.791823,33289,0
3601076,VIDLER TUNNEL UNIT HDGT X,4.97,39.613323,-105.791823,40020,0
3601077,VIDLER TUNNEL UNIT HDGT Y,4.97,39.613145,-105.791402,15829,0
3601077,VIDLER TUNNEL UNIT HDGT Y,4.97,39.613145,-105.791402,19875,0
3601077,VIDLER TUNNEL UNIT HDGT Y,4.97,39.613145,-105.791402,22965.22553,0
3601077,VIDLER TUNNEL UNIT HDGT Y,4.97,39.613145,-105.791402,23296.224,0
3601077,VIDLER TUNNEL UNIT HDGT Y,4.97,39.613145,-105.791402,29022.25372,0
3601077,VIDLER TUNNEL UNIT HDGT Y,4.97,39.613145,-105.791402,30184.16801,0
3601077,VIDLER TUNNEL UNIT HDGT Y,4.97,39.613145,-105.791402,30184.23561,0
3601077,VIDLER TUNNEL UNIT HDGT Y,4.97,39.613145,-105.791402,30951,0
3601077,VIDLER TUNNEL UNIT HDGT Y,4.97,39.613145,-105.791402,32075.18444,0
3601077,VIDLER TUNNEL UNIT HDGT Y,4.97,39.613145,-105.791402,32075.23561,0
3601077,VIDLER TUNNEL UNIT HDGT Y,4.97,39.613145,-105.791402,32075.2578,0
3601077,VIDLER TUNNEL UNIT HDGT Y,4.97,39.613145,-105.791402,33289,0
3601077,VIDLER TUNNEL UNIT HDGT Y,4.97,39.613145,-105.791402,40020,0
3601078,VIDLER TUNNEL UNIT HDGT Z,4.53,39.607333,-105.792873,15829,0
3601078,VIDLER TUNNEL UNIT HDGT Z,4.53,39.607333,-105.792873,19875,0
3601078,VIDLER TUNNEL UNIT HDGT Z,4.53,39.607333,-105.792873,22965.22553,0
3601078,VIDLER TUNNEL UNIT HDGT Z,4.53,39.607333,-105.792873,23296.224,0
3601078,VIDLER TUNNEL UNIT HDGT Z,4.53,39.607333,-105.792873,29022.25372,0
3601078,VIDLER TUNNEL UNIT HDGT Z,4.53,39.607333,-105.792873,30184.16801,0
3601078,VIDLER TUNNEL UNIT HDGT Z,4.53,39.607333,-105.792873,30184.23561,0
3601078,VIDLER TUNNEL UNIT HDGT Z,4.53,39.607333,-105.792873,30951,0
3601078,VIDLER TUNNEL UNIT HDGT Z,4.53,39.607333,-105.792873,32075.18444,0
3601078,VIDLER TUNNEL UNIT HDGT Z,4.53,39.607333,-105.792873,32075.23561,0
3601078,VIDLER TUNNEL UNIT HDGT Z,4.53,39.607333,-105.792873,32075.2578,0
3601078,VIDLER TUNNEL UNIT HDGT Z,4.53,39.607333,-105.792873,33289,0
3601078,VIDLER TUNNEL UNIT HDGT Z,4.53,39.607333,-105.792873,40020,0
3601079,VIDLER TUNNEL UNIT HDGT ZZ,4.53,39.607292,-105.79356,22965.22553,0
3601079,VIDLER TUNNEL UNIT HDGT ZZ,4.53,39.607292,-105.79356,32075.2578,0
3601079,VIDLER TUNNEL UNIT HDGT ZZ,4.53,39.607292,-105.79356,33289,0
3601079,VIDLER TUNNEL UNIT HDGT ZZ,4.53,39.607292,-105.79356,40020,0
3601080,VIDLER - WILLOW CREEK UNIT HDGT A,1.25,39.651175,-106.099395,23296.224,0
3601080,VIDLER - WILLOW CREEK UNIT HDGT A,1.25,39.651175,-106.099395,40020,0
3601081,VIDLER - WILLOW CREEK UNIT HDGT B,1.25,39.649969,-106.10025,40020,0
3601082,VIDLER - WILLOW CREEK UNIT HDGT C,0.56,39.619491,-106.071981,40020,0
3601085,COPPER MTN WEST LAKE PIPELINE 1,1.33,39.501503,-106.156535,33306,1.5
3601085,COPPER MTN WEST LAKE PIPELINE 1,1.33,39.501503,-106.156535,48212.44803,12.9
3601086,COPPER MTN WEST LAKE PIPELINE 2,1.35,39.501211,-106.156832,33306,1.5
3601086,COPPER MTN WEST LAKE PIPELINE 2,1.35,39.501211,-106.156832,50312,0
3601087,COPPER MTN WHEELER GULCH PIPELINE,1.13,39.499334,-106.154452,33306,1.5
3601087,COPPER MTN WHEELER GULCH PIPELINE,1.13,39.499334,-106.154452,50109,1
3601087,COPPER MTN WHEELER GULCH PIPELINE,1.13,39.499334,-106.154452,60994,0
3601088,COPPER MTN TENMILE CR PIPELINE,11.8,39.492145,-106.135099,48212.48142,3.2
3601088,COPPER MTN TENMILE CR PIPELINE,11.8,39.492145,-106.135099,54383,2.58
3601088,COPPER MTN TENMILE CR PIPELINE,11.8,39.492145,-106.135099,58439.56094,0
3601088,COPPER MTN TENMILE CR PIPELINE,11.8,39.492145,-106.135099,60994,0
3601089,COPPER MTN BEELER LAKE PIPELINE,0.59,39.503068,-106.145,33306,1.5
3601089,COPPER MTN BEELER LAKE PIPELINE,0.59,39.503068,-106.145,48212.46264,5.6
3601090,COPPER MTN MCKENZIE LAKE PIPELINE,0.65,39.502271,-106.14537,33306,1.5
3601090,COPPER MTN MCKENZIE LAKE PIPELINE,0.65,39.502271,-106.14537,48212.46264,5.6
3601091,COPPER MTN STAFFORD LAKE PIPELINE,0.9,39.501266,-106.149506,33306,0.13
3601091,COPPER MTN STAFFORD LAKE PIPELINE,0.9,39.501266,-106.149506,48212.46264,5.6
3601092,ARAPAHOE BASIN SNOWLINE,10.51,39.641284,-105.875516,48965,1.1
3601092,ARAPAHOE BASIN SNOWLINE,10.51,39.641284,-105.875516,48965,0
3601093,GOLF SURFACE DIVERSION 1,3.63,39.601704,-105.996092,14386,0.95
3601093,GOLF SURFACE DIVERSION 1,3.63,39.601704,-105.996092,14740,0.31
3601093,GOLF SURFACE DIVERSION 1,3.63,39.601704,-105.996092,18779,0.39
3601093,GOLF SURFACE DIVERSION 1,3.63,39.601704,-105.996092,32075.14397,0.32
3601093,GOLF SURFACE DIVERSION 1,3.63,39.601704,-105.996092,32075.31217,2.03
3601093,GOLF SURFACE DIVERSION 1,3.63,39.601704,-105.996092,52067,0
3601094,HAWK HILL PUMP AND PIPELINE,30.59,39.772313,-106.156968,50927,0
3601095,FOX PUMP AND PIPELINE,30.12,39.778695,-106.159305,51483,0
3601096,SONDREGGER NO 5 D HDGT 3,1.7,39.687367,-106.070558,32075.18809,0
3601097,TARGET PUMP,2.11,39.43658,-106.004682,52595.50981,0.08
3601098,RIVER CENTER HDGT & POND,43.55,39.630612,-106.072677,36219,4
3601100,BLUE RIVER VALLEY RANCH RESERVOIR DIVERSION,42.22,39.647855,-106.069004,48827,1
3601100,BLUE RIVER VALLEY RANCH RESERVOIR DIVERSION,42.22,39.647855,-106.069004,48827,2
3601101,WINEGARD DITCH NO. 1,0.44,39.676155,-106.086545,52746,10
3601102,WINEGARD DITCH NO. 2,0.37,39.676059,-106.088083,52746,10
3601103,ARAPAHOE BASIN SNOWLINE AP 1,2.04,39.622572,-105.916198,49308.47833,0
3601105,BRATTON CREEK PIPELINE,12.21,39.918635,-106.331966,53691.53596,0.01
3601106,KUMNIG NO 1 DITCH AP NO 1,1.94,39.838249,-106.276955,10423,0
3601106,KUMNIG NO 1 DITCH AP NO 1,1.94,39.838249,-106.276955,11849,0
3601106,KUMNIG NO 1 DITCH AP NO 1,1.94,39.838249,-106.276955,13423,0
3601106,KUMNIG NO 1 DITCH AP NO 1,1.94,39.838249,-106.276955,13666,0
3601106,KUMNIG NO 1 DITCH AP NO 1,1.94,39.838249,-106.276955,14093,0
3601106,KUMNIG NO 1 DITCH AP NO 1,1.94,39.838249,-106.276955,15310,0
3601106,KUMNIG NO 1 DITCH AP NO 1,1.94,39.838249,-106.276955,17683,0
3601106,KUMNIG NO 1 DITCH AP NO 1,1.94,39.838249,-106.276955,18414,0
3601107,TRIPLE CREEK DITCH,0.5,39.713773,-106.139936,52133,0
3601108,BRECK FLOW SPLIT CHANNEL,49.24,39.566885,-106.049727,51864.47554,8
3601108,BRECK FLOW SPLIT CHANNEL,49.24,39.566885,-106.049727,53609,1.52
3601109,ELK CREEK DITCH NO 1,0.95,39.715494,-106.095994,50753,0.3025
3601109,ELK CREEK DITCH NO 1,0.95,39.715494,-106.095994,56094,0
3601110,ELK CREEK DITCH NO 1 AP,0.64,39.714261,-106.101493,50753,0
3601110,ELK CREEK DITCH NO 1 AP,0.64,39.714261,-106.101493,56094,0
3601111,STOCK POND DITCH HDG B,1.06,39.65264,-106.095012,51361,1
3601112,SONDREGGER NO 5 D ALT PT,1.89,39.691194,-106.071865,32075.18809,0
3601113,COTTONWOOD PARK HEADGATE,40.85,39.665447,-106.083125,36219,0
3601113,COTTONWOOD PARK HEADGATE,40.85,39.665447,-106.083125,55790,0
3601114,BOBO DITCH ALT PT,42.34,39.646308,-106.076544,51499.42004,0
3601115,BENSON RANCH POND DIVERSION,0.08,39.820452,-106.193388,55152.54756,5.36
3601116,MINERS CREEK DITCH,3.45,39.532582,-106.085246,53691.53098,0
3601118,BARTON CREEK DIVERSION,2.03,39.499123,-106.074956,51325,0
3601119,POND DITCH,7.51,39.969548,-106.362883,11443,0
3601119,POND DITCH,7.51,39.969548,-106.362883,13650,0
3601120,DILLON BLUE RIVER INTAKE,45.19,39.625608,-106.048388,18005,0
3601120,DILLON BLUE RIVER INTAKE,45.19,39.625608,-106.048388,49569,0
3601120,DILLON BLUE RIVER INTAKE,45.19,39.625608,-106.048388,49799,0
3601120,DILLON BLUE RIVER INTAKE,45.19,39.625608,-106.048388,50023,0
3601120,DILLON BLUE RIVER INTAKE,45.19,39.625608,-106.048388,50038.49799,0
3601120,DILLON BLUE RIVER INTAKE,45.19,39.625608,-106.048388,57688,0
3601120,DILLON BLUE RIVER INTAKE,45.19,39.625608,-106.048388,61349,0
3601121,MELODY LODGE DITCH,22.44,39.837526,-106.233034,57343.53922,0.25
3601122,KUMNIG NO 1 DITCH AP NO 2,2.8,39.826564,-106.280151,56978.18414,0
3601123,BLUE RIVER WHITEWATER COURSE STRUCTURE 1,43.85,39.627017,-106.07169,56613,0
3601124,BLUE RIVER WHITEWATER COURSE STRUCTURE 2,43.81,39.627417,-106.07222,56613,0
3601125,BLUE RIVER WHITEWATER COURSE STRUCTURE 3,43.77,39.627964,-106.072496,56613,0
3601126,MONTEZUMA BOWL/PORCUPINE PEAK SNOWLINE,9.97,39.601277,-105.897095,48965,0
3601126,MONTEZUMA BOWL/PORCUPINE PEAK SNOWLINE,9.97,39.601277,-105.897095,49563,0
3601126,MONTEZUMA BOWL/PORCUPINE PEAK SNOWLINE,9.97,39.601277,-105.897095,52067,0
3601127,INDEPENDENCE MTN SNOWLINE,10.4,39.5994,-105.89042,48965,0
3601127,INDEPENDENCE MTN SNOWLINE,10.4,39.5994,-105.89042,49563,0.53
3601127,INDEPENDENCE MTN SNOWLINE,10.4,39.5994,-105.89042,52067,0
3601137,DILLON VALLEY DISTRICT - RANKIN NO 1 DITCH AP NO 3,2.97,39.646835,-106.022171,12191,0
3601138,STRAIGHT CREEK DITCH AP,2.97,39.646827,-106.022077,18005,0
3601138,STRAIGHT CREEK DITCH AP,2.97,39.646827,-106.022077,49799,0
3601138,STRAIGHT CREEK DITCH AP,2.97,39.646827,-106.022077,50310,0
3601138,STRAIGHT CREEK DITCH AP,2.97,39.646827,-106.022077,52067,0
3601138,STRAIGHT CREEK DITCH AP,2.97,39.646827,-106.022077,61349,0
3601139,LASKEY GULCH AP,3.04,39.64864,-106.021766,12191,0
3601139,LASKEY GULCH AP,3.04,39.64864,-106.021766,18005,0
3601139,LASKEY GULCH AP,3.04,39.64864,-106.021766,49799,0
3601139,LASKEY GULCH AP,3.04,39.64864,-106.021766,50310,0
3601139,LASKEY GULCH AP,3.04,39.64864,-106.021766,52067,0
3601139,LASKEY GULCH AP,3.04,39.64864,-106.021766,57688,0
3601139,LASKEY GULCH AP,3.04,39.64864,-106.021766,61349,0
3601148,ELK CREEK DITCH NO 1 AP NO 2,0.63,39.714179,-106.101573,50753,0
3601148,ELK CREEK DITCH NO 1 AP NO 2,0.63,39.714179,-106.101573,56094,0
3601149,OLD DILLON RESERVOIR PUMP STATION,44.74,39.610112,-106.067981,58059,0
3601150,HIGH MILLER DITCH OXBOW ENLARGEMENT,28.19,39.80209,-106.165106,56593,0
3601151,CATARACT CREEK 1 AND 3 - NEW PT OF DIVERSION,1.35,39.851602,-106.29075,12693,1.5
3601151,CATARACT CREEK 1 AND 3 - NEW PT OF DIVERSION,1.35,39.851602,-106.29075,14380,4
3601151,CATARACT CREEK 1 AND 3 - NEW PT OF DIVERSION,1.35,39.851602,-106.29075,17411,1
3601152,BRECKENRIDGE PIPELINE ENLARGEMENT,49.03,39.569701,-106.04928,59865,0
3601153,BRECKENRIDGE PIPELINE ENLARGEMENT - AP,49.03,39.569802,-106.049026,59865,0
3601154,STRAIGHT CREEK CONDUIT PT 2 - ROBERTS TUNNEL,1.52,39.629943,-106.040227,39102,0
3601155,SWAN RIVER WATER SYSTEM - GOLD RUN AP,1.31,39.524375,-106.030623,47847.4767,0
3601155,SWAN RIVER WATER SYSTEM - GOLD RUN AP,1.31,39.524375,-106.030623,48577.4767,0
3601157,BELL DITCH HGT 2,0.51,39.915772,-106.351274,32075.16223,2.4
3601158,SPRUCE VALLEY AUGMENTATION PUMP,0.49,39.449658,-106.023872,54163,0
3601159,LUCKY U LAKE,,39.764369,-106.146713,60753,0
3602000,MIN FLOW CATARACT CR LOW,0.29,39.864913,-106.277556,47511,6
3602001,MIN FLOW OTTER CREEK,0.61,39.854019,-106.268258,46405,3
3602002,MIN FLOW BRUSH CREEK,0.03,39.821399,-106.197959,46405,3
3602003,MIN FLOW WILLOW CREEK,0.13,39.64757,-106.080123,46405,4
3602004,MIN FLOW CATARACT CR UP,3.85,39.830333,-106.324751,47511,6
3602006,MIN FLOW NORTH ROCK CR,0,39.72342,-106.122575,46405,5
3602007,MIN FLOW SOUTH ROCK CR,0.49,39.723506,-106.136718,46405,4
3602008,MIN FLOW MARYLAND CREEK,0.03,39.701662,-106.10399,46405,1
3602009,MIN FLOW PEBBLE CREEK,0,39.730788,-106.136802,46405,1
3602010,MIN FLOW BOULDER CREEK,0.03,39.737095,-106.133925,46405,6
3602011,MIN FLOW HARRIGAN CREEK,0,39.763411,-106.141555,46405,1
3602012,MIN FLOW SLATE CREEK,0.07,39.781505,-106.165045,46405,7
3602013,MIN FLOW HAY CAMP CREEK,26.29,39.810549,-106.193247,46405,1
3602014,MIN FLOW SQUAW CREEK,1.23,39.796044,-106.188448,46405,1
3602015,MIN FLOW SOUTH BRUSH CR,1.17,39.806939,-106.207309,46405,2
3602016,MIN FLOW NORTH WILLOW CR,1.16,39.647621,-106.099164,46405,3
3602017,MIN FLOW MID WILLOW CR,1.16,39.647621,-106.099164,46405,2
3602018,MIN FLOW SOUTH WILLOW CR,1.16,39.647621,-106.099164,46405,3
3602019,MIN FLOW NORTH FORK SWAN RIVER,6.56,39.512835,-105.947814,49620,2
3602020,MIN FLOW DEER CREEK,14.12,39.560793,-105.85907,49620,2
3602021,MIN FLOW S FK SWAN RIVER,7.83,39.498092,-105.944074,49620,1.5
3602022,MIN FLOW MID FORK SWAN RIVER - HDW TO N FORK,6.53,39.512082,-105.949561,49620,3
3602023,MIN FLOW NORTH TENMILE CREEK,0.02,39.574434,-106.110989,49620,3
3602024,MIN FLOW CRYSTAL CREEK,1.34,39.43243,-106.055251,49620,2
3602025,MIN FLOW SPRUCE CREEK,,39.947911,-106.35879,49620,0.5
3602026,MIN FLOW MEADOW CREEK,2.32,39.585961,-106.103335,49620,3
3602027,MIN FLOW SPRUCE CREEK,,39.44136,-106.038985,49620,2.5
3602028,MIN FLOW KEYSTONE GULCH,0,39.601954,-105.979498,49746,1.5
3602029,MIN FLOW NORTH FORK SNAKE RIVER,7.03,39.605115,-105.942572,49746,3.5
3602030,MIN FLOW BLUE RIVER 3 - SWAN RIVER UP TO POND,50.93,39.546391,-106.038304,49746,20
3602031,MIN FLOW WEST TENMILE CK HW TO UNION GULCH,1.95,39.500398,-106.16703,49746,5
3602032,MIN FLOW TENMILE CREEK,10.46,39.50989,-106.142064,49746,10
3602033,MIN FLOW SNAKE RIVER LOW - NORTH FORK TO DILLON,2.52,39.603841,-106.010589,49746,12
3602034,MIN FLOW BLUE RIVER 1 - BEMROSE/MONTE CRISTO - HWY,64.54,39.386929,-106.052912,49746,2
3602035,MIN FLOW BLUE RIVER 2 - FREDONIA TO GOOSE PASTURE ,59.16,39.448568,-106.034048,49746,5
3602036,MIN FLOW WEST TENMILE CK - UNION GULCH TO TERMINUS,1.81,39.500502,-106.164671,49746,7
3602037,MIN FLOW BLUE RIVER 4 - SWAN RIVER TO DILLON,49.01,39.569951,-106.049494,49746,32
3602038,MIN FLOW SWAN RIVER,0,39.546019,-106.038625,49746,6
3602039,MIN FLOW SNAKE RIVER UP - DEER CK TO PERU CK,11.38,39.597461,-105.875243,49746,3.5
3602040,MIN FLOW STRAIGHT CREEK,2.97,39.6468,-106.022007,49620,2.5
3602041,MIN FLOW INDIANA CREEK,0.03,39.454772,-106.028367,50961,2
3602042,MIN FLOW GULLER CREEK,2.61,39.504458,-106.178507,50961,1.5
3602043,MIN FLOW BLUE RIVER 5 - DILLON TO STRAIGHT CK,44.07,39.626513,-106.067732,50313,50
3602044,MIN FLOW BLUE RIVER 6 - STRAIGHT CK TO WILLOW CK,41.96,39.651482,-106.076252,50313,55
3602045,MIN FLOW BLUE RIVER 7 - ROCK CK TO WILLOW CK,35.6,39.723401,-106.125487,50313,75
3602046,MIN FLOW BLUE RIVER 8 - ROCK CK TO BOULDER CK,33.97,39.73701,-106.133445,50313,115
3602047,MIN FLOW BLUE RIVER 9 - BOULDER CK TO SLATE CK,29.76,39.782837,-106.162271,19866,0
3602047,MIN FLOW BLUE RIVER 9 - BOULDER CK TO SLATE CK,29.76,39.782837,-106.162271,23875,0
3602047,MIN FLOW BLUE RIVER 9 - BOULDER CK TO SLATE CK,29.76,39.782837,-106.162271,50313,125
3602048,MIN FLOW BLUE RIVER 10 - SLATE CK TO GMR,22.86,39.834308,-106.227226,19866,0
3602048,MIN FLOW BLUE RIVER 10 - SLATE CK TO GMR,22.86,39.834308,-106.227226,50313,125
3602049,MIN FLOW BLUE RIVER 11 - GMR TO COLORADO RIVER,0.02,40.042568,-106.397743,50313,60
3602050,MIN FLOW MINERS CREEK,0.3,39.576409,-106.085999,49620,1.5
3602063,MIN FLOW MINERS CREEK,48.37,39.57603,-106.086086,49620,1.5
3602066,PEABODY NO 1 SEGMENT 1 BOULDER CREEK,2.9,39.725539,-106.177923,19866,0
3602066,PEABODY NO 1 SEGMENT 1 BOULDER CREEK,2.9,39.725539,-106.177923,23875,0
3602067,PEABODY NO 1 SEGMENT 2 BLUE RIVER,33.96,39.737185,-106.133927,19866,0
3602067,PEABODY NO 1 SEGMENT 2 BLUE RIVER,33.96,39.737185,-106.133927,23875,0
3602068,PEABODY NO 1 SEGMENT 3 BLUE RIVER,30.84,39.769317,-106.154723,19866,0
3602069,PEABODY NO 1 SEGMENT 4 BLUE RIVER,29.76,39.782837,-106.162317,19866,0
3602072,MIN FLOW OFFICERS GULCH,8.13,39.538204,-106.1465,49620,1.5
3602073,MIN FLOW ACORN CREEK,2.13,39.762716,-106.113857,49620,1
3603501,ROBBIE'S POND,29.38,39.787446,-106.169881,57614,0
3603502,TOP OF THE WORLD POND,1.31,39.788477,-106.183679,56611,0
3603503,HAYCAMP CREEK POND B,1.4,39.786229,-106.192049,56611,0
3603504,HAY CAMP CREEK POND E,1.4,39.78848,-106.192205,56611,0
3603505,HAY CAMP CREEK POND G,1.32,39.792092,-106.191449,56611,0
3603506,MAIN MEADOW POND  A,0.95,39.807159,-106.198135,57368,0
3603507,MAIN MEADOW POND B,0.95,39.806441,-106.197888,57368,0
3603508,MAIN MEADOW POND C,0.95,39.805901,-106.197879,57368,0
3603509,MORRIS MEADOW POND A,27.07,39.808434,-106.179232,57614,0
3603510,MORRIS MEADOW POND B,26.69,39.807833,-106.180798,57614,0
3603511,MORRIS MEADOW POND E,27.25,39.806163,-106.175712,57614,0
3603513,MATHIS POND 1,0.18,39.7423,-106.135143,53628,0
3603514,MATHIS POND 2,0.18,39.743487,-106.135442,53628,0
3603533,BLACK LAKE RESERVOIR,5.49,39.795592,-106.270863,32075.1461,1997.2
3603534,BOBO STRAIT RESERVOIR,41.95,39.652336,-106.07447,32075.19601,40
3603537,BUMGARNER RESERVOIR,6.1,39.968067,-106.439255,35016,22
3603538,CATARACT LAKE,3.45,39.835415,-106.316835,30184.14246,1652.8
3603539,BEARDSLEY NO 1 POND,1.31,39.798459,-106.210844,23900,1
3603539,BEARDSLEY NO 1 POND,1.31,39.798459,-106.210844,53112,0
3603539,BEARDSLEY NO 1 POND,1.31,39.798459,-106.210844,56613.53112,1.5
3603540,DILLON RESERVOIR-SALT CR,,39.611758,-106.072246,32515,46.14
3603540,DILLON RESERVOIR-SALT CR,,39.611758,-106.072246,50310,0
3603540,DILLON RESERVOIR-SALT CR,,39.611758,-106.072246,52230.52101,10
3603540,DILLON RESERVOIR-SALT CR,,39.611758,-106.072246,52230.52101,150
3603540,DILLON RESERVOIR-SALT CR,,39.611758,-106.072246,52587,0
3603540,DILLON RESERVOIR-SALT CR,,39.611758,-106.072246,52960.52067,0
3603540,DILLON RESERVOIR-SALT CR,,39.611758,-106.072246,57688,60
3603540,DILLON RESERVOIR-SALT CR,,39.611758,-106.072246,57688,10
3603540,DILLON RESERVOIR-SALT CR,,39.611758,-106.072246,58059,0
3603540,DILLON RESERVOIR-SALT CR,,39.611758,-106.072246,58059,30
3603540,DILLON RESERVOIR-SALT CR,,39.611758,-106.072246,59169.58727,17.27
3603542,GOOSE PASTURE TARN,58.62,39.454888,-106.030562,11146,1
3603542,GOOSE PASTURE TARN,58.62,39.454888,-106.030562,11146,32.49
3603542,GOOSE PASTURE TARN,58.62,39.454888,-106.030562,13027,0
3603542,GOOSE PASTURE TARN,58.62,39.454888,-106.030562,13087,0
3603542,GOOSE PASTURE TARN,58.62,39.454888,-106.030562,16954,6.64
3603542,GOOSE PASTURE TARN,58.62,39.454888,-106.030562,16954,62.2
3603542,GOOSE PASTURE TARN,58.62,39.454888,-106.030562,30280,0
3603542,GOOSE PASTURE TARN,58.62,39.454888,-106.030562,39334,0
3603542,GOOSE PASTURE TARN,58.62,39.454888,-106.030562,40785,1396.4
3603542,GOOSE PASTURE TARN,58.62,39.454888,-106.030562,43313,0
3603542,GOOSE PASTURE TARN,58.62,39.454888,-106.030562,43321,0
3603542,GOOSE PASTURE TARN,58.62,39.454888,-106.030562,43334,0
3603542,GOOSE PASTURE TARN,58.62,39.454888,-106.030562,43402,0
3603542,GOOSE PASTURE TARN,58.62,39.454888,-106.030562,44925.44651,0
3603542,GOOSE PASTURE TARN,58.62,39.454888,-106.030562,47116.471,0
3603542,GOOSE PASTURE TARN,58.62,39.454888,-106.030562,47905,0
3603542,GOOSE PASTURE TARN,58.62,39.454888,-106.030562,48636,0
3603542,GOOSE PASTURE TARN,58.62,39.454888,-106.030562,51325,0
3603542,GOOSE PASTURE TARN,58.62,39.454888,-106.030562,52067,0
3603543,GREEN MOUNTAIN RESERVOIR,15.77,39.876387,-106.330645,31258,160961
3603543,GREEN MOUNTAIN RESERVOIR,15.77,39.876387,-106.330645,38635,0
3603543,GREEN MOUNTAIN RESERVOIR,15.77,39.876387,-106.330645,50038.49309,48238
3603543,GREEN MOUNTAIN RESERVOIR,15.77,39.876387,-106.330645,57997,0
3603543,GREEN MOUNTAIN RESERVOIR,15.77,39.876387,-106.330645,58804.58705,0
3603544,GRIGGS RESERVOIR,0.31,39.996872,-106.38129,35969,40.8
3603545,GRIGGS RESERVOIR NO 2,0.71,39.992229,-106.385366,36801,7.85
3603548,HOAGLAND NO 1 RESERVOIR,2.97,39.84583,-106.349797,32075.22262,348.59
3603548,HOAGLAND NO 1 RESERVOIR,2.97,39.84583,-106.349797,32075.31563,572.91
3603548,HOAGLAND NO 1 RESERVOIR,2.97,39.84583,-106.349797,49308.48956,0
3603549,JONES RESERVOIR,5.13,39.97951,-106.457917,35645,14.6
3603555,LOST LAKE RESERVOIR,23.9,39.780051,-106.257534,46034,75
3603557,CON-HOOSIER LOWER BLUE LAKE,64.36,39.387161,-106.089469,35927,0
3603558,CON-HOOSIER MAYFLOWER LAKE,2.87,39.421714,-106.085778,35927,0
3603560,MONTEZUMA RESERVOIR,12.97,39.578617,-105.864853,20333,0.2
3603565,REYNOLDS RESERVOIR,1.79,39.583055,-105.996955,32075.16621,9.84
3603565,REYNOLDS RESERVOIR,1.79,39.583055,-105.996955,32075.16621,40
3603565,REYNOLDS RESERVOIR,1.79,39.583055,-105.996955,32309,157
3603567,CON-HOOSIER SPRUCE LAKE,2.61,39.421518,-106.07482,35927,0
3603569,UPPER BLACK CREEK RESERVOIR,4.56,39.80494,-106.262975,33094,428.34
3603570,CON-HOOSIER UPPER BLUE LAKE,64.36,39.385729,-106.100872,35927,2140
3603571,WAY RESERVOIR,2.33,39.96349,-106.414396,33466,93.67
3603573,MIN LAKE BOULDER LAKE,4.43,39.717262,-106.201133,46034,8
3603574,MIN LAKE CLIFF LAKE,8.63,39.780194,-106.33876,46034,271
3603575,CLINTON GULCH RESERVOIR,18.41,39.415312,-106.172557,45290.35239,4250
3603575,CLINTON GULCH RESERVOIR,18.41,39.415312,-106.172557,51864.51194,4250
3603575,CLINTON GULCH RESERVOIR,18.41,39.415312,-106.172557,52960.52067,0
3603575,CLINTON GULCH RESERVOIR,18.41,39.415312,-106.172557,56978.56753,210
3603575,CLINTON GULCH RESERVOIR,18.41,39.415312,-106.172557,57708.57688,0
3603575,CLINTON GULCH RESERVOIR,18.41,39.415312,-106.172557,61361.59804,0
3603576,FROST NO 2 RES COLL SYS,4.09,39.604877,-105.804085,43829.43825,0
3603578,GRIGGS RESERVOIR NO 3,0.45,39.997046,-106.386389,44559.37499,34.734
3603579,GRIGGS RESERVOIR NO 4,0.18,39.998625,-106.381665,45290.3628,4.1
3603580,GRIGGS RESERVOIR NO 5,0.46,39.994824,-106.382279,45290.3635,2.3
3603581,GRIGGS RESERVOIR NO 6,0.51,39.994252,-106.382678,45290.36436,1.2
3603582,GRIGGS RESERVOIR NO 7,0.62,39.992975,-106.383987,45290.36645,1
3603583,HEIT RANCH RESERVOIR,42.74,39.645299,-106.064711,44925.41272,15
3603583,HEIT RANCH RESERVOIR,42.74,39.645299,-106.064711,56978.26468,15
3603584,MIN LAKE LOST LAKE,8.13,39.53686,-106.183793,46097,9
3603585,MIN LAKE LOWER WHEELER,9.58,39.530184,-106.169586,46097,48
3603586,MIN LAKE MOHAWK NO 2,2.87,39.418247,-106.090348,46097,444
3603587,MIN LAKE MOHAWK NO 5,2.87,39.421587,-106.086833,46097,64
3603588,MIN LAKE MOHAWK NO 6,2.87,39.421508,-106.104804,46097,288
3603589,MIN LAKE MOHAWK  NO 7,2.87,39.424445,-106.109521,46097,15
3603591,MIN LAKE SALMON LAKE,37.34,39.67578,-106.164608,46034,70
3603592,SHANE RESERVOIR,0.32,39.845537,-106.228595,45512,6
3603593,MIN LAKE SLATE LAKE NO 1,10.03,39.66337,-106.356376,46034,350
3603594,MIN LAKE UPPER WHEELER,9.58,39.530184,-106.169586,46097,70
3603595,VALLEY OF THE BLUE RESERVOIR 1,64.43,39.389002,-106.048856,44559.4266,4.2
3603596,BILLS RANCH LAKE,0.82,39.568914,-106.089712,44194.3068,16.83
3603599,SAWMILL RESERVOIR,0.94,39.473443,-106.058331,13027,5
3603599,SAWMILL RESERVOIR,0.94,39.473443,-106.058331,13087,6.77
3603599,SAWMILL RESERVOIR,0.94,39.473443,-106.058331,43234,25.124
3603599,SAWMILL RESERVOIR,0.94,39.473443,-106.058331,52067,0
3603602,CINNAMON RIDGE STORAGE TANK,6.41,39.607358,-105.952666,47905,0
3603604,MIN LAKE MAHAN LAKE,6.63,39.808378,-106.389855,46034,173
3603605,MIN LAKE MIRROR LAKE,9,39.779963,-106.352966,46034,41
3603606,OFFICERS GULCH POND,8.12,39.53985,-106.143765,46386.18627,100
3603607,SOBOL POND,42.39,39.645119,-106.076491,36219,1
3603609,SWEETWATER POND NO 1,16.67,39.871539,-106.306932,47116.46933,0.018
3603610,SWEETWATER POND NO 2,16.69,39.872204,-106.307027,47116.46933,0.013
3603611,SWEETWATER POND NO 3,16.7,39.872581,-106.307221,47116.46933,0.013
3603612,SWEETWATER POND NO 4,16.71,39.872647,-106.306954,47116.46933,0.062
3603613,SWEETWATER POND NO 5,16.72,39.872837,-106.306829,47116.46933,0.096
3603614,SWEETWATER POND NO 6,16.76,39.873444,-106.306559,47116.46933,0.55
3603615,SWEETWATER POND NO 7,17.42,39.872236,-106.305788,47116.46933,0.062
3603616,SWEETWATER POND NO 8,17.55,39.871932,-106.305595,47116.46933,0.013
3603617,SWEETWATER POND NO 9,17.86,39.870653,-106.305606,47116.46933,0.096
3603624,SWAN RIVER WATER SYSTEM PONDS,1.41,39.526722,-106.026062,47670,50
3603624,SWAN RIVER WATER SYSTEM PONDS,1.41,39.526722,-106.026062,48577.4767,6
3603624,SWAN RIVER WATER SYSTEM PONDS,1.41,39.526722,-106.026062,52067,0
3603625,LAKE ALVIN,0.62,39.793045,-106.179249,49673.47786,53.14
3603628,FRED H POND,2.27,39.966171,-106.323954,50403.50233,2.5
3603629,SWAN RIVER RESERVOIR NO 1,2.25,39.531456,-106.01232,48182,0
3603630,SWAN RIVER RESERVOIR NO 2,2.77,39.532907,-106.003905,48182,0
3603632,SWAN RIVER RESERVOIR NO 4,4.82,39.52503,-105.973437,48182,0
3603635,WYLER RESERVOIR,1.28,39.722737,-106.15552,48212.47999,15
3603636,EAGLES NEST RESERVOIR,39.97,39.671395,-106.094515,48212.40754,25
3603638,UPPER SLATE LAKE,10.03,39.660745,-106.25866,46034,336
3603639,GREEN MOUNTAIN RES EXCH,15.6,39.878455,-106.332533,31258,0
3603639,GREEN MOUNTAIN RES EXCH,15.6,39.878455,-106.332533,58804.58705,0
3603644,DUNHAM POND NO 1,0.55,39.713312,-106.102784,56063,0.26
3603644,DUNHAM POND NO 1,0.55,39.713312,-106.102784,56094,0
3603645,DUNHAM POND NO 2,0.52,39.713684,-106.103467,56063,0.54
3603645,DUNHAM POND NO 2,0.52,39.713684,-106.103467,56094,0
3603646,DUNHAM POND NO 3,0.56,39.713709,-106.102744,56094,0
3603648,SWAN RIVER RESERVOIR,6.34,39.514636,-105.951247,48415,0
3603649,LOWER MOHAWK RESERVOIR,,,,48415,0
3603651,FAUSEL POND NO 1,36.75,39.712632,-106.110776,53225,1
3603652,FAUSEL POND NO 2,36.51,39.715723,-106.113509,53225,40
3603655,BARBER POND,36.81,39.710428,-106.108559,53225,5.2
3603656,YOSUICHI RESERVOIR,0.51,39.495127,-106.054787,51499.49093,1.75
3603657,SANDERS POND NO 1,0.5,39.715264,-106.141338,52133,0.5
3603658,SANDERS POND NO 2,0.5,39.71478,-106.139265,52133,2.1
3603659,SANDERS POND NO 3,0.5,39.715554,-106.138426,52133,2.62
3603660,SANDERS POND NO 4,0.5,39.71585,-106.137567,52133,1.19
3603661,MILLIGAN RESERVOIR,2.02,39.968219,-106.327624,50769.30316,10
3603662,EAGLES NEST GOLF COURSE NO1 POND,0.47,39.663607,-106.087141,49308.4885,12.4
3603663,EAGLES NEST GOLF COURSE NO 2 POND,0.29,39.658559,-106.083589,49308.4885,6.4
3603664,EAGLES NEST GOLF COURSE NO 4 SOUTH POND,0.5,39.653851,-106.085998,49308.4885,3.3
3603665,EAGLES NEST GOLF COURSE NO4 NORTH POND,0.5,39.65386,-106.085963,49308.49216,1.4
3603666,EAGLES NEST GOLF COURSE NO 7 POND,1.06,39.658881,-106.093409,49308.4885,7.7
3603667,EAGLES NEST GOLF COURSE NO 9 SOUTH POND,1.01,39.66212,-106.090044,49308.49216,2.3
3603668,EAGLES NEST GOLF COURSE NO 9 NORTH POND,1.01,39.662003,-106.090077,49308.49216,2.5
3603669,EAGLES NEST GOLF COURSE NO12 POND,1.25,39.671448,-106.094575,49581,3.2
3603670,EAGLES NEST GOLF COURSE NO16 EAST POND,1.25,39.668203,-106.095736,49308.49216,1.3
3603671,EAGLES NEST GOLF COURSE NO16 WEST POND,1.25,39.672019,-106.095237,49308.49216,2.5
3603672,LAKE LACY,0.96,39.650934,-106.092468,51361,5
3603673,COUNIHAN POND,31.08,39.77664,-106.141242,52595.47634,2
3603674,DOENZ POND,3.38,39.904433,-106.401061,54421.22053,1.5
3603675,LOWER POND,3.28,39.905943,-106.399805,54421.22053,0.6
3603678,SOUTH POND,0.31,39.674709,-106.08889,54786.54603,4
3603679,PUMP POND,0.55,39.676393,-106.084182,54969,1
3603680,HOUSE POND 1,1.68,39.687557,-106.071494,54786.54603,2
3603681,HOUSE POND 2,1.69,39.687788,-106.071882,54786.54603,0
3603682,HOUSE POND 3,1.69,39.687805,-106.071952,54786.54603,0
3603683,WINEGARD POND 1,0.42,39.675872,-106.086891,52595.39081,0.1
3603684,WINEGARD POND 2,0.32,39.674575,-106.088771,52595.43829,1.1
3603685,WINEGARD POND 3,0.31,39.675646,-106.088939,52595.47847,7.5
3603686,WINEGARD POND 4,0.24,39.675007,-106.089815,52595.47847,5.3
3603687,GETZ POND,,39.551738,-106.041898,55549,0.45
3603688,TRENT PARK POND,0.29,39.652641,-106.081445,55517.51746,5
3603690,BROOKS SNIDER POND,0.93,39.489958,-106.05943,51864.4949,0.5
3603691,BENSON RANCH POND,0.08,39.821122,-106.193072,55152.54756,3
3603692,OFF GUL RP RESERVOIR,7.92,39.541798,-106.142042,33799,6.4
3603693,MELODY LODGE POND,22.3,39.839133,-106.233506,56247.53922,4
3603694,ARAPAHOE BASIN SNOWMAKING RESERVOIR,4.78,39.640971,-105.876456,48965,0
3603694,ARAPAHOE BASIN SNOWMAKING RESERVOIR,4.78,39.640971,-105.876456,49563,2
3603694,ARAPAHOE BASIN SNOWMAKING RESERVOIR,4.78,39.640971,-105.876456,52067,0
3603694,ARAPAHOE BASIN SNOWMAKING RESERVOIR,4.78,39.640971,-105.876456,53935,3.6
3603695,TRIPLE CREEK POND NO 1,0.5,39.716236,-106.132277,52133,0.133
3603696,TRIPLE CREEK POND NO 2,0.5,39.715946,-106.132412,52133,0.009
3603697,TRIPLE CREEK POND NO 3,0.5,39.714475,-106.135433,52133,0.037
3603698,TRIPLE CREEK POND NO 4,0.5,39.714284,-106.13564,52133,0.003
3603699,TRIPLE CREEK POND NO 5,0.24,39.722641,-106.129558,52133,0.1
3603700,TRIPLE CREEK POND NO 6,0.23,39.722786,-106.129526,52133,0.017
3603701,TRIPLE CREEK POND NO 7,0.5,39.718984,-106.132205,52133,0.156
3603703,MCCAIN RESERVOIR,58.62,39.454888,-106.030562,40785,0
3603704,PERU CREEK RESERVOIR,4,39.604129,-105.805393,40020,0
3603704,PERU CREEK RESERVOIR,4,39.604129,-105.805393,58493,0
3603705,MOORE RESERVOIR,4.42,40.005831,-106.326279,20676.19919,120
3604512,DILLON RESERVOIR,44.67,39.618306,-106.065579,16557,0
3604512,DILLON RESERVOIR,44.67,39.618306,-106.065579,22965.22553,0
3604512,DILLON RESERVOIR,44.67,39.618306,-106.065579,32075.24411,0
3604512,DILLON RESERVOIR,44.67,39.618306,-106.065579,32075.2578,0
3604512,DILLON RESERVOIR,44.67,39.618306,-106.065579,32075.2651,0
3604512,DILLON RESERVOIR,44.67,39.618306,-106.065579,35238,252678
3604512,DILLON RESERVOIR,44.67,39.618306,-106.065579,36437,0
3604512,DILLON RESERVOIR,44.67,39.618306,-106.065579,50038.49309,155236
3604512,DILLON RESERVOIR,44.67,39.618306,-106.065579,57688,0
3604512,DILLON RESERVOIR,44.67,39.618306,-106.065579,57708.57688,0
3604512,DILLON RESERVOIR,44.67,39.618306,-106.065579,58804.48692,0
3604512,DILLON RESERVOIR,44.67,39.618306,-106.065579,58804.4956,0
3604620,VIDLER - RICE/SODA CREEK/PHILLIPS POOL,3.67,39.601259,-105.99548,15829,0
3604626,VIDLER TUNNEL WEST PORTAL,5.61,39.622948,-105.79142,15829,0
3604626,VIDLER TUNNEL WEST PORTAL,5.61,39.622948,-105.79142,19875,0
3604626,VIDLER TUNNEL WEST PORTAL,5.61,39.622948,-105.79142,22965.22553,1.5
3604626,VIDLER TUNNEL WEST PORTAL,5.61,39.622948,-105.79142,23296.224,0
3604626,VIDLER TUNNEL WEST PORTAL,5.61,39.622948,-105.79142,29022.25372,111.8
3604626,VIDLER TUNNEL WEST PORTAL,5.61,39.622948,-105.79142,29022.25372,7
3604626,VIDLER TUNNEL WEST PORTAL,5.61,39.622948,-105.79142,30184.16801,0
3604626,VIDLER TUNNEL WEST PORTAL,5.61,39.622948,-105.79142,30184.23561,0
3604626,VIDLER TUNNEL WEST PORTAL,5.61,39.622948,-105.79142,30931,3
3604626,VIDLER TUNNEL WEST PORTAL,5.61,39.622948,-105.79142,32075.18444,0
3604626,VIDLER TUNNEL WEST PORTAL,5.61,39.622948,-105.79142,32075.23561,0
3604626,VIDLER TUNNEL WEST PORTAL,5.61,39.622948,-105.79142,32075.2578,0.2
3604626,VIDLER TUNNEL WEST PORTAL,5.61,39.622948,-105.79142,33289,12.96
3604626,VIDLER TUNNEL WEST PORTAL,5.61,39.622948,-105.79142,40020,10.8
3604657,FREMONT NO 1 DITCH,18.46,39.390485,-106.180943,29228.28284,10
3604658,STRAIGHT CREEK TUNNEL DRAIN SYSTEM,8.55,39.67873,-105.935608,43829.43249,0.9
3604683,CON-HOOSIER SYS BLUE RIVER DITCH,64.54,39.382959,-106.077166,35927,200
3604684,BLUE RIVER DIVERSION PROJECT,45.59,39.616986,-106.044239,35238,520
3604685,BOREAS NO 2 DITCH,4.84,39.413501,-105.967911,30184.21915,16
3604687,CON-HOOSIER SYS CRYSTAL DITCH,2.09,39.436993,-106.071502,35927,40
3604688,CON-HOOSIER SYS DITCH INTERCEPTED FLOWS,64.54,39.380814,-106.071351,35927,50
3604689,CON-HOOSIER EAST HOOSIER DITCH,0.41,39.373723,-106.05456,30184.29071,40
3604689,CON-HOOSIER EAST HOOSIER DITCH,0.41,39.373723,-106.05456,35927,50
3604690,CON-HOOSIER SYS MCCULLOUGH DITCH,1.65,39.401167,-106.079293,35927,60
3604692,CON-HOOSIER - EAST HOOSIER DITCH CLAIM 1,0.41,39.373723,-106.054537,30184.29071,20
3604692,CON-HOOSIER - EAST HOOSIER DITCH CLAIM 1,0.41,39.373723,-106.054537,35927,40
3604694,BLUE RIVER DIVR PROJECT,0.62,39.607653,-106.055801,35238,0
3604695,BLUE RIVER DIVR PROJECT,2.13,39.600291,-106.018314,35238,0
3604696,CON-HOOSIER - DITCH CLAIM 2,64.54,39.374541,-106.048825,30184.29071,17
3604696,CON-HOOSIER - DITCH CLAIM 2,64.54,39.374541,-106.048825,35927,20
3604697,CON-HOOSIER SYS SPRUCE DITCH,2.6,39.421612,-106.074403,35927,60
3604699,CON-HOOSIER TUNNEL,64.54,39.380778,-106.07135,35927,20
3604900,GREEN MTN RES HUP AUTHORIZED BY SD-80,,39.876703,-106.330546,31258,0
3604903,GREEN MTN RES CONTRACT GROUP,15.58,39.878206,-106.333054,31258,0
3604912,SUMMIT COUNTY DILLON STORAGE WATER,44.48,39.620957,-106.066365,29022.25372,0
3604923,CLIMAX INTEGRATED WATER SYSTEM,18.46,39.368317,-106.182032,24292.19358,0.8
3604923,CLIMAX INTEGRATED WATER SYSTEM,18.46,39.368317,-106.182032,25924.24673,1.78
3604923,CLIMAX INTEGRATED WATER SYSTEM,18.46,39.368317,-106.182032,25924.24703,0.5
3604923,CLIMAX INTEGRATED WATER SYSTEM,18.46,39.368317,-106.182032,25924.2474,0.2142
3604923,CLIMAX INTEGRATED WATER SYSTEM,18.46,39.368317,-106.182032,25924.24919,30.24
3604923,CLIMAX INTEGRATED WATER SYSTEM,18.46,39.368317,-106.182032,25924.24919,102.8
3604923,CLIMAX INTEGRATED WATER SYSTEM,18.46,39.368317,-106.182032,29228.28284,30
3604923,CLIMAX INTEGRATED WATER SYSTEM,18.46,39.368317,-106.182032,29228.28408,50
3604923,CLIMAX INTEGRATED WATER SYSTEM,18.46,39.368317,-106.182032,29642.28956,55
3604923,CLIMAX INTEGRATED WATER SYSTEM,18.46,39.368317,-106.182032,30184.1778,3
3604923,CLIMAX INTEGRATED WATER SYSTEM,18.46,39.368317,-106.182032,30184.27913,0
3604923,CLIMAX INTEGRATED WATER SYSTEM,18.46,39.368317,-106.182032,31272,190
3604923,CLIMAX INTEGRATED WATER SYSTEM,18.46,39.368317,-106.182032,31566,55
3605000,OLD IRONSIDES WELL,,39.531583,-106.033638,44838,0.033
3605001,VAIL PASS WELL & EAST PL,,39.526862,-106.219597,46648,0.033
3605002,FOX WELL NO 1,,39.901198,-106.300912,45160,0.033
3605003,OFFERSON WELL NO 1,,39.495393,-106.04529,47847.40776,0.044
3605004,ADRIAN THEATER WELL NO 1,,39.494567,-106.04301,47847.40694,0.066
3605005,LIFTSIDE WELL NO 1 25259,,39.607097,-105.955913,47481.42326,0.022
3605005,LIFTSIDE WELL NO 1 25259,,39.607097,-105.955913,48563,0
3605006,LIFTSIDE WELL NO 2 25260,,39.607015,-105.955923,47481.42324,0.022
3605006,LIFTSIDE WELL NO 2 25260,,39.607015,-105.955923,48563,0
3605007,BAER WELL 1,,39.459904,-106.043015,50367,0.0333
3605008,DANIELS WELL NO 1,,39.447108,-106.042369,45490,0
3605008,DANIELS WELL NO 1,,39.447108,-106.042369,46236,0.022
3605009,BLUE RIVER VALLEY WELL NO 1,,39.645121,-106.073274,41212,0.766
3605011,BLUMENHEIN WELL NO 1,,39.568775,-106.093913,44737,0.022
3605011,BLUMENHEIN WELL NO 1,,39.568775,-106.093913,44737,0
3605011,BLUMENHEIN WELL NO 1,,39.568775,-106.093913,52960.49569,0
3605012,BOGGS WELL,,39.640306,-106.070518,41905,0.1
3605013,BRECKENRIDGE WELL NO 1,,39.47987,-106.066893,41637,0.089
3605014,BRECKENRIDGE WELL NO 2,,39.48057,-106.068264,40907,0.033
3605015,BRECKENRIDGE WELL NO 3,,39.479076,-106.067078,41637,0.058
3605016,BUFFALO MOUNTAIN WELL,,39.626806,-106.072071,33289,0
3605017,BUMGARNER WELL,,39.986346,-106.43643,23405,0.055
3605018,BURGER WELL,,39.575672,-106.097374,44559.41,0.066
3605019,CHANDLER WELL,,39.64393,-106.070558,44005,0.0266
3605020,COX WELL,,39.661831,-106.080203,42842,0.044
3605021,VUKOVICH WELL NO 1,,39.784589,-106.146488,49735,0
3605022,DAY WELL,,39.458386,-106.033033,44338,0.022
3605023,DILLON HI COUNTRY WELL 1,,39.571465,-106.060332,43280,0.044
3605024,DILLON RESERVOIR RESIDENCE WELL,,39.625711,-106.032361,41617,0.0912
3605025,DODGE WELL,,39.494236,-106.094827,43074,0.0334
3605026,DOLE & BOWEN WELL,,39.600167,-105.975845,42515,0.0223
3605027,COPPER MTN DOMESTIC WELL,,39.501181,-106.149888,43625,0.055
3605028,FARMER WELL NO 1,,39.565003,-106.054623,44559.41104,0.089
3605029,FARMER WELL NO 2,,39.563891,-106.053393,42180,0.022
3605030,FRISCO WELL NO 1,,39.5755,-106.109702,19897,0.35
3605030,FRISCO WELL NO 1,,39.5755,-106.109702,41942,0.35
3605031,FRISCO WELL NO 2,,39.575375,-106.109676,19897,0.44
3605031,FRISCO WELL NO 2,,39.575375,-106.109676,40863,0.44
3605032,FRISCO WELL NO 3,,39.576895,-106.099524,19897,0.89
3605033,FUNK WELL,,39.736307,-106.162585,40051,0.035
3605034,GOODBODY WELL,,39.494588,-106.037695,42659,0.0022
3605035,GUIDA WELL A,,39.567816,-106.088818,42157,0.033
3605036,GUIDA WELL B,,39.571441,-106.088818,41878,0.0156
3605037,G F P WELL NO 1,,39.875875,-106.324328,41417,0.002
3605038,G F P WELL NO 2,,39.890267,-106.29609,41505,0.033
3605039,G F P WELL NO 3,,39.846696,-106.235539,41505,0.022
3605040,HAMMER WELL,,39.672733,-106.094506,44559.4255,0.033
3605041,HARRIS WELL,,39.578708,-106.108071,42899,0.044
3605042,HELLMAN WELL,,39.596527,-106.004367,40672,0.078
3605043,HIGH COUNTRY WELL NO 1,,39.593222,-106.098525,44179,0.088
3605044,HIGH COUNTRY WELL NO 2,,39.593222,-106.098525,44297,0.067
3605045,HOFF WELL,,39.516298,-106.057773,44403,0.033
3605046,HYNA WELL,,39.565388,-106.051939,44559.42515,0.0446
3605047,JANKOVSKY WELL,,39.605133,-105.976375,41113,0.011
3605048,JEFFREY WELL,,,,39293,0.022
3605049,KOEHN WELL,,39.533787,-106.039093,57708.48786,0.01
3605050,KEYBASE WELL,,39.604482,-105.952813,14427,0.75
3605050,KEYBASE WELL,,39.604482,-105.952813,17321,1.5
3605050,KEYBASE WELL,,39.604482,-105.952813,44010,0.077
3605051,KEYSTONE INTERN WELL NO1,,39.607473,-105.971375,32506,0.11
3605052,KEYSTONE INTERN WELL NO2,,39.604145,-105.961987,44148,0.033
3605053,KEYSTONE INTERN WELL NO3,,39.607312,-105.923685,42068,0.033
3605054,KEYTOP WELL NO 1,,39.578709,-105.943378,43785,0.067
3605054,KEYTOP WELL NO 1,,39.578709,-105.943378,48965,0
3605054,KEYTOP WELL NO 1,,39.578709,-105.943378,52067,0
3605055,KEYTOP WELL NO 2,,39.578969,-105.939074,44528,0.067
3605055,KEYTOP WELL NO 2,,39.578969,-105.939074,48965,0
3605055,KEYTOP WELL NO 2,,39.578969,-105.939074,52067,0
3605056,KIMMEL WELL NO 1,,39.759828,-106.132194,44338,0.033
3605057,LANCER WELL NO 1,,39.392065,-106.05191,43032,0.044
3605058,LANCER WELL NO 3,,39.401724,-106.048989,40675,0.044
3605059,MACKOWN WELL,,39.665527,-106.080305,43073,0.067
3605060,MCDILL PLACER WELL,,39.385022,-106.06349,44678,0.033
3605061,MCNEIL WELL,,39.451143,-106.038259,44559.4193,0.055
3605065,MONTEZUMA WELL,,39.582224,-105.870141,18627,0.033
3605066,MOORE WELL,,39.384925,-106.049419,44365,0.011
3605067,NORTHFIELD WELL,,39.40169,-106.051741,40673,0.067
3605068,OWNERS WELL NO 1,,39.604291,-105.9574,18181,0.025
3605068,OWNERS WELL NO 1,,39.604291,-105.9574,32075.25333,0.0593
3605068,OWNERS WELL NO 1,,39.604291,-105.9574,48563,0
3605069,OWNERS WELL NO 2,,39.607119,-105.948738,18181,0.025
3605069,OWNERS WELL NO 2,,39.607119,-105.948738,32075.25333,0.1453
3605070,OWNERS WELL NO 3,,39.606878,-105.949596,18181,0.025
3605070,OWNERS WELL NO 3,,39.606878,-105.949596,32075.25333,0.1253
3605070,OWNERS WELL NO 3,,39.606878,-105.949596,48563,0
3605071,OWNERS WELL NO 4,,39.606592,-105.948206,18181,0.025
3605071,OWNERS WELL NO 4,,39.606592,-105.948206,32075.25333,0.1593
3605071,OWNERS WELL NO 4,,39.606592,-105.948206,48563,0
3605071,OWNERS WELL NO 4,,39.606592,-105.948206,48942.48563,0.444
3605072,PADON WELL,,39.603917,-105.971228,44636,0
3605073,PLYMOUTH WELL,,39.586181,-105.870268,36797,0.066
3605074,POST WELL,,39.60802,-105.957521,40751,0.07
3605075,PTARMIGAN WELL NO 1,,39.675847,-106.087695,40889,0.089
3605076,PTARMIGAN WELL NO 2,,39.663463,-106.076542,44185,0.027
3605077,PTARMIGAN WELL NO 3,,39.663055,-106.078774,40530,0.089
3605078,PTARMIGAN WELL NO 4,,39.669214,-106.085877,40530,0
3605078,PTARMIGAN WELL NO 4,,39.669214,-106.085877,40889,0
3605078,PTARMIGAN WELL NO 4,,39.669214,-106.085877,42399,0.033
3605078,PTARMIGAN WELL NO 4,,39.669214,-106.085877,43129,0
3605078,PTARMIGAN WELL NO 4,,39.669214,-106.085877,43495,0
3605078,PTARMIGAN WELL NO 4,,39.669214,-106.085877,44185,0
3605079,PTARMIGAN WELL NO 5,,39.663876,-106.074707,43495,0.067
3605080,PTARMIGAN WELL NO 6,,39.661222,-106.072323,43129,0.044
3605081,PURMAL WELL,,39.593167,-106.084165,44496,0.0334
3605082,QUALY WELL,,39.585913,-106.088786,42446,0.088
3605083,COPPER MTN RESTAURANT STAND-BY WELL,,39.483974,-106.155105,43625,0.055
3605084,COPPER MTN RESTAURANT WELL NO 1,,39.484476,-106.155404,44559.43625,0.055
3605085,RILEY WELL,,39.570878,-105.859861,20279,0.14
3605086,RIVER TRAILER COURT WELL,,39.634902,-106.077416,40432,0.022
3605087,ROWLEY WELL,,39.600167,-105.975845,42809,0.011
3605088,SEYMOUR WELL,,39.607012,-105.944205,42003,0.033
3605089,SHIRLEY WELL NO 1,,39.649758,-106.082391,44925.38485,0.0396
3605090,SILVERTHORNE WELL NO 01,,39.630379,-106.074456,14792,0
3605090,SILVERTHORNE WELL NO 01,,39.630379,-106.074456,16557,0
3605090,SILVERTHORNE WELL NO 01,,39.630379,-106.074456,18005,0
3605090,SILVERTHORNE WELL NO 01,,39.630379,-106.074456,25715.21335,0
3605090,SILVERTHORNE WELL NO 01,,39.630379,-106.074456,32075.24411,0
3605090,SILVERTHORNE WELL NO 01,,39.630379,-106.074456,32075.2651,0
3605090,SILVERTHORNE WELL NO 01,,39.630379,-106.074456,33289,0
3605090,SILVERTHORNE WELL NO 01,,39.630379,-106.074456,36437,0
3605090,SILVERTHORNE WELL NO 01,,39.630379,-106.074456,43169,0.667
3605090,SILVERTHORNE WELL NO 01,,39.630379,-106.074456,49008,0
3605090,SILVERTHORNE WELL NO 01,,39.630379,-106.074456,49569,0
3605090,SILVERTHORNE WELL NO 01,,39.630379,-106.074456,50038.49799,0
3605090,SILVERTHORNE WELL NO 01,,39.630379,-106.074456,52960.52067,0
3605091,SILVERTHORNE WELL NO 02,,39.629973,-106.075499,14792,0
3605091,SILVERTHORNE WELL NO 02,,39.629973,-106.075499,16557,0
3605091,SILVERTHORNE WELL NO 02,,39.629973,-106.075499,18005,0
3605091,SILVERTHORNE WELL NO 02,,39.629973,-106.075499,25715.21335,0
3605091,SILVERTHORNE WELL NO 02,,39.629973,-106.075499,32075.24411,0
3605091,SILVERTHORNE WELL NO 02,,39.629973,-106.075499,32075.2651,0
3605091,SILVERTHORNE WELL NO 02,,39.629973,-106.075499,33289,0
3605091,SILVERTHORNE WELL NO 02,,39.629973,-106.075499,36437,0
3605091,SILVERTHORNE WELL NO 02,,39.629973,-106.075499,43169,0.667
3605091,SILVERTHORNE WELL NO 02,,39.629973,-106.075499,49008,0
3605091,SILVERTHORNE WELL NO 02,,39.629973,-106.075499,49569,0
3605091,SILVERTHORNE WELL NO 02,,39.629973,-106.075499,50038.49799,0
3605091,SILVERTHORNE WELL NO 02,,39.629973,-106.075499,52960.52067,0
3605092,SILVERTHORNE WELL NO 03,,39.633734,-106.073168,14792,0
3605092,SILVERTHORNE WELL NO 03,,39.633734,-106.073168,16557,0
3605092,SILVERTHORNE WELL NO 03,,39.633734,-106.073168,25715.21335,0
3605092,SILVERTHORNE WELL NO 03,,39.633734,-106.073168,32075.24411,0
3605092,SILVERTHORNE WELL NO 03,,39.633734,-106.073168,32075.2651,0
3605092,SILVERTHORNE WELL NO 03,,39.633734,-106.073168,33289,0
3605092,SILVERTHORNE WELL NO 03,,39.633734,-106.073168,36437,0
3605092,SILVERTHORNE WELL NO 03,,39.633734,-106.073168,43169,0.667
3605092,SILVERTHORNE WELL NO 03,,39.633734,-106.073168,49008,0
3605093,SILVERTHORNE WELL NO 04,,39.634283,-106.074214,14792,0
3605093,SILVERTHORNE WELL NO 04,,39.634283,-106.074214,16557,0
3605093,SILVERTHORNE WELL NO 04,,39.634283,-106.074214,25715.21335,0
3605093,SILVERTHORNE WELL NO 04,,39.634283,-106.074214,32075.24411,0
3605093,SILVERTHORNE WELL NO 04,,39.634283,-106.074214,32075.2651,0
3605093,SILVERTHORNE WELL NO 04,,39.634283,-106.074214,33289,0
3605093,SILVERTHORNE WELL NO 04,,39.634283,-106.074214,36437,0
3605093,SILVERTHORNE WELL NO 04,,39.634283,-106.074214,43169,0.667
3605093,SILVERTHORNE WELL NO 04,,39.634283,-106.074214,49008,0
3605094,SITE NO 1 WELL,,39.60687,-105.966987,14427,0
3605094,SITE NO 1 WELL,,39.60687,-105.966987,17321,0
3605094,SITE NO 1 WELL,,39.60687,-105.966987,32075.14427,0.75
3605094,SITE NO 1 WELL,,39.60687,-105.966987,44741,1.23
3605095,SKELLY WELL NO 1,,39.627916,-106.065039,43981,0.067
3605096,SKI CLUB WELL,,39.481545,-106.051233,42215,0.044
3605097,SMART WELL,,39.661812,-106.075325,43032,0.044
3605098,STAFFORD STORE WELL NO 1,,39.921607,-106.332831,44559.32506,0.11
3605099,STRAUSS WELL,,39.563887,-106.048287,42912,0.0444
3605100,SWAN WELL,,39.607808,-105.942424,39811,0.044
3605101,TAUSCHER WELL,,39.633157,-106.079964,40438,0.089
3605102,TYROLLEAN TERRACE WELL#2,,39.471548,-106.032563,44559.42313,0.022
3605103,UNION WELL NO 01,,39.653418,-106.077307,8916,0
3605103,UNION WELL NO 01,,39.653418,-106.077307,14903,0
3605103,UNION WELL NO 01,,39.653418,-106.077307,32075.19539,0
3605104,UNION WELL NO 02,,39.653721,-106.081601,8916,0
3605104,UNION WELL NO 02,,39.653721,-106.081601,14903,0
3605104,UNION WELL NO 02,,39.653721,-106.081601,32075.19539,0
3605105,UNION WELL NO 03,,39.654875,-106.077598,8916,0
3605105,UNION WELL NO 03,,39.654875,-106.077598,14903,0
3605105,UNION WELL NO 03,,39.654875,-106.077598,32075.19539,0
3605106,UNION WELL NO 04,,39.657338,-106.079175,8916,0
3605106,UNION WELL NO 04,,39.657338,-106.079175,14903,0
3605106,UNION WELL NO 04,,39.657338,-106.079175,32075.19539,0
3605106,UNION WELL NO 04,,39.657338,-106.079175,36738,0
3605107,UNION WELL NO 05,,39.659158,-106.07918,8916,0
3605107,UNION WELL NO 05,,39.659158,-106.07918,14903,0
3605107,UNION WELL NO 05,,39.659158,-106.07918,32075.19539,0
3605107,UNION WELL NO 05,,39.659158,-106.07918,36738,0
3605108,UNION WELL NO 06,,39.664602,-106.083905,8916,0
3605108,UNION WELL NO 06,,39.664602,-106.083905,14903,0
3605108,UNION WELL NO 06,,39.664602,-106.083905,32075.19539,0
3605108,UNION WELL NO 06,,39.664602,-106.083905,36738,0
3605109,UNION WELL NO 07,,39.659181,-106.08157,8916,0
3605109,UNION WELL NO 07,,39.659181,-106.08157,14903,0
3605109,UNION WELL NO 07,,39.659181,-106.08157,32075.19539,0
3605109,UNION WELL NO 07,,39.659181,-106.08157,36738,0
3605110,UNION WELL NO 08,,39.662809,-106.083888,8916,0
3605110,UNION WELL NO 08,,39.662809,-106.083888,14903,0
3605110,UNION WELL NO 08,,39.662809,-106.083888,32075.19539,0
3605110,UNION WELL NO 08,,39.662809,-106.083888,36738,0
3605111,UNION WELL NO 09,,39.653693,-106.076787,8916,0
3605111,UNION WELL NO 09,,39.653693,-106.076787,14903,0
3605111,UNION WELL NO 09,,39.653693,-106.076787,32075.19539,0
3605112,UNION WELL NO 10,,39.655514,-106.07678,8916,0
3605112,UNION WELL NO 10,,39.655514,-106.07678,14903,0
3605112,UNION WELL NO 10,,39.655514,-106.07678,32075.19539,0
3605113,UNION WELL NO 11,,39.657386,-106.077008,8916,0
3605113,UNION WELL NO 11,,39.657386,-106.077008,14903,0
3605113,UNION WELL NO 11,,39.657386,-106.077008,32075.19539,0
3605114,UNION WELL NO 12,,39.657367,-106.077031,8916,0
3605114,UNION WELL NO 12,,39.657367,-106.077031,14903,0
3605114,UNION WELL NO 12,,39.657367,-106.077031,32075.19539,0
3605115,VIDLER WELL NO 01,,39.595008,-106.006769,15829,0
3605115,VIDLER WELL NO 01,,39.595008,-106.006769,19875,0
3605115,VIDLER WELL NO 01,,39.595008,-106.006769,22965.22553,0
3605115,VIDLER WELL NO 01,,39.595008,-106.006769,30184.23561,0
3605115,VIDLER WELL NO 01,,39.595008,-106.006769,32075.18444,0
3605115,VIDLER WELL NO 01,,39.595008,-106.006769,32075.23561,0
3605115,VIDLER WELL NO 01,,39.595008,-106.006769,32075.2578,0
3605115,VIDLER WELL NO 01,,39.595008,-106.006769,33289,0
3605116,VIDLER WELL NO 02,,39.595432,-106.006694,15829,0
3605116,VIDLER WELL NO 02,,39.595432,-106.006694,19875,0
3605116,VIDLER WELL NO 02,,39.595432,-106.006694,22965.22553,0
3605116,VIDLER WELL NO 02,,39.595432,-106.006694,30184.23561,0
3605116,VIDLER WELL NO 02,,39.595432,-106.006694,32075.18444,0
3605116,VIDLER WELL NO 02,,39.595432,-106.006694,32075.23561,0
3605116,VIDLER WELL NO 02,,39.595432,-106.006694,32075.2578,0
3605116,VIDLER WELL NO 02,,39.595432,-106.006694,33289,0
3605117,VIDLER WELL NO 03,,39.594703,-106.007685,15829,0
3605117,VIDLER WELL NO 03,,39.594703,-106.007685,19875,0
3605117,VIDLER WELL NO 03,,39.594703,-106.007685,22965.22553,0
3605117,VIDLER WELL NO 03,,39.594703,-106.007685,30184.23561,0
3605117,VIDLER WELL NO 03,,39.594703,-106.007685,32075.18444,0
3605117,VIDLER WELL NO 03,,39.594703,-106.007685,32075.23561,0
3605117,VIDLER WELL NO 03,,39.594703,-106.007685,32075.2578,0
3605117,VIDLER WELL NO 03,,39.594703,-106.007685,33289,0
3605118,VIDLER WELL NO 04,,39.591275,-106.00392,15829,0
3605118,VIDLER WELL NO 04,,39.591275,-106.00392,19875,0
3605118,VIDLER WELL NO 04,,39.591275,-106.00392,22965.22553,1.5
3605118,VIDLER WELL NO 04,,39.591275,-106.00392,30184.23561,0
3605118,VIDLER WELL NO 04,,39.591275,-106.00392,32075.18444,0
3605118,VIDLER WELL NO 04,,39.591275,-106.00392,32075.23561,0
3605118,VIDLER WELL NO 04,,39.591275,-106.00392,32075.2578,0
3605118,VIDLER WELL NO 04,,39.591275,-106.00392,33289,0
3605119,VIDLER WELL NO 05,,39.591372,-106.004236,15829,0
3605119,VIDLER WELL NO 05,,39.591372,-106.004236,19875,0
3605119,VIDLER WELL NO 05,,39.591372,-106.004236,22965.22553,1.5
3605119,VIDLER WELL NO 05,,39.591372,-106.004236,30184.23561,0
3605119,VIDLER WELL NO 05,,39.591372,-106.004236,32075.18444,0
3605119,VIDLER WELL NO 05,,39.591372,-106.004236,32075.23561,0
3605119,VIDLER WELL NO 05,,39.591372,-106.004236,32075.2578,0.2
3605119,VIDLER WELL NO 05,,39.591372,-106.004236,33289,0
3605120,VIDLER WELL NO 06,,39.591563,-106.005019,15829,0
3605120,VIDLER WELL NO 06,,39.591563,-106.005019,19875,0
3605120,VIDLER WELL NO 06,,39.591563,-106.005019,22965.22553,0
3605120,VIDLER WELL NO 06,,39.591563,-106.005019,30184.23561,0
3605120,VIDLER WELL NO 06,,39.591563,-106.005019,32075.18444,0
